% program   : RTKPOST ver.2.4.3 b34
% inp file  : C:\Users\franc\Desktop\Satellite_Navigation\Workbook_3\Acquisizione_SwiftNav_20240410\swift-gnss-20240410-130631.sbp.obs
% inp file  : C:\Users\franc\Desktop\Satellite_Navigation\Workbook_3\Acquisizione_SwiftNav_20240410\swift-gnss-20240410-130631.sbp.nav
% obs start : 2024/04/10 11:06:49.0 GPST (week2309 299209.0s)
% obs end   : 2024/04/10 11:18:08.0 GPST (week2309 299888.0s)
% pos mode  : Single
% elev mask : 15.0 deg
% ionos opt : Broadcast
% tropo opt : Saastamoinen
% ephemeris : Broadcast
% navi sys  : GPS
%
% (lat/lon/height=WGS84/ellipsoidal,Q=1:fix,2:float,3:sbas,4:dgps,5:single,6:ppp,ns=# of satellites)
%  GPST                  latitude(deg) longitude(deg)  height(m)   Q  ns   sdn(m)   sde(m)   sdu(m)  sdne(m)  sdeu(m)  sdun(m) age(s)  ratio
2024/04/10 11:06:49.000   45.409532447   11.893988646    63.0774   5   8   2.9274   2.1946   6.5161   0.3594   1.0128   1.5250   0.00    0.0
2024/04/10 11:06:50.000   45.409531611   11.893988571    63.1645   5   8   2.9274   2.1947   6.5158   0.3583   1.0131   1.5242   0.00    0.0
2024/04/10 11:06:51.000   45.409531828   11.893987814    63.5669   5   8   2.9274   2.1948   6.5155   0.3571   1.0134   1.5233   0.00    0.0
2024/04/10 11:06:52.000   45.409532999   11.893987278    63.9656   5   8   2.9273   2.1949   6.5152   0.3559   1.0137   1.5224   0.00    0.0
2024/04/10 11:06:53.000   45.409534066   11.893986200    64.0253   5   8   2.9273   2.1950   6.5149   0.3547   1.0139   1.5215   0.00    0.0
2024/04/10 11:06:54.000   45.409533212   11.893987894    64.5686   5   8   2.9272   2.1951   6.5147   0.3535   1.0142   1.5206   0.00    0.0
2024/04/10 11:06:55.000   45.409535066   11.893986686    65.0117   5   8   2.9272   2.1951   6.5144   0.3523   1.0145   1.5197   0.00    0.0
2024/04/10 11:06:56.000   45.409534751   11.893986413    65.1717   5   8   2.9271   2.1952   6.5141   0.3511   1.0148   1.5188   0.00    0.0
2024/04/10 11:06:57.000   45.409534554   11.893987410    65.4189   5   8   2.9271   2.1953   6.5138   0.3499   1.0150   1.5179   0.00    0.0
2024/04/10 11:06:58.000   45.409532887   11.893986955    65.5573   5   8   2.9270   2.1954   6.5135   0.3487   1.0153   1.5170   0.00    0.0
2024/04/10 11:06:59.000   45.409533510   11.893986895    65.2224   5   8   2.9270   2.1955   6.5132   0.3475   1.0156   1.5161   0.00    0.0
2024/04/10 11:07:00.000   45.409534847   11.893984513    64.8654   5   8   2.9269   2.1956   6.5129   0.3463   1.0159   1.5152   0.00    0.0
2024/04/10 11:07:01.000   45.409533051   11.893985578    64.7239   5   8   2.9269   2.1957   6.5127   0.3451   1.0162   1.5143   0.00    0.0
2024/04/10 11:07:02.000   45.409533422   11.893985012    64.5159   5   8   2.9269   2.1957   6.5124   0.3438   1.0164   1.5134   0.00    0.0
2024/04/10 11:07:03.000   45.409533954   11.893984537    63.5840   5   8   2.9268   2.1958   6.5121   0.3426   1.0167   1.5126   0.00    0.0
2024/04/10 11:07:04.000   45.409531357   11.893985766    63.6132   5   8   2.9268   2.1959   6.5118   0.3414   1.0170   1.5117   0.00    0.0
2024/04/10 11:07:05.000   45.409530807   11.893986244    63.0803   5   8   2.9267   2.1960   6.5115   0.3401   1.0173   1.5108   0.00    0.0
2024/04/10 11:07:06.000   45.409530702   11.893985247    62.6736   5   8   2.9267   2.1961   6.5112   0.3389   1.0176   1.5099   0.00    0.0
2024/04/10 11:07:07.000   45.409528625   11.893985969    62.1637   5   8   2.9266   2.1962   6.5109   0.3376   1.0178   1.5090   0.00    0.0
2024/04/10 11:07:08.000   45.409526336   11.893987201    62.0389   5   8   2.9266   2.1962   6.5106   0.3364   1.0181   1.5081   0.00    0.0
2024/04/10 11:07:09.000   45.409526047   11.893987088    62.0268   5   8   2.9265   2.1963   6.5104   0.3351   1.0184   1.5071   0.00    0.0
2024/04/10 11:07:10.000   45.409525224   11.893985347    62.2668   5   8   2.9265   2.1964   6.5101   0.3338   1.0187   1.5062   0.00    0.0
2024/04/10 11:07:11.000   45.409524654   11.893985887    62.0868   5   8   2.9265   2.1965   6.5098   0.3326   1.0189   1.5053   0.00    0.0
2024/04/10 11:07:12.000   45.409524610   11.893985711    61.8617   5   8   2.9264   2.1966   6.5095   0.3313   1.0192   1.5044   0.00    0.0
2024/04/10 11:07:13.000   45.409524325   11.893984788    62.0067   5   8   2.9264   2.1967   6.5092   0.3300   1.0195   1.5035   0.00    0.0
2024/04/10 11:07:14.000   45.409523299   11.893983887    62.3451   5   8   2.9263   2.1968   6.5089   0.3287   1.0198   1.5026   0.00    0.0
2024/04/10 11:07:15.000   45.409524374   11.893984738    62.9002   5   8   2.9263   2.1969   6.5086   0.3275   1.0201   1.5017   0.00    0.0
2024/04/10 11:07:16.000   45.409523906   11.893985513    62.9240   5   8   2.9262   2.1969   6.5083   0.3262   1.0203   1.5008   0.00    0.0
2024/04/10 11:07:17.000   45.409525149   11.893984752    62.8985   5   8   2.9262   2.1970   6.5080   0.3249   1.0206   1.4999   0.00    0.0
2024/04/10 11:07:18.000   45.409527115   11.893984650    62.6982   5   8   2.9262   2.1971   6.5077   0.3236   1.0209   1.4990   0.00    0.0
2024/04/10 11:07:19.000   45.409528528   11.893987249    63.0342   5   8   2.9261   2.1972   6.5074   0.3223   1.0212   1.4981   0.00    0.0
2024/04/10 11:07:20.000   45.409529579   11.893989142    63.6389   5   8   2.9261   2.1973   6.5071   0.3209   1.0215   1.4972   0.00    0.0
2024/04/10 11:07:21.000   45.409531898   11.893991462    64.0507   5   8   2.9260   2.1974   6.5068   0.3196   1.0217   1.4962   0.00    0.0
2024/04/10 11:07:22.000   45.409532172   11.893990660    63.6306   5   8   2.9260   2.1975   6.5065   0.3183   1.0220   1.4953   0.00    0.0
2024/04/10 11:07:23.000   45.409532471   11.893987934    63.1099   5   8   2.9259   2.1975   6.5062   0.3170   1.0223   1.4944   0.00    0.0
2024/04/10 11:07:24.000   45.409534381   11.893988349    63.5102   5   8   2.9259   2.1976   6.5059   0.3156   1.0226   1.4935   0.00    0.0
2024/04/10 11:07:25.000   45.409533738   11.893990337    63.4249   5   8   2.9259   2.1977   6.5056   0.3143   1.0228   1.4926   0.00    0.0
2024/04/10 11:07:26.000   45.409533291   11.893988551    63.2784   5   8   2.9258   2.1978   6.5053   0.3129   1.0231   1.4917   0.00    0.0
2024/04/10 11:07:27.000   45.409532393   11.893989414    63.2075   5   8   2.9258   2.1979   6.5050   0.3116   1.0234   1.4908   0.00    0.0
2024/04/10 11:07:28.000   45.409533152   11.893987957    63.4559   5   8   2.9257   2.1980   6.5047   0.3102   1.0237   1.4898   0.00    0.0
2024/04/10 11:07:29.000   45.409533968   11.893986538    63.2619   5   8   2.9257   2.1981   6.5044   0.3088   1.0240   1.4889   0.00    0.0
2024/04/10 11:07:30.000   45.409536176   11.893985759    63.5296   5   8   2.9256   2.1982   6.5041   0.3075   1.0242   1.4880   0.00    0.0
2024/04/10 11:07:31.000   45.409534840   11.893985417    63.3792   5   8   2.9256   2.1982   6.5038   0.3061   1.0245   1.4871   0.00    0.0
2024/04/10 11:07:32.000   45.409534484   11.893983128    62.8417   5   8   2.9256   2.1983   6.5035   0.3047   1.0248   1.4862   0.00    0.0
2024/04/10 11:07:33.000   45.409534318   11.893983610    63.0468   5   8   2.9255   2.1984   6.5032   0.3033   1.0251   1.4852   0.00    0.0
2024/04/10 11:07:34.000   45.409532184   11.893985611    63.3492   5   8   2.9255   2.1985   6.5029   0.3019   1.0253   1.4843   0.00    0.0
2024/04/10 11:07:35.000   45.409532310   11.893985749    63.3788   5   8   2.9254   2.1986   6.5026   0.3005   1.0256   1.4834   0.00    0.0
2024/04/10 11:07:36.000   45.409533326   11.893985965    63.4822   5   8   2.9254   2.1987   6.5023   0.2991   1.0259   1.4825   0.00    0.0
2024/04/10 11:07:37.000   45.409534855   11.893986802    63.0658   5   8   2.9254   2.1988   6.5020   0.2977   1.0262   1.4815   0.00    0.0
2024/04/10 11:07:38.000   45.409532597   11.893986322    63.4240   5   8   2.9253   2.1989   6.5017   0.2963   1.0264   1.4806   0.00    0.0
2024/04/10 11:07:39.000   45.409532353   11.893987242    63.5902   5   8   2.9253   2.1989   6.5014   0.2948   1.0267   1.4797   0.00    0.0
2024/04/10 11:07:40.000   45.409532182   11.893987722    63.3911   5   8   2.9252   2.1990   6.5011   0.2934   1.0270   1.4787   0.00    0.0
2024/04/10 11:07:41.000   45.409532197   11.893988253    63.5047   5   8   2.9252   2.1991   6.5008   0.2919   1.0273   1.4778   0.00    0.0
2024/04/10 11:07:42.000   45.409531182   11.893987989    63.6227   5   8   2.9252   2.1992   6.5005   0.2905   1.0276   1.4769   0.00    0.0
2024/04/10 11:07:43.000   45.409529780   11.893988819    63.4007   5   8   2.9251   2.1993   6.5002   0.2890   1.0278   1.4760   0.00    0.0
2024/04/10 11:07:44.000   45.409528210   11.893988978    62.9938   5   8   2.9251   2.1994   6.4999   0.2876   1.0281   1.4750   0.00    0.0
2024/04/10 11:07:45.000   45.409526256   11.893986774    63.0579   5   8   2.9250   2.1995   6.4996   0.2861   1.0284   1.4741   0.00    0.0
2024/04/10 11:07:46.000   45.409525635   11.893987168    62.9912   5   8   2.9250   2.1996   6.4993   0.2846   1.0287   1.4732   0.00    0.0
2024/04/10 11:07:47.000   45.409524587   11.893985656    63.1331   5   8   2.9250   2.1996   6.4989   0.2831   1.0289   1.4722   0.00    0.0
2024/04/10 11:07:48.000   45.409525256   11.893986246    62.9183   5   8   2.9249   2.1997   6.4986   0.2816   1.0292   1.4713   0.00    0.0
2024/04/10 11:07:49.000   45.409525528   11.893983520    62.9406   5   8   2.9249   2.1998   6.4983   0.2801   1.0295   1.4704   0.00    0.0
2024/04/10 11:07:50.000   45.409526783   11.893983525    63.0960   5   8   2.9248   2.1999   6.4980   0.2786   1.0298   1.4694   0.00    0.0
2024/04/10 11:07:51.000   45.409527752   11.893984801    63.1181   5   8   2.9248   2.2000   6.4977   0.2771   1.0300   1.4685   0.00    0.0
2024/04/10 11:07:52.000   45.409527950   11.893987086    63.1948   5   8   2.9248   2.2001   6.4974   0.2755   1.0303   1.4675   0.00    0.0
2024/04/10 11:07:53.000   45.409529738   11.893987223    63.0326   5   8   2.9247   2.2002   6.4971   0.2740   1.0306   1.4666   0.00    0.0
2024/04/10 11:07:54.000   45.409529376   11.893987469    62.8899   5   8   2.9247   2.2003   6.4968   0.2724   1.0309   1.4657   0.00    0.0
2024/04/10 11:07:55.000   45.409527942   11.893987891    63.2370   5   8   2.9247   2.2004   6.4965   0.2709   1.0312   1.4647   0.00    0.0
2024/04/10 11:07:56.000   45.409529638   11.893987873    62.9120   5   8   2.9246   2.2004   6.4961   0.2693   1.0314   1.4638   0.00    0.0
2024/04/10 11:07:57.000   45.409530284   11.893986716    63.4035   5   8   2.9246   2.2005   6.4958   0.2677   1.0317   1.4628   0.00    0.0
2024/04/10 11:07:58.000   45.409531154   11.893988731    63.6663   5   8   2.9245   2.2006   6.4955   0.2662   1.0320   1.4619   0.00    0.0
2024/04/10 11:07:59.000   45.409532379   11.893988142    64.0069   5   8   2.9245   2.2007   6.4952   0.2646   1.0323   1.4609   0.00    0.0
2024/04/10 11:08:00.000   45.409532476   11.893987565    63.8281   5   8   2.9245   2.2008   6.4949   0.2630   1.0325   1.4600   0.00    0.0
2024/04/10 11:08:01.000   45.409530996   11.893986368    63.6353   5   8   2.9244   2.2009   6.4946   0.2613   1.0328   1.4591   0.00    0.0
2024/04/10 11:08:02.000   45.409531384   11.893984641    63.6889   5   8   2.9244   2.2010   6.4942   0.2597   1.0331   1.4581   0.00    0.0
2024/04/10 11:08:03.000   45.409532435   11.893984116    63.7817   5   8   2.9244   2.2011   6.4939   0.2581   1.0334   1.4572   0.00    0.0
2024/04/10 11:08:04.000   45.409534327   11.893983807    63.6944   5   8   2.9243   2.2012   6.4936   0.2564   1.0336   1.4562   0.00    0.0
2024/04/10 11:08:05.000   45.409533339   11.893983951    63.2623   5   8   2.9243   2.2013   6.4933   0.2548   1.0339   1.4553   0.00    0.0
2024/04/10 11:08:06.000   45.409532347   11.893984681    63.4651   5   8   2.9242   2.2013   6.4930   0.2531   1.0342   1.4543   0.00    0.0
2024/04/10 11:08:07.000   45.409532407   11.893983906    63.0135   5   8   2.9242   2.2014   6.4927   0.2514   1.0345   1.4534   0.00    0.0
2024/04/10 11:08:08.000   45.409532716   11.893982363    62.8603   5   8   2.9242   2.2015   6.4923   0.2497   1.0348   1.4524   0.00    0.0
2024/04/10 11:08:09.000   45.409532636   11.893980788    63.4797   5   8   2.9241   2.2016   6.4920   0.2480   1.0350   1.4514   0.00    0.0
2024/04/10 11:08:10.000   45.409532623   11.893980411    63.2393   5   8   2.9241   2.2017   6.4917   0.2463   1.0353   1.4505   0.00    0.0
2024/04/10 11:08:11.000   45.409533356   11.893978833    63.3157   5   8   2.9241   2.2018   6.4914   0.2446   1.0356   1.4495   0.00    0.0
2024/04/10 11:08:12.000   45.409531509   11.893977931    63.4545   5   8   2.9240   2.2019   6.4911   0.2428   1.0359   1.4486   0.00    0.0
2024/04/10 11:08:13.000   45.409531753   11.893977078    63.5683   5   8   2.9240   2.2020   6.4907   0.2411   1.0361   1.4476   0.00    0.0
2024/04/10 11:08:14.000   45.409531591   11.893976257    63.3992   5   8   2.9240   2.2021   6.4904   0.2393   1.0364   1.4467   0.00    0.0
2024/04/10 11:08:15.000   45.409531764   11.893975876    63.6112   5   8   2.9239   2.2022   6.4901   0.2376   1.0367   1.4457   0.00    0.0
2024/04/10 11:08:16.000   45.409532583   11.893976062    63.5604   5   8   2.9239   2.2022   6.4898   0.2358   1.0370   1.4448   0.00    0.0
2024/04/10 11:08:17.000   45.409532481   11.893975391    63.7206   5   8   2.9239   2.2023   6.4894   0.2340   1.0372   1.4438   0.00    0.0
2024/04/10 11:08:18.000   45.409532352   11.893974690    63.8570   5   8   2.9238   2.2024   6.4891   0.2321   1.0375   1.4428   0.00    0.0
2024/04/10 11:08:19.000   45.409533076   11.893976947    64.1623   5   8   2.9238   2.2025   6.4888   0.2303   1.0378   1.4419   0.00    0.0
2024/04/10 11:08:20.000   45.409532820   11.893977970    63.8759   5   8   2.9237   2.2026   6.4885   0.2285   1.0381   1.4409   0.00    0.0
2024/04/10 11:08:21.000   45.409534403   11.893977372    63.7454   5   8   2.9237   2.2027   6.4881   0.2266   1.0383   1.4399   0.00    0.0
2024/04/10 11:08:22.000   45.409534129   11.893978959    63.7188   5   8   2.9237   2.2028   6.4878   0.2247   1.0386   1.4390   0.00    0.0
2024/04/10 11:08:23.000   45.409535185   11.893977641    63.4596   5   8   2.9236   2.2029   6.4875   0.2228   1.0389   1.4380   0.00    0.0
2024/04/10 11:08:24.000   45.409533751   11.893978290    63.3067   5   8   2.9236   2.2030   6.4872   0.2209   1.0392   1.4370   0.00    0.0
2024/04/10 11:08:25.000   45.409530197   11.893978448    63.4467   5   8   2.9236   2.2031   6.4868   0.2190   1.0394   1.4361   0.00    0.0
2024/04/10 11:08:26.000   45.409530629   11.893981455    62.9805   5   8   2.9235   2.2032   6.4865   0.2170   1.0397   1.4351   0.00    0.0
2024/04/10 11:08:27.000   45.409529750   11.893983267    62.9475   5   8   2.9235   2.2032   6.4862   0.2151   1.0400   1.4341   0.00    0.0
2024/04/10 11:08:28.000   45.409530230   11.893985076    63.3874   5   8   2.9235   2.2033   6.4858   0.2131   1.0403   1.4332   0.00    0.0
2024/04/10 11:08:29.000   45.409530957   11.893986423    63.6361   5   8   2.9234   2.2034   6.4855   0.2111   1.0405   1.4322   0.00    0.0
2024/04/10 11:08:30.000   45.409531453   11.893986620    63.7439   5   8   2.9234   2.2035   6.4852   0.2091   1.0408   1.4312   0.00    0.0
2024/04/10 11:08:31.000   45.409532771   11.893984905    63.9997   5   8   2.9234   2.2036   6.4849   0.2070   1.0411   1.4303   0.00    0.0
2024/04/10 11:08:32.000   45.409532110   11.893984531    64.2278   5   8   2.9233   2.2037   6.4845   0.2050   1.0414   1.4293   0.00    0.0
2024/04/10 11:08:33.000   45.409532646   11.893983349    64.5072   5   8   2.9233   2.2038   6.4842   0.2029   1.0416   1.4283   0.00    0.0
2024/04/10 11:08:34.000   45.409531869   11.893983086    64.5802   5   8   2.9233   2.2039   6.4839   0.2008   1.0419   1.4273   0.00    0.0
2024/04/10 11:08:35.000   45.409532350   11.893981470    64.9381   5   8   2.9232   2.2040   6.4835   0.1987   1.0422   1.4264   0.00    0.0
2024/04/10 11:08:36.000   45.409531658   11.893980193    64.5550   5   8   2.9232   2.2041   6.4832   0.1965   1.0425   1.4254   0.00    0.0
2024/04/10 11:08:37.000   45.409531440   11.893979235    64.6994   5   8   2.9232   2.2042   6.4829   0.1944   1.0427   1.4244   0.00    0.0
2024/04/10 11:08:38.000   45.409530280   11.893979218    64.6333   5   8   2.9231   2.2043   6.4825   0.1922   1.0430   1.4234   0.00    0.0
2024/04/10 11:08:39.000   45.409531451   11.893980562    64.8724   5   8   2.9231   2.2043   6.4822   0.1899   1.0433   1.4224   0.00    0.0
2024/04/10 11:08:40.000   45.409530773   11.893983117    65.2121   5   8   2.9231   2.2044   6.4819   0.1877   1.0436   1.4215   0.00    0.0
2024/04/10 11:08:41.000   45.409531832   11.893983971    65.1694   5   8   2.9230   2.2045   6.4815   0.1854   1.0438   1.4205   0.00    0.0
2024/04/10 11:08:42.000   45.409532555   11.893982454    65.2892   5   8   2.9230   2.2046   6.4812   0.1831   1.0441   1.4195   0.00    0.0
2024/04/10 11:08:43.000   45.409532646   11.893983615    65.2039   5   8   2.9230   2.2047   6.4808   0.1808   1.0444   1.4185   0.00    0.0
2024/04/10 11:08:44.000   45.409533253   11.893983376    65.1290   5   8   2.9230   2.2048   6.4805   0.1784   1.0447   1.4175   0.00    0.0
2024/04/10 11:08:45.000   45.409533791   11.893982339    65.6315   5   8   2.9229   2.2049   6.4802   0.1760   1.0449   1.4165   0.00    0.0
2024/04/10 11:08:46.000   45.409533334   11.893983348    66.4080   5   8   2.9229   2.2050   6.4798   0.1736   1.0452   1.4156   0.00    0.0
2024/04/10 11:08:47.000   45.409530770   11.893982314    66.6748   5   8   2.9229   2.2051   6.4795   0.1711   1.0455   1.4146   0.00    0.0
2024/04/10 11:08:48.000   45.409530266   11.893982352    66.3502   5   8   2.9228   2.2052   6.4792   0.1686   1.0458   1.4136   0.00    0.0
2024/04/10 11:08:49.000   45.409530992   11.893982931    65.9235   5   8   2.9228   2.2053   6.4788   0.1661   1.0460   1.4126   0.00    0.0
2024/04/10 11:08:50.000   45.409529302   11.893984161    65.9975   5   8   2.9228   2.2054   6.4785   0.1635   1.0463   1.4116   0.00    0.0
2024/04/10 11:08:51.000   45.409529368   11.893984512    65.8101   5   8   2.9227   2.2055   6.4781   0.1609   1.0466   1.4106   0.00    0.0
2024/04/10 11:08:52.000   45.409529004   11.893986041    65.5626   5   8   2.9227   2.2056   6.4778   0.1582   1.0469   1.4096   0.00    0.0
2024/04/10 11:08:53.000   45.409529393   11.893987807    65.1515   5   8   2.9227   2.2056   6.4775   0.1555   1.0471   1.4086   0.00    0.0
2024/04/10 11:08:54.000   45.409529094   11.893986599    64.8428   5   8   2.9226   2.2057   6.4771   0.1528   1.0474   1.4076   0.00    0.0
2024/04/10 11:08:55.000   45.409525081   11.893985234    64.8432   5   8   2.9226   2.2058   6.4768   0.1500   1.0477   1.4066   0.00    0.0
2024/04/10 11:08:56.000   45.409525627   11.893986053    64.7555   5   8   2.9226   2.2059   6.4764   0.1471   1.0480   1.4056   0.00    0.0
2024/04/10 11:08:57.000   45.409526069   11.893985736    64.5763   5   8   2.9226   2.2060   6.4761   0.1442   1.0482   1.4046   0.00    0.0
2024/04/10 11:08:58.000   45.409525667   11.893984676    64.5161   5   8   2.9225   2.2061   6.4758   0.1412   1.0485   1.4036   0.00    0.0
2024/04/10 11:08:59.000   45.409527111   11.893983704    64.8372   5   8   2.9225   2.2062   6.4754   0.1382   1.0488   1.4026   0.00    0.0
2024/04/10 11:09:00.000   45.409526304   11.893985580    64.3947   5   8   2.9225   2.2063   6.4751   0.1351   1.0491   1.4017   0.00    0.0
2024/04/10 11:09:01.000   45.409526105   11.893986250    64.0307   5   8   2.9224   2.2064   6.4747   0.1319   1.0493   1.4007   0.00    0.0
2024/04/10 11:09:02.000   45.409525449   11.893987327    63.6964   5   8   2.9224   2.2065   6.4744   0.1286   1.0496   1.3996   0.00    0.0
2024/04/10 11:09:03.000   45.409526822   11.893987664    63.1255   5   8   2.9224   2.2066   6.4740   0.1253   1.0499   1.3986   0.00    0.0
2024/04/10 11:09:04.000   45.409526795   11.893986758    63.1056   5   8   2.9223   2.2067   6.4737   0.1218   1.0502   1.3976   0.00    0.0
2024/04/10 11:09:05.000   45.409527754   11.893985967    62.6522   5   8   2.9223   2.2068   6.4733   0.1183   1.0504   1.3966   0.00    0.0
2024/04/10 11:09:06.000   45.409528055   11.893986576    62.6239   5   8   2.9223   2.2069   6.4730   0.1147   1.0507   1.3956   0.00    0.0
2024/04/10 11:09:07.000   45.409528383   11.893986977    62.8368   5   8   2.9223   2.2070   6.4726   0.1109   1.0510   1.3946   0.00    0.0
2024/04/10 11:09:08.000   45.409528814   11.893987131    63.1726   5   8   2.9222   2.2071   6.4723   0.1070   1.0513   1.3936   0.00    0.0
2024/04/10 11:09:09.000   45.409529068   11.893984899    62.8471   5   8   2.9222   2.2071   6.4720   0.1029   1.0515   1.3926   0.00    0.0
2024/04/10 11:09:10.000   45.409531336   11.893986839    63.0677   5   8   2.9222   2.2072   6.4716   0.0987   1.0518   1.3916   0.00    0.0
2024/04/10 11:09:11.000   45.409530785   11.893986653    63.3262   5   8   2.9222   2.2073   6.4713   0.0943   1.0521   1.3906   0.00    0.0
2024/04/10 11:09:12.000   45.409531951   11.893985779    63.0838   5   8   2.9221   2.2074   6.4709   0.0897   1.0524   1.3896   0.00    0.0
2024/04/10 11:09:13.000   45.409532224   11.893988050    63.3036   5   8   2.9221   2.2075   6.4706   0.0848   1.0526   1.3886   0.00    0.0
2024/04/10 11:09:14.000   45.409531124   11.893986815    62.5030   5   8   2.9221   2.2076   6.4702   0.0797   1.0529   1.3876   0.00    0.0
2024/04/10 11:09:15.000   45.409531392   11.893988437    62.7339   5   8   2.9220   2.2077   6.4699   0.0741   1.0532   1.3866   0.00    0.0
2024/04/10 11:09:16.000   45.409530336   11.893988581    63.3030   5   8   2.9220   2.2078   6.4695   0.0682   1.0535   1.3855   0.00    0.0
2024/04/10 11:09:17.000   45.409531623   11.893988908    63.3456   5   8   2.9220   2.2079   6.4692   0.0616   1.0537   1.3845   0.00    0.0
2024/04/10 11:09:18.000   45.409529443   11.893988993    63.3120   5   8   2.9220   2.2080   6.4688   0.0543   1.0540   1.3835   0.00    0.0
2024/04/10 11:09:19.000   45.409528320   11.893987800    63.2097   5   8   2.9219   2.2081   6.4684   0.0458   1.0543   1.3825   0.00    0.0
2024/04/10 11:09:20.000   45.409528684   11.893987749    63.0598   5   8   2.9219   2.2082   6.4681   0.0353   1.0546   1.3815   0.00    0.0
2024/04/10 11:09:21.000   45.409528196   11.893987154    62.8002   5   8   2.9219   2.2083   6.4677   0.0199   1.0548   1.3805   0.00    0.0
2024/04/10 11:09:22.000   45.409528034   11.893985685    62.5877   5   8   2.9219   2.2084   6.4674  -0.0214   1.0551   1.3794   0.00    0.0
2024/04/10 11:09:23.000   45.409526117   11.893985669    62.6325   5   8   2.9218   2.2085   6.4670  -0.0361   1.0554   1.3784   0.00    0.0
2024/04/10 11:09:24.000   45.409524165   11.893986154    62.8728   5   8   2.9218   2.2086   6.4667  -0.0464   1.0557   1.3774   0.00    0.0
2024/04/10 11:09:25.000   45.409525238   11.893986394    62.5353   5   8   2.9218   2.2087   6.4663  -0.0548   1.0559   1.3764   0.00    0.0
2024/04/10 11:09:26.000   45.409525029   11.893985546    62.3395   5   8   2.9217   2.2088   6.4660  -0.0621   1.0562   1.3753   0.00    0.0
2024/04/10 11:09:27.000   45.409521814   11.893985791    63.0852   5   8   2.9217   2.2089   6.4656  -0.0686   1.0565   1.3743   0.00    0.0
2024/04/10 11:09:28.000   45.409520938   11.893985502    63.5001   5   8   2.9217   2.2090   6.4653  -0.0746   1.0568   1.3733   0.00    0.0
2024/04/10 11:09:29.000   45.409520712   11.893986568    63.2286   5   8   2.9217   2.2091   6.4649  -0.0801   1.0570   1.3723   0.00    0.0
2024/04/10 11:09:30.000   45.409520625   11.893987586    63.1303   5   8   2.9216   2.2091   6.4645  -0.0852   1.0573   1.3712   0.00    0.0
2024/04/10 11:09:31.000   45.409520130   11.893988612    62.8770   5   8   2.9216   2.2092   6.4642  -0.0901   1.0576   1.3702   0.00    0.0
2024/04/10 11:09:32.000   45.409518754   11.893988770    62.8739   5   8   2.9216   2.2093   6.4638  -0.0947   1.0579   1.3692   0.00    0.0
2024/04/10 11:09:33.000   45.409521357   11.893987484    62.6464   5   8   2.9216   2.2094   6.4635  -0.0991   1.0581   1.3682   0.00    0.0
2024/04/10 11:09:34.000   45.409523479   11.893986233    63.1566   5   8   2.9215   2.2095   6.4631  -0.1033   1.0584   1.3671   0.00    0.0
2024/04/10 11:09:35.000   45.409524406   11.893986543    63.3215   5   8   2.9215   2.2096   6.4628  -0.1073   1.0587   1.3661   0.00    0.0
2024/04/10 11:09:36.000   45.409524862   11.893988527    62.9442   5   8   2.9215   2.2097   6.4624  -0.1112   1.0590   1.3651   0.00    0.0
2024/04/10 11:09:37.000   45.409524329   11.893989841    63.2155   5   8   2.9215   2.2098   6.4620  -0.1150   1.0592   1.3640   0.00    0.0
2024/04/10 11:09:38.000   45.409525340   11.893988329    63.8030   5   8   2.9214   2.2099   6.4617  -0.1186   1.0595   1.3630   0.00    0.0
2024/04/10 11:09:39.000   45.409524940   11.893987912    64.1347   5   8   2.9214   2.2100   6.4613  -0.1222   1.0598   1.3619   0.00    0.0
2024/04/10 11:09:40.000   45.409525530   11.893987562    64.2150   5   8   2.9214   2.2101   6.4610  -0.1256   1.0600   1.3609   0.00    0.0
2024/04/10 11:09:41.000   45.409524995   11.893989814    64.2851   5   8   2.9214   2.2102   6.4606  -0.1289   1.0603   1.3599   0.00    0.0
2024/04/10 11:09:42.000   45.409525131   11.893987325    64.4088   5   8   2.9214   2.2103   6.4602  -0.1322   1.0606   1.3588   0.00    0.0
2024/04/10 11:09:43.000   45.409524921   11.893986388    64.3720   5   8   2.9213   2.2104   6.4599  -0.1354   1.0609   1.3578   0.00    0.0
2024/04/10 11:09:44.000   45.409524455   11.893984907    64.3929   5   8   2.9213   2.2105   6.4595  -0.1385   1.0611   1.3568   0.00    0.0
2024/04/10 11:09:45.000   45.409523228   11.893986074    64.7101   5   8   2.9213   2.2106   6.4591  -0.1415   1.0614   1.3557   0.00    0.0
2024/04/10 11:09:46.000   45.409526138   11.893985289    64.2402   5   8   2.9213   2.2107   6.4588  -0.1445   1.0617   1.3547   0.00    0.0
2024/04/10 11:09:47.000   45.409523959   11.893985003    63.5360   5   8   2.9212   2.2108   6.4584  -0.1474   1.0620   1.3536   0.00    0.0
2024/04/10 11:09:48.000   45.409521505   11.893986849    63.7750   5   8   2.9212   2.2109   6.4580  -0.1503   1.0622   1.3526   0.00    0.0
2024/04/10 11:09:49.000   45.409520230   11.893986505    63.6047   5   8   2.9212   2.2110   6.4577  -0.1531   1.0625   1.3515   0.00    0.0
2024/04/10 11:09:50.000   45.409518983   11.893984535    63.3082   5   8   2.9212   2.2111   6.4573  -0.1558   1.0628   1.3505   0.00    0.0
2024/04/10 11:09:51.000   45.409518989   11.893984578    62.9555   5   8   2.9211   2.2112   6.4570  -0.1586   1.0631   1.3494   0.00    0.0
2024/04/10 11:09:52.000   45.409517487   11.893983694    62.5534   5   8   2.9211   2.2113   6.4566  -0.1612   1.0633   1.3484   0.00    0.0
2024/04/10 11:09:53.000   45.409516655   11.893985283    63.0032   5   8   2.9211   2.2114   6.4562  -0.1638   1.0636   1.3473   0.00    0.0
2024/04/10 11:09:54.000   45.409515749   11.893986647    63.2394   5   8   2.9211   2.2115   6.4559  -0.1664   1.0639   1.3463   0.00    0.0
2024/04/10 11:09:55.000   45.409516194   11.893987404    62.7859   5   8   2.9211   2.2116   6.4555  -0.1690   1.0642   1.3452   0.00    0.0
2024/04/10 11:09:56.000   45.409515766   11.893988565    63.0918   5   8   2.9210   2.2117   6.4551  -0.1715   1.0644   1.3442   0.00    0.0
2024/04/10 11:09:57.000   45.409515800   11.893989840    63.2825   5   8   2.9210   2.2118   6.4547  -0.1739   1.0647   1.3431   0.00    0.0
2024/04/10 11:09:58.000   45.409516167   11.893993103    63.3186   5   8   2.9210   2.2119   6.4544  -0.1764   1.0650   1.3421   0.00    0.0
2024/04/10 11:09:59.000   45.409517270   11.893995126    63.3495   5   8   2.9210   2.2120   6.4540  -0.1788   1.0652   1.3410   0.00    0.0
2024/04/10 11:10:00.000   45.409518114   11.893995673    63.4196   5   8   2.9209   2.2121   6.4536  -0.1811   1.0655   1.3400   0.00    0.0
2024/04/10 11:10:01.000   45.409517741   11.893996510    63.3334   5   8   2.9209   2.2122   6.4533  -0.1835   1.0658   1.3389   0.00    0.0
2024/04/10 11:10:02.000   45.409519618   11.893995306    63.8358   5   8   2.9209   2.2123   6.4529  -0.1858   1.0661   1.3378   0.00    0.0
2024/04/10 11:10:03.000   45.409522576   11.893996105    64.2051   5   8   2.9209   2.2124   6.4525  -0.1881   1.0663   1.3368   0.00    0.0
2024/04/10 11:10:04.000   45.409524642   11.893995631    64.4982   5   8   2.9209   2.2125   6.4522  -0.1903   1.0666   1.3357   0.00    0.0
2024/04/10 11:10:05.000   45.409525528   11.893994080    64.1699   5   8   2.9208   2.2126   6.4518  -0.1925   1.0669   1.3347   0.00    0.0
2024/04/10 11:10:06.000   45.409525556   11.893992870    64.5437   5   8   2.9208   2.2127   6.4514  -0.1947   1.0672   1.3336   0.00    0.0
2024/04/10 11:10:07.000   45.409527117   11.893990788    64.4695   5   8   2.9208   2.2127   6.4510  -0.1969   1.0674   1.3325   0.00    0.0
2024/04/10 11:10:08.000   45.409525848   11.893991340    65.0315   5   8   2.9208   2.2128   6.4507  -0.1991   1.0677   1.3315   0.00    0.0
2024/04/10 11:10:09.000   45.409526369   11.893991989    65.5047   5   8   2.9208   2.2129   6.4503  -0.2012   1.0680   1.3304   0.00    0.0
2024/04/10 11:10:10.000   45.409525913   11.893992382    64.9793   5   8   2.9207   2.2130   6.4499  -0.2033   1.0683   1.3293   0.00    0.0
2024/04/10 11:10:11.000   45.409524533   11.893991956    64.9480   5   8   2.9207   2.2131   6.4495  -0.2054   1.0685   1.3283   0.00    0.0
2024/04/10 11:10:12.000   45.409524184   11.893990296    64.5149   5   8   2.9207   2.2132   6.4492  -0.2075   1.0688   1.3272   0.00    0.0
2024/04/10 11:10:13.000   45.409524166   11.893988934    64.0311   5   8   2.9207   2.2133   6.4488  -0.2095   1.0691   1.3261   0.00    0.0
2024/04/10 11:10:14.000   45.409524684   11.893986467    63.8132   5   8   2.9207   2.2134   6.4484  -0.2115   1.0693   1.3251   0.00    0.0
2024/04/10 11:10:15.000   45.409528128   11.893983895    63.7394   5   8   2.9206   2.2135   6.4480  -0.2135   1.0696   1.3240   0.00    0.0
2024/04/10 11:10:16.000   45.409529631   11.893984425    63.7482   5   8   2.9206   2.2136   6.4477  -0.2155   1.0699   1.3229   0.00    0.0
2024/04/10 11:10:17.000   45.409530688   11.893982795    63.9683   5   8   2.9206   2.2137   6.4473  -0.2175   1.0702   1.3218   0.00    0.0
2024/04/10 11:10:18.000   45.409532954   11.893983024    64.0018   5   8   2.9206   2.2138   6.4469  -0.2195   1.0704   1.3208   0.00    0.0
2024/04/10 11:10:19.000   45.409531753   11.893982050    64.2578   5   8   2.9206   2.2139   6.4465  -0.2214   1.0707   1.3197   0.00    0.0
2024/04/10 11:10:20.000   45.409531451   11.893982361    64.2440   5   8   2.9206   2.2140   6.4462  -0.2233   1.0710   1.3186   0.00    0.0
2024/04/10 11:10:21.000   45.409531495   11.893981315    64.0445   5   8   2.9205   2.2141   6.4458  -0.2252   1.0713   1.3175   0.00    0.0
2024/04/10 11:10:22.000   45.409531744   11.893983137    64.4812   5   8   2.9205   2.2142   6.4454  -0.2271   1.0715   1.3164   0.00    0.0
2024/04/10 11:10:23.000   45.409532119   11.893982375    64.6047   5   8   2.9205   2.2143   6.4450  -0.2290   1.0718   1.3154   0.00    0.0
2024/04/10 11:10:24.000   45.409530856   11.893982391    64.4739   5   8   2.9205   2.2144   6.4446  -0.2308   1.0721   1.3143   0.00    0.0
2024/04/10 11:10:25.000   45.409531426   11.893983120    64.2103   5   8   2.9205   2.2145   6.4443  -0.2327   1.0724   1.3132   0.00    0.0
2024/04/10 11:10:26.000   45.409532479   11.893988463    64.0085   5   8   2.9204   2.2146   6.4439  -0.2345   1.0726   1.3121   0.00    0.0
2024/04/10 11:10:27.000   45.409532431   11.893988553    63.7264   5   8   2.9204   2.2147   6.4435  -0.2363   1.0729   1.3110   0.00    0.0
2024/04/10 11:10:28.000   45.409534223   11.893986770    63.4962   5   8   2.9204   2.2148   6.4431  -0.2381   1.0732   1.3099   0.00    0.0
2024/04/10 11:10:29.000   45.409535148   11.893986826    63.1806   5   8   2.9204   2.2149   6.4427  -0.2399   1.0734   1.3089   0.00    0.0
2024/04/10 11:10:30.000   45.409536833   11.893986545    62.6622   5   8   2.9204   2.2150   6.4424  -0.2417   1.0737   1.3078   0.00    0.0
2024/04/10 11:10:31.000   45.409536607   11.893985616    62.4336   5   8   2.9204   2.2151   6.4420  -0.2434   1.0740   1.3067   0.00    0.0
2024/04/10 11:10:32.000   45.409537522   11.893988963    62.2734   5   8   2.9203   2.2152   6.4416  -0.2452   1.0743   1.3056   0.00    0.0
2024/04/10 11:10:33.000   45.409535834   11.893990285    62.4333   5   8   2.9203   2.2153   6.4412  -0.2469   1.0745   1.3045   0.00    0.0
2024/04/10 11:10:34.000   45.409535619   11.893989670    62.3356   5   8   2.9203   2.2154   6.4408  -0.2486   1.0748   1.3034   0.00    0.0
2024/04/10 11:10:35.000   45.409536188   11.893991470    61.4592   5   8   2.9203   2.2155   6.4405  -0.2503   1.0751   1.3023   0.00    0.0
2024/04/10 11:10:36.000   45.409535933   11.893992199    61.6480   5   8   2.9203   2.2156   6.4401  -0.2520   1.0754   1.3012   0.00    0.0
2024/04/10 11:10:37.000   45.409535345   11.893990395    61.5687   5   8   2.9203   2.2157   6.4397  -0.2537   1.0756   1.3001   0.00    0.0
2024/04/10 11:10:38.000   45.409533430   11.893990285    62.0809   5   8   2.9202   2.2158   6.4393  -0.2554   1.0759   1.2990   0.00    0.0
2024/04/10 11:10:39.000   45.409532678   11.893989592    61.8296   5   8   2.9202   2.2159   6.4389  -0.2571   1.0762   1.2979   0.00    0.0
2024/04/10 11:10:40.000   45.409530873   11.893989926    62.1391   5   8   2.9202   2.2160   6.4385  -0.2587   1.0765   1.2968   0.00    0.0
2024/04/10 11:10:41.000   45.409529699   11.893989521    61.9600   5   8   2.9202   2.2161   6.4381  -0.2604   1.0767   1.2957   0.00    0.0
2024/04/10 11:10:42.000   45.409528346   11.893989604    61.9158   5   8   2.9202   2.2162   6.4378  -0.2620   1.0770   1.2946   0.00    0.0
2024/04/10 11:10:43.000   45.409526643   11.893991853    62.1303   5   8   2.9202   2.2163   6.4374  -0.2636   1.0773   1.2935   0.00    0.0
2024/04/10 11:10:44.000   45.409526211   11.893989799    62.0072   5   8   2.9202   2.2164   6.4370  -0.2653   1.0775   1.2924   0.00    0.0
2024/04/10 11:10:45.000   45.409526815   11.893988765    62.1463   5   8   2.9201   2.2166   6.4366  -0.2669   1.0778   1.2913   0.00    0.0
2024/04/10 11:10:46.000   45.409527463   11.893987145    62.1576   5   8   2.9201   2.2167   6.4362  -0.2685   1.0781   1.2902   0.00    0.0
2024/04/10 11:10:47.000   45.409526616   11.893986028    62.4948   5   8   2.9201   2.2168   6.4358  -0.2700   1.0784   1.2891   0.00    0.0
2024/04/10 11:10:48.000   45.409526345   11.893986485    62.3636   5   8   2.9201   2.2169   6.4354  -0.2716   1.0786   1.2880   0.00    0.0
2024/04/10 11:10:49.000   45.409524751   11.893984158    62.6386   5   8   2.9201   2.2170   6.4350  -0.2732   1.0789   1.2869   0.00    0.0
2024/04/10 11:10:50.000   45.409525695   11.893983440    62.7066   5   8   2.9201   2.2171   6.4347  -0.2748   1.0792   1.2858   0.00    0.0
2024/04/10 11:10:51.000   45.409525541   11.893983524    62.4453   5   8   2.9201   2.2172   6.4343  -0.2763   1.0795   1.2847   0.00    0.0
2024/04/10 11:10:52.000   45.409524757   11.893983644    62.4022   5   8   2.9200   2.2173   6.4339  -0.2778   1.0797   1.2835   0.00    0.0
2024/04/10 11:10:53.000   45.409525490   11.893981045    62.2806   5   8   2.9200   2.2174   6.4335  -0.2794   1.0800   1.2824   0.00    0.0
2024/04/10 11:10:54.000   45.409524849   11.893980107    62.4812   5   8   2.9200   2.2175   6.4331  -0.2809   1.0803   1.2813   0.00    0.0
2024/04/10 11:10:55.000   45.409525386   11.893979827    62.8492   5   8   2.9200   2.2176   6.4327  -0.2824   1.0805   1.2802   0.00    0.0
2024/04/10 11:10:56.000   45.409525377   11.893979237    62.8002   5   8   2.9200   2.2177   6.4323  -0.2839   1.0808   1.2791   0.00    0.0
2024/04/10 11:10:57.000   45.409524411   11.893979269    62.6342   5   8   2.9200   2.2178   6.4319  -0.2854   1.0811   1.2780   0.00    0.0
2024/04/10 11:10:58.000   45.409526218   11.893980579    62.7568   5   8   2.9200   2.2179   6.4315  -0.2869   1.0814   1.2768   0.00    0.0
2024/04/10 11:10:59.000   45.409527900   11.893982060    62.7364   5   8   2.9199   2.2180   6.4311  -0.2884   1.0816   1.2757   0.00    0.0
2024/04/10 11:11:00.000   45.409529982   11.893983212    63.0790   5   8   2.9199   2.2181   6.4307  -0.2899   1.0819   1.2746   0.00    0.0
2024/04/10 11:11:01.000   45.409530925   11.893984846    63.2930   5   8   2.9199   2.2182   6.4304  -0.2914   1.0822   1.2735   0.00    0.0
2024/04/10 11:11:02.000   45.409529912   11.893984707    63.5198   5   8   2.9199   2.2183   6.4300  -0.2928   1.0825   1.2724   0.00    0.0
2024/04/10 11:11:03.000   45.409530065   11.893986568    63.3518   5   8   2.9199   2.2184   6.4296  -0.2943   1.0827   1.2712   0.00    0.0
2024/04/10 11:11:04.000   45.409528510   11.893986925    63.2119   5   8   2.9199   2.2185   6.4292  -0.2957   1.0830   1.2701   0.00    0.0
2024/04/10 11:11:05.000   45.409530467   11.893985955    62.8713   5   8   2.9199   2.2186   6.4288  -0.2972   1.0833   1.2690   0.00    0.0
2024/04/10 11:11:06.000   45.409531201   11.893987067    63.0951   5   8   2.9199   2.2187   6.4284  -0.2986   1.0835   1.2679   0.00    0.0
2024/04/10 11:11:07.000   45.409531460   11.893986815    62.6746   5   8   2.9198   2.2188   6.4280  -0.3001   1.0838   1.2667   0.00    0.0
2024/04/10 11:11:08.000   45.409532056   11.893984824    62.7734   5   8   2.9198   2.2189   6.4276  -0.3015   1.0841   1.2656   0.00    0.0
2024/04/10 11:11:09.000   45.409531232   11.893984923    62.8842   5   8   2.9198   2.2190   6.4272  -0.3029   1.0844   1.2645   0.00    0.0
2024/04/10 11:11:10.000   45.409528802   11.893983718    62.6645   5   8   2.9198   2.2191   6.4268  -0.3043   1.0846   1.2633   0.00    0.0
2024/04/10 11:11:11.000   45.409528926   11.893984121    62.6097   5   8   2.9198   2.2192   6.4264  -0.3057   1.0849   1.2622   0.00    0.0
2024/04/10 11:11:12.000   45.409526915   11.893985646    62.6448   5   8   2.9198   2.2193   6.4260  -0.3071   1.0852   1.2611   0.00    0.0
2024/04/10 11:11:13.000   45.409526711   11.893986983    62.7031   5   8   2.9198   2.2194   6.4256  -0.3085   1.0855   1.2599   0.00    0.0
2024/04/10 11:11:14.000   45.409527226   11.893986274    62.3848   5   8   2.9198   2.2195   6.4252  -0.3099   1.0857   1.2588   0.00    0.0
2024/04/10 11:11:15.000   45.409526857   11.893986068    62.3478   5   8   2.9198   2.2196   6.4248  -0.3113   1.0860   1.2576   0.00    0.0
2024/04/10 11:11:16.000   45.409528589   11.893986243    62.4425   5   8   2.9197   2.2197   6.4244  -0.3126   1.0863   1.2565   0.00    0.0
2024/04/10 11:11:17.000   45.409526567   11.893987944    62.8246   5   8   2.9197   2.2198   6.4240  -0.3140   1.0865   1.2554   0.00    0.0
2024/04/10 11:11:18.000   45.409527745   11.893989161    62.8099   5   8   2.9197   2.2199   6.4236  -0.3154   1.0868   1.2542   0.00    0.0
2024/04/10 11:11:19.000   45.409528402   11.893989602    62.4911   5   8   2.9197   2.2200   6.4232  -0.3167   1.0871   1.2531   0.00    0.0
2024/04/10 11:11:20.000   45.409529545   11.893992357    62.5236   5   8   2.9197   2.2201   6.4228  -0.3181   1.0874   1.2519   0.00    0.0
2024/04/10 11:11:21.000   45.409527672   11.893992068    62.1858   5   8   2.9197   2.2202   6.4224  -0.3194   1.0876   1.2508   0.00    0.0
2024/04/10 11:11:22.000   45.409529160   11.893991042    62.1887   5   8   2.9197   2.2204   6.4220  -0.3207   1.0879   1.2496   0.00    0.0
2024/04/10 11:11:23.000   45.409528614   11.893990250    62.3297   5   8   2.9197   2.2205   6.4216  -0.3221   1.0882   1.2485   0.00    0.0
2024/04/10 11:11:24.000   45.409528217   11.893989325    62.1481   5   8   2.9197   2.2206   6.4212  -0.3234   1.0885   1.2473   0.00    0.0
2024/04/10 11:11:25.000   45.409528133   11.893989030    62.0157   5   8   2.9197   2.2207   6.4208  -0.3247   1.0887   1.2462   0.00    0.0
2024/04/10 11:11:26.000   45.409526529   11.893989598    62.5020   5   8   2.9196   2.2208   6.4204  -0.3260   1.0890   1.2450   0.00    0.0
2024/04/10 11:11:27.000   45.409525497   11.893989839    62.6493   5   8   2.9196   2.2209   6.4200  -0.3274   1.0893   1.2439   0.00    0.0
2024/04/10 11:11:28.000   45.409524476   11.893989363    62.3409   5   8   2.9196   2.2210   6.4196  -0.3287   1.0895   1.2427   0.00    0.0
2024/04/10 11:11:29.000   45.409523456   11.893988256    62.4547   5   8   2.9196   2.2211   6.4192  -0.3300   1.0898   1.2416   0.00    0.0
2024/04/10 11:11:30.000   45.409522348   11.893986295    62.7811   5   8   2.9196   2.2212   6.4188  -0.3313   1.0901   1.2404   0.00    0.0
2024/04/10 11:11:31.000   45.409520002   11.893986903    63.0614   5   8   2.9196   2.2213   6.4184  -0.3326   1.0904   1.2393   0.00    0.0
2024/04/10 11:11:32.000   45.409520681   11.893986763    62.8379   5   8   2.9196   2.2214   6.4180  -0.3338   1.0906   1.2381   0.00    0.0
2024/04/10 11:11:33.000   45.409520849   11.893985469    62.8599   5   8   2.9196   2.2215   6.4176  -0.3351   1.0909   1.2370   0.00    0.0
2024/04/10 11:11:34.000   45.409521887   11.893983805    62.4866   5   8   2.9196   2.2216   6.4172  -0.3364   1.0912   1.2358   0.00    0.0
2024/04/10 11:11:35.000   45.409520910   11.893982041    62.4811   5   8   2.9196   2.2217   6.4168  -0.3377   1.0915   1.2346   0.00    0.0
2024/04/10 11:11:36.000   45.409519838   11.893981206    62.4817   5   8   2.9196   2.2218   6.4164  -0.3389   1.0917   1.2335   0.00    0.0
2024/04/10 11:11:37.000   45.409519713   11.893979539    62.4715   5   8   2.9196   2.2219   6.4160  -0.3402   1.0920   1.2323   0.00    0.0
2024/04/10 11:11:38.000   45.409519300   11.893978856    62.4882   5   8   2.9195   2.2220   6.4155  -0.3415   1.0923   1.2311   0.00    0.0
2024/04/10 11:11:39.000   45.409520390   11.893977220    62.7275   5   8   2.9195   2.2221   6.4151  -0.3427   1.0925   1.2300   0.00    0.0
2024/04/10 11:11:40.000   45.409519438   11.893977784    62.7753   5   8   2.9195   2.2222   6.4147  -0.3440   1.0928   1.2288   0.00    0.0
2024/04/10 11:11:41.000   45.409520807   11.893978175    62.8123   5   8   2.9195   2.2223   6.4143  -0.3452   1.0931   1.2276   0.00    0.0
2024/04/10 11:11:42.000   45.409522706   11.893979619    62.5126   5   8   2.9195   2.2224   6.4139  -0.3464   1.0934   1.2265   0.00    0.0
2024/04/10 11:11:43.000   45.409523808   11.893982657    62.3468   5   8   2.9195   2.2226   6.4135  -0.3477   1.0936   1.2253   0.00    0.0
2024/04/10 11:11:44.000   45.409523941   11.893981685    62.5890   5   8   2.9195   2.2227   6.4131  -0.3489   1.0939   1.2241   0.00    0.0
2024/04/10 11:11:45.000   45.409526425   11.893981748    62.5011   5   8   2.9195   2.2228   6.4127  -0.3501   1.0942   1.2229   0.00    0.0
2024/04/10 11:11:46.000   45.409525732   11.893982361    62.5268   5   8   2.9195   2.2229   6.4123  -0.3514   1.0945   1.2218   0.00    0.0
2024/04/10 11:11:47.000   45.409527314   11.893981431    62.3391   5   8   2.9195   2.2230   6.4119  -0.3526   1.0947   1.2206   0.00    0.0
2024/04/10 11:11:48.000   45.409527125   11.893980903    62.6022   5   8   2.9195   2.2231   6.4115  -0.3538   1.0950   1.2194   0.00    0.0
2024/04/10 11:11:49.000   45.409526760   11.893979011    62.1518   5   8   2.9195   2.2232   6.4111  -0.3550   1.0953   1.2182   0.00    0.0
2024/04/10 11:11:50.000   45.409526559   11.893979110    62.2018   5   8   2.9195   2.2233   6.4106  -0.3562   1.0955   1.2170   0.00    0.0
2024/04/10 11:11:51.000   45.409527006   11.893979014    61.9907   5   8   2.9195   2.2234   6.4102  -0.3574   1.0958   1.2159   0.00    0.0
2024/04/10 11:11:52.000   45.409526045   11.893980173    62.5371   5   8   2.9195   2.2235   6.4098  -0.3586   1.0961   1.2147   0.00    0.0
2024/04/10 11:11:53.000   45.409527220   11.893979886    62.9382   5   8   2.9195   2.2236   6.4094  -0.3598   1.0964   1.2135   0.00    0.0
2024/04/10 11:11:54.000   45.409528984   11.893978894    62.9653   5   8   2.9194   2.2237   6.4090  -0.3610   1.0966   1.2123   0.00    0.0
2024/04/10 11:11:55.000   45.409528473   11.893977991    62.6459   5   8   2.9194   2.2238   6.4086  -0.3622   1.0969   1.2111   0.00    0.0
2024/04/10 11:11:56.000   45.409528502   11.893976714    62.6273   5   8   2.9194   2.2239   6.4082  -0.3634   1.0972   1.2099   0.00    0.0
2024/04/10 11:11:57.000   45.409528787   11.893977625    62.6899   5   8   2.9194   2.2240   6.4078  -0.3646   1.0974   1.2087   0.00    0.0
2024/04/10 11:11:58.000   45.409526167   11.893977082    62.5163   5   8   2.9194   2.2241   6.4073  -0.3657   1.0977   1.2076   0.00    0.0
2024/04/10 11:11:59.000   45.409528049   11.893976237    62.4149   5   8   2.9194   2.2243   6.4069  -0.3669   1.0980   1.2064   0.00    0.0
2024/04/10 11:12:00.000   45.409529356   11.893975841    62.7322   5   8   2.9194   2.2244   6.4065  -0.3681   1.0983   1.2052   0.00    0.0
2024/04/10 11:12:01.000   45.409527698   11.893977480    62.6811   5   8   2.9194   2.2245   6.4061  -0.3692   1.0985   1.2040   0.00    0.0
2024/04/10 11:12:02.000   45.409529452   11.893976627    62.5979   5   8   2.9194   2.2246   6.4057  -0.3704   1.0988   1.2028   0.00    0.0
2024/04/10 11:12:03.000   45.409531626   11.893975515    62.6520   5   8   2.9194   2.2247   6.4053  -0.3716   1.0991   1.2016   0.00    0.0
2024/04/10 11:12:04.000   45.409531356   11.893976892    62.9994   5   8   2.9194   2.2248   6.4049  -0.3727   1.0994   1.2004   0.00    0.0
2024/04/10 11:12:05.000   45.409528943   11.893976602    63.3645   5   8   2.9194   2.2249   6.4044  -0.3739   1.0996   1.1992   0.00    0.0
2024/04/10 11:12:06.000   45.409529671   11.893976867    63.5745   5   8   2.9194   2.2250   6.4040  -0.3750   1.0999   1.1980   0.00    0.0
2024/04/10 11:12:07.000   45.409526976   11.893977249    63.6178   5   8   2.9194   2.2251   6.4036  -0.3762   1.1002   1.1968   0.00    0.0
2024/04/10 11:12:08.000   45.409528402   11.893977361    63.8901   5   8   2.9194   2.2252   6.4032  -0.3773   1.1004   1.1956   0.00    0.0
2024/04/10 11:12:09.000   45.409530884   11.893976182    63.5154   5   8   2.9194   2.2253   6.4028  -0.3784   1.1007   1.1944   0.00    0.0
2024/04/10 11:12:10.000   45.409528892   11.893977002    64.1343   5   8   2.9194   2.2254   6.4024  -0.3796   1.1010   1.1932   0.00    0.0
2024/04/10 11:12:11.000   45.409529140   11.893976474    63.7703   5   8   2.9194   2.2255   6.4019  -0.3807   1.1013   1.1919   0.00    0.0
2024/04/10 11:12:12.000   45.409528871   11.893976138    63.9198   5   8   2.9194   2.2256   6.4015  -0.3818   1.1015   1.1907   0.00    0.0
2024/04/10 11:12:13.000   45.409529154   11.893976589    63.7440   5   8   2.9194   2.2258   6.4011  -0.3829   1.1018   1.1895   0.00    0.0
2024/04/10 11:12:14.000   45.409529703   11.893977676    63.6598   5   8   2.9194   2.2259   6.4007  -0.3841   1.1021   1.1883   0.00    0.0
2024/04/10 11:12:15.000   45.409528264   11.893978710    63.3735   5   8   2.9194   2.2260   6.4003  -0.3852   1.1024   1.1871   0.00    0.0
2024/04/10 11:12:16.000   45.409528257   11.893980263    63.2830   5   8   2.9194   2.2261   6.3999  -0.3863   1.1026   1.1859   0.00    0.0
2024/04/10 11:12:17.000   45.409530194   11.893979544    63.5182   5   8   2.9194   2.2262   6.3994  -0.3874   1.1029   1.1847   0.00    0.0
2024/04/10 11:12:18.000   45.409530230   11.893980977    63.8015   5   8   2.9194   2.2263   6.3990  -0.3885   1.1032   1.1835   0.00    0.0
2024/04/10 11:12:19.000   45.409529940   11.893979738    63.6714   5   8   2.9194   2.2264   6.3986  -0.3896   1.1034   1.1822   0.00    0.0
2024/04/10 11:12:20.000   45.409529759   11.893981586    64.0840   5   8   2.9194   2.2265   6.3982  -0.3907   1.1037   1.1810   0.00    0.0
2024/04/10 11:12:21.000   45.409529173   11.893982584    63.8833   5   8   2.9194   2.2266   6.3978  -0.3918   1.1040   1.1798   0.00    0.0
2024/04/10 11:12:22.000   45.409530615   11.893982550    63.9241   5   8   2.9194   2.2267   6.3973  -0.3929   1.1043   1.1786   0.00    0.0
2024/04/10 11:12:23.000   45.409532672   11.893982277    63.5690   5   8   2.9194   2.2268   6.3969  -0.3940   1.1045   1.1773   0.00    0.0
2024/04/10 11:12:24.000   45.409534840   11.893981015    63.2903   5   8   2.9194   2.2269   6.3965  -0.3951   1.1048   1.1761   0.00    0.0
2024/04/10 11:12:25.000   45.409535554   11.893981078    63.4430   5   8   2.9194   2.2271   6.3961  -0.3962   1.1051   1.1749   0.00    0.0
2024/04/10 11:12:26.000   45.409535316   11.893979311    63.2684   5   8   2.9194   2.2272   6.3956  -0.3973   1.1053   1.1737   0.00    0.0
2024/04/10 11:12:27.000   45.409534257   11.893976772    62.7476   5   8   2.9194   2.2273   6.3952  -0.3984   1.1056   1.1724   0.00    0.0
2024/04/10 11:12:28.000   45.409534033   11.893977181    62.3972   5   8   2.9194   2.2274   6.3948  -0.3994   1.1059   1.1712   0.00    0.0
2024/04/10 11:12:29.000   45.409531857   11.893979138    62.2465   5   8   2.9194   2.2275   6.3944  -0.4005   1.1062   1.1700   0.00    0.0
2024/04/10 11:12:30.000   45.409532805   11.893979407    61.7106   5   8   2.9194   2.2276   6.3940  -0.4016   1.1064   1.1687   0.00    0.0
2024/04/10 11:12:31.000   45.409534322   11.893980168    61.6179   5   8   2.9194   2.2277   6.3935  -0.4027   1.1067   1.1675   0.00    0.0
2024/04/10 11:12:32.000   45.409533666   11.893979944    61.6738   5   8   2.9194   2.2278   6.3931  -0.4037   1.1070   1.1663   0.00    0.0
2024/04/10 11:12:33.000   45.409532920   11.893978999    61.1919   5   8   2.9194   2.2279   6.3927  -0.4048   1.1073   1.1650   0.00    0.0
2024/04/10 11:12:34.000   45.409532344   11.893978131    61.2911   5   8   2.9194   2.2280   6.3923  -0.4059   1.1075   1.1638   0.00    0.0
2024/04/10 11:12:35.000   45.409532009   11.893980636    61.7102   5   8   2.9194   2.2281   6.3918  -0.4069   1.1078   1.1625   0.00    0.0
2024/04/10 11:12:36.000   45.409532592   11.893981501    61.6047   5   8   2.9194   2.2283   6.3914  -0.4080   1.1081   1.1613   0.00    0.0
2024/04/10 11:12:37.000   45.409529203   11.893984204    61.7880   5   8   2.9194   2.2284   6.3910  -0.4090   1.1083   1.1601   0.00    0.0
2024/04/10 11:12:38.000   45.409528094   11.893983664    61.9188   5   8   2.9194   2.2285   6.3906  -0.4101   1.1086   1.1588   0.00    0.0
2024/04/10 11:12:39.000   45.409527156   11.893984152    62.2103   5   8   2.9194   2.2286   6.3901  -0.4111   1.1089   1.1576   0.00    0.0
2024/04/10 11:12:40.000   45.409527450   11.893987026    62.4488   5   8   2.9194   2.2287   6.3897  -0.4122   1.1092   1.1563   0.00    0.0
2024/04/10 11:12:41.000   45.409527164   11.893987896    62.8408   5   8   2.9194   2.2288   6.3893  -0.4132   1.1094   1.1551   0.00    0.0
2024/04/10 11:12:42.000   45.409527015   11.893986658    63.4666   5   8   2.9194   2.2289   6.3888  -0.4143   1.1097   1.1538   0.00    0.0
2024/04/10 11:12:43.000   45.409528042   11.893987402    64.3612   5   8   2.9194   2.2290   6.3884  -0.4153   1.1100   1.1526   0.00    0.0
2024/04/10 11:12:44.000   45.409527403   11.893987239    64.6275   5   8   2.9194   2.2291   6.3880  -0.4163   1.1103   1.1513   0.00    0.0
2024/04/10 11:12:45.000   45.409527738   11.893985879    64.7431   5   8   2.9194   2.2292   6.3876  -0.4174   1.1105   1.1501   0.00    0.0
2024/04/10 11:12:46.000   45.409526628   11.893984968    64.4079   5   8   2.9194   2.2294   6.3871  -0.4184   1.1108   1.1488   0.00    0.0
2024/04/10 11:12:47.000   45.409526570   11.893985398    64.2534   5   8   2.9194   2.2295   6.3867  -0.4194   1.1111   1.1475   0.00    0.0
2024/04/10 11:12:48.000   45.409527399   11.893982871    64.0326   5   8   2.9194   2.2296   6.3863  -0.4205   1.1113   1.1463   0.00    0.0
2024/04/10 11:12:49.000   45.409527982   11.893984538    63.6509   5   8   2.9194   2.2297   6.3858  -0.4215   1.1116   1.1450   0.00    0.0
2024/04/10 11:12:50.000   45.409526596   11.893984960    64.2860   5   8   2.9194   2.2298   6.3854  -0.4225   1.1119   1.1438   0.00    0.0
2024/04/10 11:12:51.000   45.409527350   11.893983924    64.4847   5   8   2.9194   2.2299   6.3850  -0.4235   1.1122   1.1425   0.00    0.0
2024/04/10 11:12:52.000   45.409527120   11.893983130    64.3677   5   8   2.9194   2.2300   6.3846  -0.4245   1.1124   1.1412   0.00    0.0
2024/04/10 11:12:53.000   45.409527465   11.893984660    64.3019   5   8   2.9194   2.2301   6.3841  -0.4256   1.1127   1.1400   0.00    0.0
2024/04/10 11:12:54.000   45.409527246   11.893986444    64.4286   5   8   2.9194   2.2302   6.3837  -0.4266   1.1130   1.1387   0.00    0.0
2024/04/10 11:12:55.000   45.409526702   11.893986191    64.1298   5   8   2.9194   2.2303   6.3833  -0.4276   1.1133   1.1374   0.00    0.0
2024/04/10 11:12:56.000   45.409527956   11.893986095    63.8933   5   8   2.9194   2.2305   6.3828  -0.4286   1.1135   1.1361   0.00    0.0
2024/04/10 11:12:57.000   45.409527006   11.893985430    63.7767   5   8   2.9194   2.2306   6.3824  -0.4296   1.1138   1.1349   0.00    0.0
2024/04/10 11:12:58.000   45.409525985   11.893986253    63.5515   5   8   2.9194   2.2307   6.3820  -0.4306   1.1141   1.1336   0.00    0.0
2024/04/10 11:12:59.000   45.409525948   11.893986200    63.2786   5   8   2.9194   2.2308   6.3815  -0.4316   1.1143   1.1323   0.00    0.0
2024/04/10 11:13:00.000   45.409525764   11.893985225    63.2213   5   8   2.9194   2.2309   6.3811  -0.4326   1.1146   1.1310   0.00    0.0
2024/04/10 11:13:01.000   45.409526070   11.893983416    63.4617   5   8   2.9194   2.2310   6.3807  -0.4336   1.1149   1.1298   0.00    0.0
2024/04/10 11:13:02.000   45.409525746   11.893983712    63.9407   5   8   2.9194   2.2311   6.3802  -0.4346   1.1152   1.1285   0.00    0.0
2024/04/10 11:13:03.000   45.409525473   11.893985702    64.2989   5   8   2.9194   2.2312   6.3798  -0.4356   1.1154   1.1272   0.00    0.0
2024/04/10 11:13:04.000   45.409526006   11.893985797    64.5950   5   8   2.9194   2.2313   6.3794  -0.4366   1.1157   1.1259   0.00    0.0
2024/04/10 11:13:05.000   45.409525356   11.893985307    64.3909   5   8   2.9194   2.2315   6.3789  -0.4375   1.1160   1.1246   0.00    0.0
2024/04/10 11:13:06.000   45.409526661   11.893983690    64.4337   5   8   2.9194   2.2316   6.3785  -0.4385   1.1162   1.1234   0.00    0.0
2024/04/10 11:13:07.000   45.409526686   11.893982090    64.3203   5   8   2.9195   2.2317   6.3781  -0.4395   1.1165   1.1221   0.00    0.0
2024/04/10 11:13:08.000   45.409528233   11.893978889    64.2526   5   8   2.9195   2.2318   6.3776  -0.4405   1.1168   1.1208   0.00    0.0
2024/04/10 11:13:09.000   45.409528696   11.893977899    64.3698   5   8   2.9195   2.2319   6.3772  -0.4415   1.1171   1.1195   0.00    0.0
2024/04/10 11:13:10.000   45.409530644   11.893976002    64.0573   5   8   2.9195   2.2320   6.3768  -0.4425   1.1173   1.1182   0.00    0.0
2024/04/10 11:13:11.000   45.409531127   11.893976444    63.8887   5   8   2.9195   2.2321   6.3763  -0.4434   1.1176   1.1169   0.00    0.0
2024/04/10 11:13:12.000   45.409531955   11.893977202    64.5318   5   8   2.9195   2.2322   6.3759  -0.4444   1.1179   1.1156   0.00    0.0
2024/04/10 11:13:13.000   45.409529924   11.893980004    64.7952   5   8   2.9195   2.2324   6.3755  -0.4454   1.1182   1.1143   0.00    0.0
2024/04/10 11:13:14.000   45.409532713   11.893979945    64.6162   5   8   2.9195   2.2325   6.3750  -0.4463   1.1184   1.1130   0.00    0.0
2024/04/10 11:13:15.000   45.409532791   11.893979100    63.9550   5   8   2.9195   2.2326   6.3746  -0.4473   1.1187   1.1117   0.00    0.0
2024/04/10 11:13:16.000   45.409533627   11.893979840    64.0142   5   8   2.9195   2.2327   6.3741  -0.4483   1.1190   1.1104   0.00    0.0
2024/04/10 11:13:17.000   45.409532821   11.893979913    64.1643   5   8   2.9195   2.2328   6.3737  -0.4492   1.1192   1.1091   0.00    0.0
2024/04/10 11:13:18.000   45.409533587   11.893980411    64.3260   5   8   2.9195   2.2329   6.3733  -0.4502   1.1195   1.1078   0.00    0.0
2024/04/10 11:13:19.000   45.409533422   11.893979640    64.0314   5   8   2.9195   2.2330   6.3728  -0.4512   1.1198   1.1065   0.00    0.0
2024/04/10 11:13:20.000   45.409532182   11.893981315    64.3845   5   8   2.9195   2.2331   6.3724  -0.4521   1.1201   1.1052   0.00    0.0
2024/04/10 11:13:21.000   45.409532414   11.893982163    63.5171   5   8   2.9195   2.2332   6.3720  -0.4531   1.1203   1.1039   0.00    0.0
2024/04/10 11:13:22.000   45.409531363   11.893983979    63.2283   5   8   2.9195   2.2334   6.3715  -0.4540   1.1206   1.1025   0.00    0.0
2024/04/10 11:13:23.000   45.409532460   11.893986696    63.2145   5   8   2.9196   2.2335   6.3711  -0.4550   1.1209   1.1012   0.00    0.0
2024/04/10 11:13:24.000   45.409532747   11.893987108    62.5806   5   8   2.9196   2.2336   6.3706  -0.4559   1.1212   1.0999   0.00    0.0
2024/04/10 11:13:25.000   45.409532346   11.893987987    62.7989   5   8   2.9196   2.2337   6.3702  -0.4569   1.1214   1.0986   0.00    0.0
2024/04/10 11:13:26.000   45.409532009   11.893988296    62.6066   5   8   2.9196   2.2338   6.3698  -0.4578   1.1217   1.0973   0.00    0.0
2024/04/10 11:13:27.000   45.409530337   11.893989181    62.5090   5   8   2.9196   2.2339   6.3693  -0.4588   1.1220   1.0960   0.00    0.0
2024/04/10 11:13:28.000   45.409527935   11.893989130    62.7351   5   8   2.9196   2.2340   6.3689  -0.4597   1.1222   1.0946   0.00    0.0
2024/04/10 11:13:29.000   45.409526926   11.893989341    62.8233   5   8   2.9196   2.2342   6.3684  -0.4606   1.1225   1.0933   0.00    0.0
2024/04/10 11:13:30.000   45.409526934   11.893989339    63.0791   5   8   2.9196   2.2343   6.3680  -0.4616   1.1228   1.0920   0.00    0.0
2024/04/10 11:13:31.000   45.409526340   11.893989523    63.2251   5   8   2.9196   2.2344   6.3676  -0.4625   1.1231   1.0907   0.00    0.0
2024/04/10 11:13:32.000   45.409526836   11.893988322    63.6415   5   8   2.9196   2.2345   6.3671  -0.4634   1.1233   1.0893   0.00    0.0
2024/04/10 11:13:33.000   45.409527214   11.893988520    63.6714   5   8   2.9196   2.2346   6.3667  -0.4644   1.1236   1.0880   0.00    0.0
2024/04/10 11:13:34.000   45.409528019   11.893990052    63.5708   5   8   2.9197   2.2347   6.3662  -0.4653   1.1239   1.0867   0.00    0.0
2024/04/10 11:13:35.000   45.409527935   11.893992314    63.9543   5   8   2.9197   2.2348   6.3658  -0.4662   1.1242   1.0853   0.00    0.0
2024/04/10 11:13:36.000   45.409526841   11.893991032    63.8972   5   8   2.9197   2.2349   6.3653  -0.4672   1.1244   1.0840   0.00    0.0
2024/04/10 11:13:37.000   45.409526227   11.893989255    63.5209   5   8   2.9197   2.2351   6.3649  -0.4681   1.1247   1.0827   0.00    0.0
2024/04/10 11:13:38.000   45.409527360   11.893991765    63.1764   5   8   2.9197   2.2352   6.3645  -0.4690   1.1250   1.0813   0.00    0.0
2024/04/10 11:13:39.000   45.409527486   11.893991920    63.1589   5   8   2.9197   2.2353   6.3640  -0.4699   1.1252   1.0800   0.00    0.0
2024/04/10 11:13:40.000   45.409527737   11.893990774    62.9903   5   8   2.9197   2.2354   6.3636  -0.4709   1.1255   1.0786   0.00    0.0
2024/04/10 11:13:41.000   45.409528748   11.893990083    63.1671   5   8   2.9197   2.2355   6.3631  -0.4718   1.1258   1.0773   0.00    0.0
2024/04/10 11:13:42.000   45.409528310   11.893988979    62.8769   5   8   2.9197   2.2356   6.3627  -0.4727   1.1261   1.0760   0.00    0.0
2024/04/10 11:13:43.000   45.409527481   11.893988601    62.9372   5   8   2.9197   2.2357   6.3622  -0.4736   1.1263   1.0746   0.00    0.0
2024/04/10 11:13:44.000   45.409526934   11.893989088    63.0936   5   8   2.9198   2.2359   6.3618  -0.4745   1.1266   1.0733   0.00    0.0
2024/04/10 11:13:45.000   45.409527692   11.893990468    63.1706   5   8   2.9198   2.2360   6.3613  -0.4754   1.1269   1.0719   0.00    0.0
2024/04/10 11:13:46.000   45.409526048   11.893990316    63.2425   5   8   2.9198   2.2361   6.3609  -0.4763   1.1272   1.0706   0.00    0.0
2024/04/10 11:13:47.000   45.409525222   11.893988789    63.0136   5   8   2.9198   2.2362   6.3605  -0.4772   1.1274   1.0692   0.00    0.0
