% program   : RTKPOST ver.2.4.3 b34
% inp file  : C:\Users\Andrea\SwiftNav\Acquisizione_SwiftNav_20221206\swift-gnss-20221206-124503.sbp.obs
% inp file  : C:\Users\Andrea\SwiftNav\Acquisizione_SwiftNav_20221206\swift-gnss-20221206-124503.sbp.nav
% obs start : 2022/12/06 11:45:22.0 GPST (week2239 215122.0s)
% obs end   : 2022/12/06 12:01:40.0 GPST (week2239 216100.0s)
% pos mode  : Single
% elev mask : 15.0 deg
% ionos opt : Broadcast
% tropo opt : Saastamoinen
% ephemeris : Broadcast
% navi sys  : GPS GLONASS Galileo QZSS BDS NavIC SBAS
%
% (lat/lon/height=WGS84/ellipsoidal,Q=1:fix,2:float,3:sbas,4:dgps,5:single,6:ppp,ns=# of satellites)
%  GPST                  latitude(deg) longitude(deg)  height(m)   Q  ns   sdn(m)   sde(m)   sdu(m)  sdne(m)  sdeu(m)  sdun(m) age(s)  ratio
2022/12/06 11:45:22.000   45.410852022   11.891702262    70.6636   5  23   2.2797   1.7905   4.1570  -1.0654   1.1372  -0.8026   0.00    0.0
2022/12/06 11:45:23.000   45.410852420   11.891702035    70.3895   5  23   2.2798   1.7906   4.1571  -1.0657   1.1377  -0.8028   0.00    0.0
2022/12/06 11:45:24.000   45.410852371   11.891700784    70.3796   5  23   2.2800   1.7907   4.1572  -1.0660   1.1381  -0.8030   0.00    0.0
2022/12/06 11:45:25.000   45.410851644   11.891701412    70.3316   5  23   2.2802   1.7908   4.1572  -1.0663   1.1385  -0.8032   0.00    0.0
2022/12/06 11:45:26.000   45.410850880   11.891702277    69.9724   5  23   2.2803   1.7910   4.1573  -1.0666   1.1390  -0.8035   0.00    0.0
2022/12/06 11:45:27.000   45.410851438   11.891701539    69.7562   5  23   2.2805   1.7911   4.1574  -1.0669   1.1394  -0.8037   0.00    0.0
2022/12/06 11:45:28.000   45.410852186   11.891701811    69.4675   5  23   2.2806   1.7912   4.1574  -1.0672   1.1399  -0.8039   0.00    0.0
2022/12/06 11:45:29.000   45.410851730   11.891704290    69.4591   5  23   2.2808   1.7913   4.1575  -1.0674   1.1403  -0.8041   0.00    0.0
2022/12/06 11:45:30.000   45.410851878   11.891704264    69.1564   5  23   2.2810   1.7915   4.1576  -1.0677   1.1407  -0.8043   0.00    0.0
2022/12/06 11:45:31.000   45.410851129   11.891704764    68.9551   5  23   2.2811   1.7916   4.1576  -1.0680   1.1412  -0.8045   0.00    0.0
2022/12/06 11:45:32.000   45.410851558   11.891706843    69.0556   5  23   2.2813   1.7917   4.1577  -1.0683   1.1416  -0.8047   0.00    0.0
2022/12/06 11:45:33.000   45.410850612   11.891706522    68.8213   5  23   2.2814   1.7918   4.1578  -1.0686   1.1420  -0.8050   0.00    0.0
2022/12/06 11:45:34.000   45.410848912   11.891707575    68.9582   5  23   2.2816   1.7920   4.1578  -1.0689   1.1425  -0.8052   0.00    0.0
2022/12/06 11:45:35.000   45.410847241   11.891707806    68.8673   5  23   2.2817   1.7921   4.1579  -1.0692   1.1429  -0.8054   0.00    0.0
2022/12/06 11:45:36.000   45.410848630   11.891707089    69.0821   5  23   2.2819   1.7922   4.1580  -1.0695   1.1434  -0.8056   0.00    0.0
2022/12/06 11:45:37.000   45.410847864   11.891707313    68.9987   5  23   2.2821   1.7924   4.1580  -1.0698   1.1438  -0.8058   0.00    0.0
2022/12/06 11:45:38.000   45.410848023   11.891707555    69.0861   5  23   2.2822   1.7925   4.1581  -1.0700   1.1442  -0.8060   0.00    0.0
2022/12/06 11:45:39.000   45.410847994   11.891706344    69.1573   5  23   2.2824   1.7926   4.1582  -1.0703   1.1447  -0.8063   0.00    0.0
2022/12/06 11:45:40.000   45.410848794   11.891707839    69.6275   5  23   2.2825   1.7927   4.1582  -1.0706   1.1451  -0.8065   0.00    0.0
2022/12/06 11:45:41.000   45.410850149   11.891706774    69.5257   5  23   2.2827   1.7929   4.1583  -1.0709   1.1455  -0.8067   0.00    0.0
2022/12/06 11:45:42.000   45.410850408   11.891707475    69.8712   5  23   2.2829   1.7930   4.1584  -1.0712   1.1460  -0.8069   0.00    0.0
2022/12/06 11:45:43.000   45.410850810   11.891708628    70.0048   5  23   2.2830   1.7931   4.1584  -1.0715   1.1464  -0.8071   0.00    0.0
2022/12/06 11:45:44.000   45.410851945   11.891708939    70.0273   5  23   2.2832   1.7932   4.1585  -1.0718   1.1469  -0.8074   0.00    0.0
2022/12/06 11:45:45.000   45.410852972   11.891708860    70.2214   5  23   2.2833   1.7934   4.1586  -1.0721   1.1473  -0.8076   0.00    0.0
2022/12/06 11:45:46.000   45.410852407   11.891708650    70.2937   5  23   2.2835   1.7935   4.1586  -1.0724   1.1477  -0.8078   0.00    0.0
2022/12/06 11:45:47.000   45.410853708   11.891708870    70.3096   5  23   2.2837   1.7936   4.1587  -1.0726   1.1482  -0.8080   0.00    0.0
2022/12/06 11:45:48.000   45.410854197   11.891709544    70.3844   5  23   2.2838   1.7937   4.1588  -1.0729   1.1486  -0.8082   0.00    0.0
2022/12/06 11:45:49.000   45.410855121   11.891709396    70.4642   5  23   2.2840   1.7939   4.1588  -1.0732   1.1490  -0.8085   0.00    0.0
2022/12/06 11:45:50.000   45.410854764   11.891708948    70.3785   5  23   2.2842   1.7940   4.1589  -1.0735   1.1495  -0.8087   0.00    0.0
2022/12/06 11:45:51.000   45.410855166   11.891710012    70.4301   5  23   2.2843   1.7941   4.1590  -1.0738   1.1499  -0.8089   0.00    0.0
2022/12/06 11:45:52.000   45.410856614   11.891709814    70.1296   5  23   2.2845   1.7942   4.1590  -1.0741   1.1503  -0.8091   0.00    0.0
2022/12/06 11:45:53.000   45.410857210   11.891708952    69.9321   5  23   2.2846   1.7944   4.1591  -1.0744   1.1508  -0.8094   0.00    0.0
2022/12/06 11:45:54.000   45.410856700   11.891708037    69.7362   5  23   2.2848   1.7945   4.1591  -1.0747   1.1512  -0.8096   0.00    0.0
2022/12/06 11:45:55.000   45.410857945   11.891707049    69.9411   5  23   2.2850   1.7946   4.1592  -1.0750   1.1517  -0.8098   0.00    0.0
2022/12/06 11:45:56.000   45.410858973   11.891705642    69.7857   5  23   2.2851   1.7948   4.1593  -1.0752   1.1521  -0.8100   0.00    0.0
2022/12/06 11:45:57.000   45.410860189   11.891704330    69.8508   5  23   2.2853   1.7949   4.1593  -1.0755   1.1525  -0.8103   0.00    0.0
2022/12/06 11:45:58.000   45.410859322   11.891701574    69.7441   5  23   2.2854   1.7950   4.1594  -1.0758   1.1530  -0.8105   0.00    0.0
2022/12/06 11:45:59.000   45.410860147   11.891700782    69.8941   5  23   2.2856   1.7951   4.1595  -1.0761   1.1534  -0.8107   0.00    0.0
2022/12/06 11:46:00.000   45.410860470   11.891701588    69.6761   5  23   2.2858   1.7953   4.1595  -1.0764   1.1538  -0.8109   0.00    0.0
2022/12/06 11:46:01.000   45.410860068   11.891701219    69.6928   5  23   2.2859   1.7954   4.1596  -1.0767   1.1543  -0.8112   0.00    0.0
2022/12/06 11:46:02.000   45.410860492   11.891702212    69.3748   5  23   2.2861   1.7955   4.1597  -1.0770   1.1547  -0.8114   0.00    0.0
2022/12/06 11:46:03.000   45.410859804   11.891702785    69.3527   5  23   2.2862   1.7956   4.1597  -1.0773   1.1551  -0.8116   0.00    0.0
2022/12/06 11:46:04.000   45.410860664   11.891701851    69.2368   5  23   2.2864   1.7958   4.1598  -1.0776   1.1556  -0.8118   0.00    0.0
2022/12/06 11:46:05.000   45.410860107   11.891701263    69.2111   5  23   2.2866   1.7959   4.1599  -1.0778   1.1560  -0.8121   0.00    0.0
2022/12/06 11:46:06.000   45.410860026   11.891701569    69.3469   5  23   2.2867   1.7960   4.1599  -1.0781   1.1564  -0.8123   0.00    0.0
2022/12/06 11:46:07.000   45.410859126   11.891701593    69.0385   5  23   2.2869   1.7962   4.1600  -1.0784   1.1569  -0.8125   0.00    0.0
2022/12/06 11:46:08.000   45.410859662   11.891701437    69.2256   5  23   2.2870   1.7963   4.1600  -1.0787   1.1573  -0.8127   0.00    0.0
2022/12/06 11:46:09.000   45.410859185   11.891700190    69.2633   5  23   2.2872   1.7964   4.1601  -1.0790   1.1578  -0.8130   0.00    0.0
2022/12/06 11:46:10.000   45.410858293   11.891700188    69.2353   5  23   2.2874   1.7965   4.1602  -1.0793   1.1582  -0.8132   0.00    0.0
2022/12/06 11:46:11.000   45.410859342   11.891698832    69.0840   5  23   2.2875   1.7967   4.1602  -1.0796   1.1586  -0.8134   0.00    0.0
2022/12/06 11:46:12.000   45.410858261   11.891700140    69.0549   5  23   2.2877   1.7968   4.1603  -1.0799   1.1591  -0.8137   0.00    0.0
2022/12/06 11:46:13.000   45.410859308   11.891700080    69.1045   5  23   2.2879   1.7969   4.1604  -1.0802   1.1595  -0.8139   0.00    0.0
2022/12/06 11:46:14.000   45.410858124   11.891700642    69.2617   5  23   2.2880   1.7970   4.1604  -1.0805   1.1599  -0.8141   0.00    0.0
2022/12/06 11:46:15.000   45.410857513   11.891701779    69.3006   5  23   2.2882   1.7972   4.1605  -1.0807   1.1604  -0.8144   0.00    0.0
2022/12/06 11:46:16.000   45.410857089   11.891702704    69.2173   5  23   2.2883   1.7973   4.1605  -1.0810   1.1608  -0.8146   0.00    0.0
2022/12/06 11:46:17.000   45.410857329   11.891703982    69.5278   5  23   2.2885   1.7974   4.1606  -1.0813   1.1612  -0.8148   0.00    0.0
2022/12/06 11:46:18.000   45.410857103   11.891704033    69.6325   5  23   2.2887   1.7976   4.1607  -1.0816   1.1617  -0.8150   0.00    0.0
2022/12/06 11:46:19.000   45.410857130   11.891705284    69.6447   5  23   2.2888   1.7977   4.1607  -1.0819   1.1621  -0.8153   0.00    0.0
2022/12/06 11:46:20.000   45.410858360   11.891705341    69.6715   5  23   2.2890   1.7978   4.1608  -1.0822   1.1625  -0.8155   0.00    0.0
2022/12/06 11:46:21.000   45.410857602   11.891705933    69.9664   5  23   2.2891   1.7979   4.1609  -1.0825   1.1630  -0.8157   0.00    0.0
2022/12/06 11:46:22.000   45.410857503   11.891707424    70.0475   5  23   2.2893   1.7981   4.1609  -1.0828   1.1634  -0.8160   0.00    0.0
2022/12/06 11:46:23.000   45.410857203   11.891708342    70.3595   5  23   2.2895   1.7982   4.1610  -1.0831   1.1638  -0.8162   0.00    0.0
2022/12/06 11:46:24.000   45.410855667   11.891709806    70.4774   5  23   2.2896   1.7983   4.1610  -1.0834   1.1643  -0.8164   0.00    0.0
2022/12/06 11:46:25.000   45.410854441   11.891709157    70.5112   5  23   2.2898   1.7985   4.1611  -1.0836   1.1647  -0.8167   0.00    0.0
2022/12/06 11:46:26.000   45.410853382   11.891709936    70.4863   5  23   2.2900   1.7986   4.1612  -1.0839   1.1651  -0.8169   0.00    0.0
2022/12/06 11:46:27.000   45.410853463   11.891709578    70.5338   5  23   2.2901   1.7987   4.1612  -1.0842   1.1656  -0.8171   0.00    0.0
2022/12/06 11:46:28.000   45.410851717   11.891709384    70.4704   5  23   2.2903   1.7988   4.1613  -1.0845   1.1660  -0.8174   0.00    0.0
2022/12/06 11:46:29.000   45.410852804   11.891709411    70.3332   5  23   2.2904   1.7990   4.1614  -1.0848   1.1664  -0.8176   0.00    0.0
2022/12/06 11:46:30.000   45.410853289   11.891709578    70.3673   5  23   2.2906   1.7991   4.1614  -1.0851   1.1669  -0.8179   0.00    0.0
2022/12/06 11:46:31.000   45.410854005   11.891709753    70.3802   5  23   2.2908   1.7992   4.1615  -1.0854   1.1673  -0.8181   0.00    0.0
2022/12/06 11:46:32.000   45.410854201   11.891707166    70.3148   5  23   2.2909   1.7994   4.1615  -1.0857   1.1677  -0.8183   0.00    0.0
2022/12/06 11:46:33.000   45.410854681   11.891707445    70.3856   5  23   2.2911   1.7995   4.1616  -1.0860   1.1682  -0.8186   0.00    0.0
2022/12/06 11:46:34.000   45.410853772   11.891708475    70.5730   5  23   2.2912   1.7996   4.1617  -1.0863   1.1686  -0.8188   0.00    0.0
2022/12/06 11:46:35.000   45.410852594   11.891708269    70.4396   5  23   2.2914   1.7998   4.1617  -1.0865   1.1690  -0.8190   0.00    0.0
2022/12/06 11:46:36.000   45.410852300   11.891707323    70.1582   5  23   2.2916   1.7999   4.1618  -1.0868   1.1695  -0.8193   0.00    0.0
2022/12/06 11:46:37.000   45.410851203   11.891709404    70.4533   5  23   2.2917   1.8000   4.1618  -1.0871   1.1699  -0.8195   0.00    0.0
2022/12/06 11:46:38.000   45.410850774   11.891708681    70.5441   5  23   2.2919   1.8001   4.1619  -1.0874   1.1703  -0.8197   0.00    0.0
2022/12/06 11:46:39.000   45.410850454   11.891708595    70.6257   5  23   2.2921   1.8003   4.1620  -1.0877   1.1707  -0.8200   0.00    0.0
2022/12/06 11:46:40.000   45.410849091   11.891708577    70.6391   5  23   2.2922   1.8004   4.1620  -1.0880   1.1712  -0.8202   0.00    0.0
2022/12/06 11:46:41.000   45.410848722   11.891710095    70.6632   5  23   2.2924   1.8005   4.1621  -1.0883   1.1716  -0.8205   0.00    0.0
2022/12/06 11:46:42.000   45.410848580   11.891711779    70.6054   5  23   2.2925   1.8007   4.1622  -1.0886   1.1720  -0.8207   0.00    0.0
2022/12/06 11:46:43.000   45.410849276   11.891713457    70.6630   5  23   2.2927   1.8008   4.1622  -1.0889   1.1725  -0.8209   0.00    0.0
2022/12/06 11:46:44.000   45.410850141   11.891713332    70.2126   5  23   2.2929   1.8009   4.1623  -1.0892   1.1729  -0.8212   0.00    0.0
2022/12/06 11:46:45.000   45.410849933   11.891713490    70.2851   5  23   2.2930   1.8011   4.1623  -1.0895   1.1733  -0.8214   0.00    0.0
2022/12/06 11:46:46.000   45.410850268   11.891713699    70.4280   5  23   2.2932   1.8012   4.1624  -1.0897   1.1738  -0.8217   0.00    0.0
2022/12/06 11:46:47.000   45.410853575   11.891713287    70.2672   5  23   2.2934   1.8013   4.1625  -1.0900   1.1742  -0.8219   0.00    0.0
2022/12/06 11:46:48.000   45.410853175   11.891713392    70.0548   5  23   2.2935   1.8014   4.1625  -1.0903   1.1746  -0.8221   0.00    0.0
2022/12/06 11:46:49.000   45.410855036   11.891713704    70.2840   5  23   2.2937   1.8016   4.1626  -1.0906   1.1751  -0.8224   0.00    0.0
2022/12/06 11:46:50.000   45.410854403   11.891713667    70.1581   5  23   2.2939   1.8017   4.1626  -1.0909   1.1755  -0.8226   0.00    0.0
2022/12/06 11:46:51.000   45.410854000   11.891713904    70.1737   5  23   2.2940   1.8018   4.1627  -1.0912   1.1759  -0.8229   0.00    0.0
2022/12/06 11:46:52.000   45.410854979   11.891714431    70.5171   5  23   2.2942   1.8020   4.1628  -1.0915   1.1764  -0.8231   0.00    0.0
2022/12/06 11:46:53.000   45.410854806   11.891714726    70.3027   5  23   2.2943   1.8021   4.1628  -1.0918   1.1768  -0.8234   0.00    0.0
2022/12/06 11:46:54.000   45.410854404   11.891713890    70.4860   5  23   2.2945   1.8022   4.1629  -1.0921   1.1772  -0.8236   0.00    0.0
2022/12/06 11:46:55.000   45.410852798   11.891714598    70.5648   5  23   2.2947   1.8024   4.1629  -1.0924   1.1776  -0.8238   0.00    0.0
2022/12/06 11:46:56.000   45.410854494   11.891713715    70.7695   5  23   2.2948   1.8025   4.1630  -1.0927   1.1781  -0.8241   0.00    0.0
2022/12/06 11:46:57.000   45.410854086   11.891713118    70.7305   5  23   2.2950   1.8026   4.1631  -1.0929   1.1785  -0.8243   0.00    0.0
2022/12/06 11:46:58.000   45.410856295   11.891713109    70.6588   5  23   2.2952   1.8028   4.1631  -1.0932   1.1789  -0.8246   0.00    0.0
2022/12/06 11:46:59.000   45.410855060   11.891713218    70.6511   5  23   2.2953   1.8029   4.1632  -1.0935   1.1794  -0.8248   0.00    0.0
2022/12/06 11:47:00.000   45.410856425   11.891713433    70.9184   5  23   2.2955   1.8030   4.1632  -1.0938   1.1798  -0.8251   0.00    0.0
2022/12/06 11:47:01.000   45.410857228   11.891712485    71.1007   5  23   2.2956   1.8031   4.1633  -1.0941   1.1802  -0.8253   0.00    0.0
2022/12/06 11:47:02.000   45.410856603   11.891711835    70.9885   5  23   2.2958   1.8033   4.1634  -1.0944   1.1807  -0.8256   0.00    0.0
2022/12/06 11:47:03.000   45.410855243   11.891713837    71.1738   5  23   2.2960   1.8034   4.1634  -1.0947   1.1811  -0.8258   0.00    0.0
2022/12/06 11:47:04.000   45.410854989   11.891713554    71.3754   5  23   2.2961   1.8035   4.1635  -1.0950   1.1815  -0.8260   0.00    0.0
2022/12/06 11:47:05.000   45.410854380   11.891714345    71.5605   5  23   2.2963   1.8037   4.1635  -1.0953   1.1820  -0.8263   0.00    0.0
2022/12/06 11:47:06.000   45.410854930   11.891715081    71.6507   5  23   2.2965   1.8038   4.1636  -1.0956   1.1824  -0.8265   0.00    0.0
2022/12/06 11:47:07.000   45.410854694   11.891713816    71.6551   5  23   2.2966   1.8039   4.1637  -1.0959   1.1828  -0.8268   0.00    0.0
2022/12/06 11:47:08.000   45.410854122   11.891714185    71.6757   5  23   2.2968   1.8041   4.1637  -1.0961   1.1832  -0.8270   0.00    0.0
2022/12/06 11:47:09.000   45.410854726   11.891713973    71.6604   5  23   2.2970   1.8042   4.1638  -1.0964   1.1837  -0.8273   0.00    0.0
2022/12/06 11:47:10.000   45.410854376   11.891713758    71.5989   5  23   2.2971   1.8043   4.1638  -1.0967   1.1841  -0.8275   0.00    0.0
2022/12/06 11:47:11.000   45.410855025   11.891713808    71.5006   5  23   2.2973   1.8045   4.1639  -1.0970   1.1845  -0.8278   0.00    0.0
2022/12/06 11:47:12.000   45.410855958   11.891714023    71.2034   5  23   2.2974   1.8046   4.1639  -1.0973   1.1850  -0.8280   0.00    0.0
2022/12/06 11:47:13.000   45.410855675   11.891712624    71.1784   5  23   2.2976   1.8047   4.1640  -1.0976   1.1854  -0.8283   0.00    0.0
2022/12/06 11:47:14.000   45.410856744   11.891709320    71.3448   5  23   2.2978   1.8049   4.1641  -1.0979   1.1858  -0.8285   0.00    0.0
2022/12/06 11:47:15.000   45.410857012   11.891708991    71.0653   5  23   2.2979   1.8050   4.1641  -1.0982   1.1862  -0.8288   0.00    0.0
2022/12/06 11:47:16.000   45.410856389   11.891709144    71.0706   5  23   2.2981   1.8051   4.1642  -1.0985   1.1867  -0.8290   0.00    0.0
2022/12/06 11:47:17.000   45.410857619   11.891708029    71.1012   5  23   2.2983   1.8053   4.1642  -1.0988   1.1871  -0.8293   0.00    0.0
2022/12/06 11:47:18.000   45.410858890   11.891707386    70.9183   5  23   2.2984   1.8054   4.1643  -1.0991   1.1875  -0.8295   0.00    0.0
2022/12/06 11:47:19.000   45.410858849   11.891707512    70.8045   5  23   2.2986   1.8055   4.1644  -1.0994   1.1880  -0.8298   0.00    0.0
2022/12/06 11:47:20.000   45.410858079   11.891707385    70.6428   5  23   2.2988   1.8057   4.1644  -1.0996   1.1884  -0.8300   0.00    0.0
2022/12/06 11:47:21.000   45.410859678   11.891708539    70.5971   5  23   2.2989   1.8058   4.1645  -1.0999   1.1888  -0.8303   0.00    0.0
2022/12/06 11:47:22.000   45.410858828   11.891708289    70.3991   5  23   2.2991   1.8059   4.1645  -1.1002   1.1892  -0.8305   0.00    0.0
2022/12/06 11:47:23.000   45.410858808   11.891708508    70.5371   5  23   2.2992   1.8060   4.1646  -1.1005   1.1897  -0.8308   0.00    0.0
2022/12/06 11:47:24.000   45.410858946   11.891709213    70.4362   5  23   2.2994   1.8062   4.1646  -1.1008   1.1901  -0.8310   0.00    0.0
2022/12/06 11:47:25.000   45.410858538   11.891708491    70.3768   5  23   2.2996   1.8063   4.1647  -1.1011   1.1905  -0.8313   0.00    0.0
2022/12/06 11:47:26.000   45.410859716   11.891707003    70.4739   5  23   2.2997   1.8064   4.1648  -1.1014   1.1910  -0.8316   0.00    0.0
2022/12/06 11:47:27.000   45.410858687   11.891706657    70.3605   5  23   2.2999   1.8066   4.1648  -1.1017   1.1914  -0.8318   0.00    0.0
2022/12/06 11:47:28.000   45.410859420   11.891706696    70.4106   5  23   2.3001   1.8067   4.1649  -1.1020   1.1918  -0.8321   0.00    0.0
2022/12/06 11:47:29.000   45.410859064   11.891707617    70.3228   5  23   2.3002   1.8068   4.1649  -1.1023   1.1922  -0.8323   0.00    0.0
2022/12/06 11:47:30.000   45.410857671   11.891707201    70.4700   5  23   2.3004   1.8070   4.1650  -1.1026   1.1927  -0.8326   0.00    0.0
2022/12/06 11:47:31.000   45.410858666   11.891708257    70.5830   5  23   2.3006   1.8071   4.1650  -1.1029   1.1931  -0.8328   0.00    0.0
2022/12/06 11:47:32.000   45.410858131   11.891707824    70.6437   5  23   2.3007   1.8072   4.1651  -1.1031   1.1935  -0.8331   0.00    0.0
2022/12/06 11:47:33.000   45.410858509   11.891708785    70.6248   5  23   2.3009   1.8074   4.1652  -1.1034   1.1940  -0.8333   0.00    0.0
2022/12/06 11:47:34.000   45.410858512   11.891709391    70.5848   5  23   2.3011   1.8075   4.1652  -1.1037   1.1944  -0.8336   0.00    0.0
2022/12/06 11:47:35.000   45.410857934   11.891708918    70.4552   5  23   2.3012   1.8076   4.1653  -1.1040   1.1948  -0.8338   0.00    0.0
2022/12/06 11:47:36.000   45.410856984   11.891709994    70.4419   5  23   2.3014   1.8078   4.1653  -1.1043   1.1952  -0.8341   0.00    0.0
2022/12/06 11:47:37.000   45.410855652   11.891710229    70.1183   5  23   2.3016   1.8079   4.1654  -1.1046   1.1957  -0.8344   0.00    0.0
2022/12/06 11:47:38.000   45.410854720   11.891711811    69.8616   5  23   2.3017   1.8080   4.1654  -1.1049   1.1961  -0.8346   0.00    0.0
2022/12/06 11:47:39.000   45.410855450   11.891710338    69.7318   5  23   2.3019   1.8082   4.1655  -1.1052   1.1965  -0.8349   0.00    0.0
2022/12/06 11:47:40.000   45.410855132   11.891710700    69.6560   5  23   2.3020   1.8083   4.1656  -1.1055   1.1969  -0.8351   0.00    0.0
2022/12/06 11:47:41.000   45.410853552   11.891711992    69.7275   5  23   2.3022   1.8085   4.1656  -1.1058   1.1974  -0.8354   0.00    0.0
2022/12/06 11:47:42.000   45.410853533   11.891711210    69.6706   5  23   2.3024   1.8086   4.1657  -1.1061   1.1978  -0.8357   0.00    0.0
2022/12/06 11:47:43.000   45.410852802   11.891710550    69.8203   5  23   2.3025   1.8087   4.1657  -1.1064   1.1982  -0.8359   0.00    0.0
2022/12/06 11:47:44.000   45.410852029   11.891710190    69.8674   5  23   2.3027   1.8089   4.1658  -1.1067   1.1987  -0.8362   0.00    0.0
2022/12/06 11:47:45.000   45.410851175   11.891709824    69.9629   5  23   2.3029   1.8090   4.1658  -1.1069   1.1991  -0.8364   0.00    0.0
2022/12/06 11:47:46.000   45.410850462   11.891711627    70.0790   5  23   2.3030   1.8091   4.1659  -1.1072   1.1995  -0.8367   0.00    0.0
2022/12/06 11:47:47.000   45.410852574   11.891711151    69.9373   5  23   2.3032   1.8093   4.1660  -1.1075   1.1999  -0.8369   0.00    0.0
2022/12/06 11:47:48.000   45.410852003   11.891713321    69.9252   5  23   2.3034   1.8094   4.1660  -1.1078   1.2004  -0.8372   0.00    0.0
2022/12/06 11:47:49.000   45.410850477   11.891713804    70.0387   5  23   2.3035   1.8095   4.1661  -1.1081   1.2008  -0.8375   0.00    0.0
2022/12/06 11:47:50.000   45.410850137   11.891713915    70.0022   5  23   2.3037   1.8097   4.1661  -1.1084   1.2012  -0.8377   0.00    0.0
2022/12/06 11:47:51.000   45.410849761   11.891715021    69.6980   5  23   2.3039   1.8098   4.1662  -1.1087   1.2016  -0.8380   0.00    0.0
2022/12/06 11:47:52.000   45.410850455   11.891714657    69.5728   5  23   2.3040   1.8099   4.1662  -1.1090   1.2021  -0.8383   0.00    0.0
2022/12/06 11:47:53.000   45.410849697   11.891716295    69.6158   5  23   2.3042   1.8101   4.1663  -1.1093   1.2025  -0.8385   0.00    0.0
2022/12/06 11:47:54.000   45.410849994   11.891715811    69.4425   5  23   2.3044   1.8102   4.1663  -1.1096   1.2029  -0.8388   0.00    0.0
2022/12/06 11:47:55.000   45.410848610   11.891715240    69.5480   5  23   2.3045   1.8103   4.1664  -1.1099   1.2033  -0.8390   0.00    0.0
2022/12/06 11:47:56.000   45.410848355   11.891716109    69.3076   5  23   2.3047   1.8105   4.1665  -1.1102   1.2038  -0.8393   0.00    0.0
2022/12/06 11:47:57.000   45.410849051   11.891715807    69.1070   5  23   2.3049   1.8106   4.1665  -1.1105   1.2042  -0.8396   0.00    0.0
2022/12/06 11:47:58.000   45.410849499   11.891715723    68.9462   5  23   2.3050   1.8107   4.1666  -1.1108   1.2046  -0.8398   0.00    0.0
2022/12/06 11:47:59.000   45.410850543   11.891715955    68.7676   5  23   2.3052   1.8109   4.1666  -1.1110   1.2050  -0.8401   0.00    0.0
2022/12/06 11:48:00.000   45.410850295   11.891715846    68.6390   5  23   2.3054   1.8110   4.1667  -1.1113   1.2055  -0.8404   0.00    0.0
2022/12/06 11:48:01.000   45.410849937   11.891715307    68.5497   5  23   2.3055   1.8111   4.1667  -1.1116   1.2059  -0.8406   0.00    0.0
2022/12/06 11:48:02.000   45.410850125   11.891714895    68.4537   5  23   2.3057   1.8113   4.1668  -1.1119   1.2063  -0.8409   0.00    0.0
2022/12/06 11:48:03.000   45.410850023   11.891715097    68.5258   5  23   2.3059   1.8114   4.1668  -1.1122   1.2067  -0.8412   0.00    0.0
2022/12/06 11:48:04.000   45.410849997   11.891715666    68.7297   5  23   2.3060   1.8116   4.1669  -1.1125   1.2072  -0.8414   0.00    0.0
2022/12/06 11:48:05.000   45.410849880   11.891715226    68.6628   5  23   2.3062   1.8117   4.1670  -1.1128   1.2076  -0.8417   0.00    0.0
2022/12/06 11:48:06.000   45.410849913   11.891715303    68.9904   5  23   2.3064   1.8118   4.1670  -1.1131   1.2080  -0.8419   0.00    0.0
2022/12/06 11:48:07.000   45.410850358   11.891714446    69.2805   5  23   2.3065   1.8120   4.1671  -1.1134   1.2085  -0.8422   0.00    0.0
2022/12/06 11:48:08.000   45.410850861   11.891713826    69.4158   5  23   2.3067   1.8121   4.1671  -1.1137   1.2089  -0.8425   0.00    0.0
2022/12/06 11:48:09.000   45.410850456   11.891714680    69.5422   5  23   2.3068   1.8122   4.1672  -1.1140   1.2093  -0.8427   0.00    0.0
2022/12/06 11:48:10.000   45.410851823   11.891713772    69.7482   5  23   2.3070   1.8124   4.1672  -1.1143   1.2097  -0.8430   0.00    0.0
2022/12/06 11:48:11.000   45.410851212   11.891712656    70.0027   5  23   2.3072   1.8125   4.1673  -1.1146   1.2102  -0.8433   0.00    0.0
2022/12/06 11:48:12.000   45.410852014   11.891710929    70.1445   5  23   2.3073   1.8126   4.1673  -1.1149   1.2106  -0.8436   0.00    0.0
2022/12/06 11:48:13.000   45.410852577   11.891710875    70.1483   5  23   2.3075   1.8128   4.1674  -1.1152   1.2110  -0.8438   0.00    0.0
2022/12/06 11:48:14.000   45.410851473   11.891711532    70.2024   5  23   2.3077   1.8129   4.1675  -1.1154   1.2114  -0.8441   0.00    0.0
2022/12/06 11:48:15.000   45.410851575   11.891712204    70.4280   5  23   2.3078   1.8130   4.1675  -1.1157   1.2118  -0.8444   0.00    0.0
2022/12/06 11:48:16.000   45.410850667   11.891712501    70.5782   5  23   2.3080   1.8132   4.1676  -1.1160   1.2123  -0.8446   0.00    0.0
2022/12/06 11:48:17.000   45.410850532   11.891713735    70.7139   5  23   2.3082   1.8133   4.1676  -1.1163   1.2127  -0.8449   0.00    0.0
2022/12/06 11:48:18.000   45.410850225   11.891713219    70.4119   5  23   2.3083   1.8135   4.1677  -1.1166   1.2131  -0.8452   0.00    0.0
2022/12/06 11:48:19.000   45.410850595   11.891712758    70.2773   5  23   2.3085   1.8136   4.1677  -1.1169   1.2135  -0.8454   0.00    0.0
2022/12/06 11:48:20.000   45.410851165   11.891711695    70.0810   5  23   2.3087   1.8137   4.1678  -1.1172   1.2140  -0.8457   0.00    0.0
2022/12/06 11:48:21.000   45.410851159   11.891712410    70.0240   5  23   2.3088   1.8139   4.1678  -1.1175   1.2144  -0.8460   0.00    0.0
2022/12/06 11:48:22.000   45.410849894   11.891713275    70.1159   5  23   2.3090   1.8140   4.1679  -1.1178   1.2148  -0.8462   0.00    0.0
2022/12/06 11:48:23.000   45.410850660   11.891712980    70.2439   5  23   2.3092   1.8141   4.1679  -1.1181   1.2152  -0.8465   0.00    0.0
2022/12/06 11:48:24.000   45.410851243   11.891712466    70.2140   5  23   2.3093   1.8143   4.1680  -1.1184   1.2157  -0.8468   0.00    0.0
2022/12/06 11:48:25.000   45.410852243   11.891713237    70.3630   5  23   2.3095   1.8144   4.1680  -1.1187   1.2161  -0.8471   0.00    0.0
2022/12/06 11:48:26.000   45.410852375   11.891712789    70.3847   5  23   2.3097   1.8145   4.1681  -1.1190   1.2165  -0.8473   0.00    0.0
2022/12/06 11:48:27.000   45.410852894   11.891713196    70.6098   5  23   2.3098   1.8147   4.1682  -1.1193   1.2169  -0.8476   0.00    0.0
2022/12/06 11:48:28.000   45.410852942   11.891713597    70.3749   5  23   2.3100   1.8148   4.1682  -1.1196   1.2174  -0.8479   0.00    0.0
2022/12/06 11:48:29.000   45.410854051   11.891711588    70.2959   5  23   2.3102   1.8150   4.1683  -1.1199   1.2178  -0.8482   0.00    0.0
2022/12/06 11:48:30.000   45.410854108   11.891710438    70.3443   5  23   2.3103   1.8151   4.1683  -1.1201   1.2182  -0.8484   0.00    0.0
2022/12/06 11:48:31.000   45.410853597   11.891709811    70.1358   5  23   2.3105   1.8152   4.1684  -1.1204   1.2186  -0.8487   0.00    0.0
2022/12/06 11:48:32.000   45.410853110   11.891708429    69.9786   5  23   2.3107   1.8154   4.1684  -1.1207   1.2191  -0.8490   0.00    0.0
2022/12/06 11:48:33.000   45.410851943   11.891707623    69.9910   5  23   2.3109   1.8155   4.1685  -1.1210   1.2195  -0.8492   0.00    0.0
2022/12/06 11:48:34.000   45.410851390   11.891707245    69.9993   5  23   2.3110   1.8156   4.1685  -1.1213   1.2199  -0.8495   0.00    0.0
2022/12/06 11:48:35.000   45.410852152   11.891705976    69.9274   5  23   2.3112   1.8158   4.1686  -1.1216   1.2203  -0.8498   0.00    0.0
2022/12/06 11:48:36.000   45.410851706   11.891707154    69.8787   5  23   2.3114   1.8159   4.1686  -1.1219   1.2207  -0.8501   0.00    0.0
2022/12/06 11:48:37.000   45.410851506   11.891706483    69.6746   5  23   2.3115   1.8161   4.1687  -1.1222   1.2212  -0.8503   0.00    0.0
2022/12/06 11:48:38.000   45.410853208   11.891706270    69.7270   5  23   2.3117   1.8162   4.1687  -1.1225   1.2216  -0.8506   0.00    0.0
2022/12/06 11:48:39.000   45.410854492   11.891706659    69.7008   5  23   2.3119   1.8163   4.1688  -1.1228   1.2220  -0.8509   0.00    0.0
2022/12/06 11:48:40.000   45.410856372   11.891706977    69.7622   5  23   2.3120   1.8165   4.1688  -1.1231   1.2224  -0.8512   0.00    0.0
2022/12/06 11:48:41.000   45.410856362   11.891708568    69.8326   5  23   2.3122   1.8166   4.1689  -1.1234   1.2229  -0.8515   0.00    0.0
2022/12/06 11:48:42.000   45.410856942   11.891708649    70.0481   5  23   2.3124   1.8168   4.1689  -1.1237   1.2233  -0.8517   0.00    0.0
2022/12/06 11:48:43.000   45.410856507   11.891708097    70.2717   5  23   2.3125   1.8169   4.1690  -1.1240   1.2237  -0.8520   0.00    0.0
2022/12/06 11:48:44.000   45.410854779   11.891708475    70.3026   5  23   2.3127   1.8170   4.1691  -1.1243   1.2241  -0.8523   0.00    0.0
2022/12/06 11:48:45.000   45.410854058   11.891709194    70.3295   5  23   2.3129   1.8172   4.1691  -1.1246   1.2246  -0.8526   0.00    0.0
2022/12/06 11:48:46.000   45.410853315   11.891709891    70.4235   5  23   2.3130   1.8173   4.1692  -1.1249   1.2250  -0.8528   0.00    0.0
2022/12/06 11:48:47.000   45.410854283   11.891708994    70.5839   5  23   2.3132   1.8174   4.1692  -1.1251   1.2254  -0.8531   0.00    0.0
2022/12/06 11:48:48.000   45.410853838   11.891707370    70.5705   5  23   2.3134   1.8176   4.1693  -1.1254   1.2258  -0.8534   0.00    0.0
2022/12/06 11:48:49.000   45.410853967   11.891706074    70.4408   5  23   2.3135   1.8177   4.1693  -1.1257   1.2262  -0.8537   0.00    0.0
2022/12/06 11:48:50.000   45.410853898   11.891705096    70.5181   5  23   2.3137   1.8179   4.1694  -1.1260   1.2267  -0.8540   0.00    0.0
2022/12/06 11:48:51.000   45.410853550   11.891703741    70.4896   5  23   2.3139   1.8180   4.1694  -1.1263   1.2271  -0.8542   0.00    0.0
2022/12/06 11:48:52.000   45.410853912   11.891703278    70.4662   5  23   2.3140   1.8181   4.1695  -1.1266   1.2275  -0.8545   0.00    0.0
2022/12/06 11:48:53.000   45.410854350   11.891702078    70.5016   5  23   2.3142   1.8183   4.1695  -1.1269   1.2279  -0.8548   0.00    0.0
2022/12/06 11:48:54.000   45.410855244   11.891701115    70.5900   5  23   2.3144   1.8184   4.1696  -1.1272   1.2283  -0.8551   0.00    0.0
2022/12/06 11:48:55.000   45.410854973   11.891701873    70.8352   5  23   2.3145   1.8186   4.1696  -1.1275   1.2288  -0.8554   0.00    0.0
2022/12/06 11:48:56.000   45.410855181   11.891701937    70.9728   5  23   2.3147   1.8187   4.1697  -1.1278   1.2292  -0.8556   0.00    0.0
2022/12/06 11:48:57.000   45.410855876   11.891702124    71.1600   5  23   2.3149   1.8188   4.1697  -1.1281   1.2296  -0.8559   0.00    0.0
2022/12/06 11:48:58.000   45.410855548   11.891701868    71.4074   5  23   2.3150   1.8190   4.1698  -1.1284   1.2300  -0.8562   0.00    0.0
2022/12/06 11:48:59.000   45.410855410   11.891703053    71.6276   5  23   2.3152   1.8191   4.1698  -1.1287   1.2305  -0.8565   0.00    0.0
2022/12/06 11:49:00.000   45.410855308   11.891702767    71.6152   5  23   2.3154   1.8192   4.1699  -1.1290   1.2309  -0.8568   0.00    0.0
2022/12/06 11:49:01.000   45.410853999   11.891702573    71.8075   5  23   2.3155   1.8194   4.1699  -1.1293   1.2313  -0.8570   0.00    0.0
2022/12/06 11:49:02.000   45.410854135   11.891702303    71.6841   5  23   2.3157   1.8195   4.1700  -1.1296   1.2317  -0.8573   0.00    0.0
2022/12/06 11:49:03.000   45.410855217   11.891703051    71.5598   5  23   2.3159   1.8197   4.1700  -1.1299   1.2321  -0.8576   0.00    0.0
2022/12/06 11:49:04.000   45.410855131   11.891704091    71.4757   5  23   2.3161   1.8198   4.1701  -1.1302   1.2326  -0.8579   0.00    0.0
2022/12/06 11:49:05.000   45.410855797   11.891704505    71.6200   5  23   2.3162   1.8199   4.1701  -1.1305   1.2330  -0.8582   0.00    0.0
2022/12/06 11:49:06.000   45.410855912   11.891705061    71.6066   5  23   2.3164   1.8201   4.1702  -1.1307   1.2334  -0.8585   0.00    0.0
2022/12/06 11:49:07.000   45.410856899   11.891705076    71.6447   5  23   2.3166   1.8202   4.1702  -1.1310   1.2338  -0.8587   0.00    0.0
2022/12/06 11:49:08.000   45.410858486   11.891705671    71.6299   5  23   2.3167   1.8204   4.1703  -1.1313   1.2342  -0.8590   0.00    0.0
2022/12/06 11:49:09.000   45.410859397   11.891705470    71.5111   5  23   2.3169   1.8205   4.1703  -1.1316   1.2347  -0.8593   0.00    0.0
2022/12/06 11:49:10.000   45.410859622   11.891706118    71.3973   5  23   2.3171   1.8206   4.1704  -1.1319   1.2351  -0.8596   0.00    0.0
2022/12/06 11:49:11.000   45.410860038   11.891706600    71.1829   5  23   2.3172   1.8208   4.1704  -1.1322   1.2355  -0.8599   0.00    0.0
2022/12/06 11:49:12.000   45.410860799   11.891709033    71.1230   5  23   2.3174   1.8209   4.1705  -1.1325   1.2359  -0.8602   0.00    0.0
2022/12/06 11:49:13.000   45.410859850   11.891710858    71.0159   5  23   2.3176   1.8211   4.1705  -1.1328   1.2363  -0.8605   0.00    0.0
2022/12/06 11:49:14.000   45.410859085   11.891711155    70.9360   5  23   2.3177   1.8212   4.1706  -1.1331   1.2368  -0.8607   0.00    0.0
2022/12/06 11:49:15.000   45.410860258   11.891711240    70.8800   5  23   2.3179   1.8213   4.1706  -1.1334   1.2372  -0.8610   0.00    0.0
2022/12/06 11:49:16.000   45.410860286   11.891710790    70.9804   5  23   2.3181   1.8215   4.1707  -1.1337   1.2376  -0.8613   0.00    0.0
2022/12/06 11:49:17.000   45.410860827   11.891710285    70.7230   5  23   2.3182   1.8216   4.1707  -1.1340   1.2380  -0.8616   0.00    0.0
2022/12/06 11:49:18.000   45.410860009   11.891711893    70.9778   5  23   2.3184   1.8218   4.1708  -1.1343   1.2385  -0.8619   0.00    0.0
2022/12/06 11:49:19.000   45.410859682   11.891712037    70.8758   5  23   2.3186   1.8219   4.1709  -1.1346   1.2389  -0.8622   0.00    0.0
2022/12/06 11:49:20.000   45.410858152   11.891713529    70.8804   5  23   2.3188   1.8221   4.1709  -1.1349   1.2393  -0.8625   0.00    0.0
2022/12/06 11:49:21.000   45.410857280   11.891713052    70.8000   5  23   2.3189   1.8222   4.1710  -1.1352   1.2397  -0.8628   0.00    0.0
2022/12/06 11:49:22.000   45.410855039   11.891713536    70.8024   5  23   2.3191   1.8223   4.1710  -1.1355   1.2401  -0.8630   0.00    0.0
2022/12/06 11:49:23.000   45.410854722   11.891712843    70.6210   5  23   2.3193   1.8225   4.1711  -1.1358   1.2406  -0.8633   0.00    0.0
2022/12/06 11:49:24.000   45.410854544   11.891713576    70.3985   5  23   2.3194   1.8226   4.1711  -1.1361   1.2410  -0.8636   0.00    0.0
2022/12/06 11:49:25.000   45.410853481   11.891712440    70.4564   5  23   2.3196   1.8228   4.1712  -1.1364   1.2414  -0.8639   0.00    0.0
2022/12/06 11:49:26.000   45.410855130   11.891712079    70.1523   5  23   2.3198   1.8229   4.1712  -1.1367   1.2418  -0.8642   0.00    0.0
2022/12/06 11:49:27.000   45.410855125   11.891711866    70.4658   5  23   2.3199   1.8230   4.1712  -1.1370   1.2422  -0.8645   0.00    0.0
2022/12/06 11:49:28.000   45.410855463   11.891711017    70.3286   5  23   2.3201   1.8232   4.1713  -1.1373   1.2426  -0.8648   0.00    0.0
2022/12/06 11:49:29.000   45.410855251   11.891711813    70.3522   5  23   2.3203   1.8233   4.1713  -1.1375   1.2431  -0.8651   0.00    0.0
2022/12/06 11:49:30.000   45.410854700   11.891712808    69.9484   5  23   2.3205   1.8235   4.1714  -1.1378   1.2435  -0.8654   0.00    0.0
2022/12/06 11:49:31.000   45.410854187   11.891712830    69.8428   5  23   2.3206   1.8236   4.1714  -1.1381   1.2439  -0.8657   0.00    0.0
2022/12/06 11:49:32.000   45.410852338   11.891713566    70.0365   5  23   2.3208   1.8237   4.1715  -1.1384   1.2443  -0.8660   0.00    0.0
2022/12/06 11:49:33.000   45.410852201   11.891713811    70.1068   5  23   2.3210   1.8239   4.1715  -1.1387   1.2447  -0.8662   0.00    0.0
2022/12/06 11:49:34.000   45.410852072   11.891713730    70.2250   5  23   2.3211   1.8240   4.1716  -1.1390   1.2452  -0.8665   0.00    0.0
2022/12/06 11:49:35.000   45.410851032   11.891713684    70.0147   5  23   2.3213   1.8242   4.1716  -1.1393   1.2456  -0.8668   0.00    0.0
2022/12/06 11:49:36.000   45.410851163   11.891714060    70.1515   5  23   2.3215   1.8243   4.1717  -1.1396   1.2460  -0.8671   0.00    0.0
2022/12/06 11:49:37.000   45.410852851   11.891712782    70.2218   5  23   2.3216   1.8245   4.1717  -1.1399   1.2464  -0.8674   0.00    0.0
2022/12/06 11:49:38.000   45.410851826   11.891715333    70.2596   5  23   2.3218   1.8246   4.1718  -1.1402   1.2468  -0.8677   0.00    0.0
2022/12/06 11:49:39.000   45.410851981   11.891713936    70.3613   5  23   2.3220   1.8247   4.1718  -1.1405   1.2473  -0.8680   0.00    0.0
2022/12/06 11:49:40.000   45.410854392   11.891713193    70.3122   5  23   2.3221   1.8249   4.1719  -1.1408   1.2477  -0.8683   0.00    0.0
2022/12/06 11:49:41.000   45.410854173   11.891713040    70.5172   5  23   2.3223   1.8250   4.1719  -1.1411   1.2481  -0.8686   0.00    0.0
2022/12/06 11:49:42.000   45.410856039   11.891713376    70.2749   5  23   2.3225   1.8252   4.1720  -1.1414   1.2485  -0.8689   0.00    0.0
2022/12/06 11:49:43.000   45.410854794   11.891711832    70.4300   5  23   2.3227   1.8253   4.1720  -1.1417   1.2489  -0.8692   0.00    0.0
2022/12/06 11:49:44.000   45.410854037   11.891711797    70.4147   5  23   2.3228   1.8255   4.1721  -1.1420   1.2494  -0.8695   0.00    0.0
2022/12/06 11:49:45.000   45.410855252   11.891711600    70.6427   5  23   2.3230   1.8256   4.1721  -1.1423   1.2498  -0.8698   0.00    0.0
2022/12/06 11:49:46.000   45.410856803   11.891711309    70.2376   5  23   2.3232   1.8257   4.1722  -1.1426   1.2502  -0.8701   0.00    0.0
2022/12/06 11:49:47.000   45.410857104   11.891711131    70.0409   5  23   2.3233   1.8259   4.1722  -1.1429   1.2506  -0.8704   0.00    0.0
2022/12/06 11:49:48.000   45.410855588   11.891710786    70.2493   5  23   2.3235   1.8260   4.1723  -1.1432   1.2510  -0.8707   0.00    0.0
2022/12/06 11:49:49.000   45.410855509   11.891711534    70.1478   5  23   2.3237   1.8262   4.1723  -1.1435   1.2514  -0.8710   0.00    0.0
2022/12/06 11:49:50.000   45.410854879   11.891710912    70.0961   5  23   2.3239   1.8263   4.1724  -1.1438   1.2519  -0.8713   0.00    0.0
2022/12/06 11:49:51.000   45.410854453   11.891712003    70.0328   5  23   2.3240   1.8264   4.1724  -1.1441   1.2523  -0.8715   0.00    0.0
2022/12/06 11:49:52.000   45.410853951   11.891712081    70.1569   5  23   2.3242   1.8266   4.1725  -1.1444   1.2527  -0.8718   0.00    0.0
2022/12/06 11:49:53.000   45.410854610   11.891711461    70.1471   5  23   2.3244   1.8267   4.1725  -1.1447   1.2531  -0.8721   0.00    0.0
2022/12/06 11:49:54.000   45.410854361   11.891713553    70.0039   5  23   2.3245   1.8269   4.1726  -1.1450   1.2535  -0.8724   0.00    0.0
2022/12/06 11:49:55.000   45.410854418   11.891715387    70.2147   5  23   2.3247   1.8270   4.1726  -1.1453   1.2540  -0.8727   0.00    0.0
2022/12/06 11:49:56.000   45.410854689   11.891716358    70.3328   5  23   2.3249   1.8272   4.1727  -1.1456   1.2544  -0.8730   0.00    0.0
2022/12/06 11:49:57.000   45.410854077   11.891717205    70.4871   5  23   2.3250   1.8273   4.1727  -1.1459   1.2548  -0.8733   0.00    0.0
2022/12/06 11:49:58.000   45.410854919   11.891717474    70.3895   5  23   2.3252   1.8275   4.1728  -1.1461   1.2552  -0.8736   0.00    0.0
2022/12/06 11:49:59.000   45.410856332   11.891717835    70.4926   5  23   2.3254   1.8276   4.1728  -1.1464   1.2556  -0.8739   0.00    0.0
2022/12/06 11:50:00.000   45.410856837   11.891718373    70.3679   5  23   2.3256   1.8277   4.1729  -1.1467   1.2560  -0.8742   0.00    0.0
2022/12/06 11:50:01.000   45.410857133   11.891718820    70.4409   5  23   2.3257   1.8279   4.1729  -1.1470   1.2565  -0.8745   0.00    0.0
2022/12/06 11:50:02.000   45.410859040   11.891716990    70.5000   5  23   2.3259   1.8280   4.1730  -1.1473   1.2569  -0.8748   0.00    0.0
2022/12/06 11:50:03.000   45.410859421   11.891716987    70.3824   5  23   2.3261   1.8282   4.1730  -1.1476   1.2573  -0.8751   0.00    0.0
2022/12/06 11:50:04.000   45.410858879   11.891717749    70.5815   5  23   2.3262   1.8283   4.1730  -1.1479   1.2577  -0.8754   0.00    0.0
2022/12/06 11:50:05.000   45.410858402   11.891717729    70.4615   5  23   2.3264   1.8285   4.1731  -1.1482   1.2581  -0.8757   0.00    0.0
2022/12/06 11:50:06.000   45.410857281   11.891717790    70.5140   5  23   2.3266   1.8286   4.1731  -1.1485   1.2585  -0.8760   0.00    0.0
2022/12/06 11:50:07.000   45.410856257   11.891718544    70.5223   5  23   2.3268   1.8287   4.1732  -1.1488   1.2590  -0.8763   0.00    0.0
2022/12/06 11:50:08.000   45.410855766   11.891717428    70.4383   5  23   2.3269   1.8289   4.1732  -1.1491   1.2594  -0.8766   0.00    0.0
2022/12/06 11:50:09.000   45.410856123   11.891716709    70.3355   5  23   2.3271   1.8290   4.1733  -1.1494   1.2598  -0.8769   0.00    0.0
2022/12/06 11:50:10.000   45.410855445   11.891716167    70.1411   5  23   2.3273   1.8292   4.1733  -1.1497   1.2602  -0.8772   0.00    0.0
2022/12/06 11:50:11.000   45.410853979   11.891715766    69.9948   5  23   2.3274   1.8293   4.1734  -1.1500   1.2606  -0.8776   0.00    0.0
2022/12/06 11:50:12.000   45.410853729   11.891714995    70.0511   5  23   2.3276   1.8295   4.1734  -1.1503   1.2610  -0.8779   0.00    0.0
2022/12/06 11:50:13.000   45.410853735   11.891714792    69.8420   5  23   2.3278   1.8296   4.1735  -1.1506   1.2615  -0.8782   0.00    0.0
2022/12/06 11:50:14.000   45.410853926   11.891715101    69.5880   5  23   2.3280   1.8298   4.1735  -1.1509   1.2619  -0.8785   0.00    0.0
2022/12/06 11:50:15.000   45.410853992   11.891714498    69.6947   5  23   2.3281   1.8299   4.1736  -1.1512   1.2623  -0.8788   0.00    0.0
2022/12/06 11:50:16.000   45.410853191   11.891714331    69.4591   5  23   2.3283   1.8300   4.1736  -1.1515   1.2627  -0.8791   0.00    0.0
2022/12/06 11:50:17.000   45.410852389   11.891715023    69.4461   5  23   2.3285   1.8302   4.1737  -1.1518   1.2631  -0.8794   0.00    0.0
2022/12/06 11:50:18.000   45.410851364   11.891714254    69.7903   5  23   2.3286   1.8303   4.1737  -1.1521   1.2635  -0.8797   0.00    0.0
2022/12/06 11:50:19.000   45.410850171   11.891715683    70.0643   5  23   2.3288   1.8305   4.1737  -1.1524   1.2640  -0.8800   0.00    0.0
2022/12/06 11:50:20.000   45.410849645   11.891714958    70.0370   5  23   2.3290   1.8306   4.1738  -1.1527   1.2644  -0.8803   0.00    0.0
2022/12/06 11:50:21.000   45.410850729   11.891714250    70.1747   5  23   2.3292   1.8308   4.1738  -1.1530   1.2648  -0.8806   0.00    0.0
2022/12/06 11:50:22.000   45.410850135   11.891715398    70.4056   5  23   2.3293   1.8309   4.1739  -1.1533   1.2652  -0.8809   0.00    0.0
2022/12/06 11:50:23.000   45.410849521   11.891714238    70.4327   5  23   2.3295   1.8311   4.1739  -1.1536   1.2656  -0.8812   0.00    0.0
2022/12/06 11:50:24.000   45.410850166   11.891713872    70.4637   5  23   2.3297   1.8312   4.1740  -1.1539   1.2660  -0.8815   0.00    0.0
2022/12/06 11:50:25.000   45.410851513   11.891712599    70.3101   5  23   2.3298   1.8314   4.1740  -1.1542   1.2665  -0.8818   0.00    0.0
2022/12/06 11:50:26.000   45.410853070   11.891712573    70.1335   5  23   2.3300   1.8315   4.1741  -1.1545   1.2669  -0.8821   0.00    0.0
2022/12/06 11:50:27.000   45.410852759   11.891712671    70.0420   5  23   2.3302   1.8316   4.1741  -1.1548   1.2673  -0.8824   0.00    0.0
2022/12/06 11:50:28.000   45.410852889   11.891713239    70.2448   5  23   2.3304   1.8318   4.1742  -1.1551   1.2677  -0.8827   0.00    0.0
2022/12/06 11:50:29.000   45.410852739   11.891714152    70.3158   5  23   2.3305   1.8319   4.1742  -1.1554   1.2681  -0.8830   0.00    0.0
2022/12/06 11:50:30.000   45.410852890   11.891713447    70.2676   5  23   2.3307   1.8321   4.1743  -1.1557   1.2685  -0.8834   0.00    0.0
2022/12/06 11:50:31.000   45.410852203   11.891713280    70.2257   5  23   2.3309   1.8322   4.1743  -1.1560   1.2690  -0.8837   0.00    0.0
2022/12/06 11:50:32.000   45.410851435   11.891711361    70.1914   5  23   2.3311   1.8324   4.1743  -1.1563   1.2694  -0.8840   0.00    0.0
2022/12/06 11:50:33.000   45.410851962   11.891711627    70.2081   5  23   2.3312   1.8325   4.1744  -1.1566   1.2698  -0.8843   0.00    0.0
2022/12/06 11:50:34.000   45.410851764   11.891712080    70.3770   5  23   2.3314   1.8327   4.1744  -1.1569   1.2702  -0.8846   0.00    0.0
2022/12/06 11:50:35.000   45.410850706   11.891713600    70.5358   5  23   2.3316   1.8328   4.1745  -1.1572   1.2706  -0.8849   0.00    0.0
2022/12/06 11:50:36.000   45.410849656   11.891712735    70.5056   5  23   2.3317   1.8330   4.1745  -1.1575   1.2710  -0.8852   0.00    0.0
2022/12/06 11:50:37.000   45.410849662   11.891712545    70.7452   5  23   2.3319   1.8331   4.1746  -1.1578   1.2715  -0.8855   0.00    0.0
2022/12/06 11:50:38.000   45.410849567   11.891712511    70.8133   5  23   2.3321   1.8332   4.1746  -1.1581   1.2719  -0.8858   0.00    0.0
2022/12/06 11:50:39.000   45.410849013   11.891712807    70.6892   5  23   2.3323   1.8334   4.1747  -1.1584   1.2723  -0.8861   0.00    0.0
2022/12/06 11:50:40.000   45.410847526   11.891713215    70.6215   5  23   2.3324   1.8335   4.1747  -1.1587   1.2727  -0.8865   0.00    0.0
2022/12/06 11:50:41.000   45.410847905   11.891713837    70.8055   5  23   2.3326   1.8337   4.1748  -1.1590   1.2731  -0.8868   0.00    0.0
2022/12/06 11:50:42.000   45.410846618   11.891714889    70.8357   5  23   2.3328   1.8338   4.1748  -1.1593   1.2735  -0.8871   0.00    0.0
2022/12/06 11:50:43.000   45.410845969   11.891716909    71.0336   5  23   2.3330   1.8340   4.1748  -1.1596   1.2739  -0.8874   0.00    0.0
2022/12/06 11:50:44.000   45.410847041   11.891717442    71.1836   5  23   2.3331   1.8341   4.1749  -1.1599   1.2744  -0.8877   0.00    0.0
2022/12/06 11:50:45.000   45.410846284   11.891716220    71.2735   5  23   2.3333   1.8343   4.1749  -1.1602   1.2748  -0.8880   0.00    0.0
2022/12/06 11:50:46.000   45.410846450   11.891718116    71.4239   5  23   2.3335   1.8344   4.1750  -1.1605   1.2752  -0.8883   0.00    0.0
2022/12/06 11:50:47.000   45.410846399   11.891718706    71.7321   5  23   2.3336   1.8346   4.1750  -1.1607   1.2756  -0.8886   0.00    0.0
2022/12/06 11:50:48.000   45.410847407   11.891718006    71.9848   5  23   2.3338   1.8347   4.1751  -1.1610   1.2760  -0.8889   0.00    0.0
2022/12/06 11:50:49.000   45.410847010   11.891718323    72.1069   5  23   2.3340   1.8349   4.1751  -1.1613   1.2764  -0.8893   0.00    0.0
2022/12/06 11:50:50.000   45.410848254   11.891718265    72.1252   5  23   2.3342   1.8350   4.1752  -1.1616   1.2768  -0.8896   0.00    0.0
2022/12/06 11:50:51.000   45.410847888   11.891717609    72.0206   5  23   2.3343   1.8352   4.1752  -1.1619   1.2773  -0.8899   0.00    0.0
2022/12/06 11:50:52.000   45.410847924   11.891718556    71.9159   5  23   2.3345   1.8353   4.1753  -1.1622   1.2777  -0.8902   0.00    0.0
2022/12/06 11:50:53.000   45.410847439   11.891718715    71.8055   5  23   2.3347   1.8354   4.1753  -1.1625   1.2781  -0.8905   0.00    0.0
2022/12/06 11:50:54.000   45.410848431   11.891718847    71.6324   5  23   2.3349   1.8356   4.1753  -1.1628   1.2785  -0.8908   0.00    0.0
2022/12/06 11:50:55.000   45.410847877   11.891719417    71.8352   5  23   2.3350   1.8357   4.1754  -1.1631   1.2789  -0.8911   0.00    0.0
2022/12/06 11:50:56.000   45.410847277   11.891719688    71.7728   5  23   2.3352   1.8359   4.1754  -1.1634   1.2793  -0.8915   0.00    0.0
2022/12/06 11:50:57.000   45.410846727   11.891720143    71.7072   5  23   2.3354   1.8360   4.1755  -1.1637   1.2797  -0.8918   0.00    0.0
2022/12/06 11:50:58.000   45.410847791   11.891718391    71.6338   5  23   2.3355   1.8362   4.1755  -1.1640   1.2802  -0.8921   0.00    0.0
2022/12/06 11:50:59.000   45.410847970   11.891718115    71.3872   5  23   2.3357   1.8363   4.1756  -1.1643   1.2806  -0.8924   0.00    0.0
2022/12/06 11:51:00.000   45.410848604   11.891715453    71.2302   5  23   2.3359   1.8365   4.1756  -1.1646   1.2810  -0.8927   0.00    0.0
2022/12/06 11:51:01.000   45.410847944   11.891717383    70.9214   5  23   2.3361   1.8366   4.1757  -1.1649   1.2814  -0.8930   0.00    0.0
2022/12/06 11:51:02.000   45.410848799   11.891716720    70.7666   5  23   2.3362   1.8368   4.1757  -1.1652   1.2818  -0.8934   0.00    0.0
2022/12/06 11:51:03.000   45.410849807   11.891716561    70.9175   5  23   2.3364   1.8369   4.1757  -1.1655   1.2822  -0.8937   0.00    0.0
2022/12/06 11:51:04.000   45.410850041   11.891715938    70.8511   5  23   2.3366   1.8371   4.1758  -1.1658   1.2826  -0.8940   0.00    0.0
2022/12/06 11:51:05.000   45.410850776   11.891715768    70.7505   5  23   2.3368   1.8372   4.1758  -1.1661   1.2831  -0.8943   0.00    0.0
2022/12/06 11:51:06.000   45.410850093   11.891715521    70.6036   5  23   2.3369   1.8374   4.1759  -1.1664   1.2835  -0.8946   0.00    0.0
2022/12/06 11:51:07.000   45.410848627   11.891716967    70.6628   5  23   2.3371   1.8375   4.1759  -1.1667   1.2839  -0.8949   0.00    0.0
2022/12/06 11:51:08.000   45.410849268   11.891716210    70.6313   5  23   2.3373   1.8377   4.1760  -1.1670   1.2843  -0.8953   0.00    0.0
2022/12/06 11:51:09.000   45.410849249   11.891715679    70.4071   5  23   2.3375   1.8378   4.1760  -1.1673   1.2847  -0.8956   0.00    0.0
2022/12/06 11:51:10.000   45.410850420   11.891714402    70.4136   5  23   2.3376   1.8380   4.1760  -1.1676   1.2851  -0.8959   0.00    0.0
2022/12/06 11:51:11.000   45.410849481   11.891712417    70.1925   5  23   2.3378   1.8381   4.1761  -1.1679   1.2855  -0.8962   0.00    0.0
2022/12/06 11:51:12.000   45.410850998   11.891709805    70.0660   5  23   2.3380   1.8383   4.1761  -1.1682   1.2860  -0.8965   0.00    0.0
2022/12/06 11:51:13.000   45.410849860   11.891709538    70.0130   5  23   2.3382   1.8384   4.1762  -1.1685   1.2864  -0.8969   0.00    0.0
2022/12/06 11:51:14.000   45.410849734   11.891709267    69.7848   5  23   2.3383   1.8386   4.1762  -1.1688   1.2868  -0.8972   0.00    0.0
2022/12/06 11:51:15.000   45.410849527   11.891709088    69.7274   5  23   2.3385   1.8387   4.1763  -1.1691   1.2872  -0.8975   0.00    0.0
2022/12/06 11:51:16.000   45.410849399   11.891708807    69.5825   5  23   2.3387   1.8389   4.1763  -1.1694   1.2876  -0.8978   0.00    0.0
2022/12/06 11:51:17.000   45.410849517   11.891707228    69.3353   5  23   2.3389   1.8390   4.1763  -1.1697   1.2880  -0.8981   0.00    0.0
2022/12/06 11:51:18.000   45.410848514   11.891709025    69.2700   5  23   2.3390   1.8392   4.1764  -1.1700   1.2884  -0.8985   0.00    0.0
2022/12/06 11:51:19.000   45.410848991   11.891708741    69.3104   5  23   2.3392   1.8393   4.1764  -1.1703   1.2888  -0.8988   0.00    0.0
2022/12/06 11:51:20.000   45.410848379   11.891707753    69.2480   5  23   2.3394   1.8395   4.1765  -1.1706   1.2893  -0.8991   0.00    0.0
2022/12/06 11:51:21.000   45.410847887   11.891707461    69.1890   5  23   2.3395   1.8396   4.1765  -1.1709   1.2897  -0.8994   0.00    0.0
2022/12/06 11:51:22.000   45.410846877   11.891708239    69.4791   5  23   2.3397   1.8397   4.1766  -1.1712   1.2901  -0.8998   0.00    0.0
2022/12/06 11:51:23.000   45.410845630   11.891706993    69.5217   5  23   2.3399   1.8399   4.1766  -1.1715   1.2905  -0.9001   0.00    0.0
2022/12/06 11:51:24.000   45.410846471   11.891706440    69.6941   5  23   2.3401   1.8400   4.1766  -1.1718   1.2909  -0.9004   0.00    0.0
2022/12/06 11:51:25.000   45.410847099   11.891706811    69.4799   5  23   2.3402   1.8402   4.1767  -1.1721   1.2913  -0.9007   0.00    0.0
2022/12/06 11:51:26.000   45.410847715   11.891706871    69.4162   5  23   2.3404   1.8403   4.1767  -1.1724   1.2917  -0.9010   0.00    0.0
2022/12/06 11:51:27.000   45.410847591   11.891705925    69.3418   5  23   2.3406   1.8405   4.1768  -1.1727   1.2922  -0.9014   0.00    0.0
2022/12/06 11:51:28.000   45.410848886   11.891706009    69.1260   5  23   2.3408   1.8406   4.1768  -1.1730   1.2926  -0.9017   0.00    0.0
2022/12/06 11:51:29.000   45.410849448   11.891706023    69.1524   5  23   2.3409   1.8408   4.1769  -1.1733   1.2930  -0.9020   0.00    0.0
2022/12/06 11:51:30.000   45.410849465   11.891706221    69.0474   5  23   2.3411   1.8409   4.1769  -1.1736   1.2934  -0.9023   0.00    0.0
2022/12/06 11:51:31.000   45.410850338   11.891705859    69.0156   5  23   2.3413   1.8411   4.1769  -1.1739   1.2938  -0.9027   0.00    0.0
2022/12/06 11:51:32.000   45.410852016   11.891705539    68.8971   5  23   2.3415   1.8412   4.1770  -1.1742   1.2942  -0.9030   0.00    0.0
2022/12/06 11:51:33.000   45.410852998   11.891706826    69.1850   5  23   2.3416   1.8414   4.1770  -1.1745   1.2946  -0.9033   0.00    0.0
2022/12/06 11:51:34.000   45.410853481   11.891706104    69.2466   5  23   2.3418   1.8415   4.1771  -1.1748   1.2950  -0.9036   0.00    0.0
2022/12/06 11:51:35.000   45.410853567   11.891706575    69.2877   5  23   2.3420   1.8417   4.1771  -1.1751   1.2955  -0.9040   0.00    0.0
2022/12/06 11:51:36.000   45.410852932   11.891706202    69.3108   5  23   2.3422   1.8418   4.1772  -1.1754   1.2959  -0.9043   0.00    0.0
2022/12/06 11:51:37.000   45.410854791   11.891706946    69.3979   5  24   2.1222   1.6548   3.9469  -0.7618   0.7575   0.7332   0.00    0.0
2022/12/06 11:51:38.000   45.410856116   11.891706730    69.4694   5  24   2.1223   1.6549   3.9469  -0.7620   0.7580   0.7331   0.00    0.0
2022/12/06 11:51:39.000   45.410856407   11.891706907    69.3615   5  24   2.1224   1.6550   3.9470  -0.7623   0.7585   0.7329   0.00    0.0
2022/12/06 11:51:40.000   45.410855803   11.891707049    69.4753   5  24   2.1225   1.6551   3.9470  -0.7625   0.7590   0.7328   0.00    0.0
2022/12/06 11:51:41.000   45.410855553   11.891707595    69.5807   5  24   2.1225   1.6551   3.9470  -0.7627   0.7595   0.7327   0.00    0.0
2022/12/06 11:51:42.000   45.410854961   11.891707641    69.4488   5  24   2.1226   1.6552   3.9471  -0.7629   0.7600   0.7325   0.00    0.0
2022/12/06 11:51:43.000   45.410854310   11.891707439    69.4250   5  24   2.1227   1.6553   3.9471  -0.7631   0.7605   0.7324   0.00    0.0
2022/12/06 11:51:44.000   45.410855338   11.891706186    69.3009   5  24   2.1228   1.6553   3.9471  -0.7633   0.7610   0.7322   0.00    0.0
2022/12/06 11:51:45.000   45.410855241   11.891707231    69.2444   5  24   2.1228   1.6554   3.9471  -0.7635   0.7615   0.7321   0.00    0.0
2022/12/06 11:51:46.000   45.410855206   11.891705249    69.1483   5  24   2.1229   1.6555   3.9472  -0.7637   0.7620   0.7319   0.00    0.0
2022/12/06 11:51:47.000   45.410854379   11.891705814    69.3787   5  24   2.1230   1.6556   3.9472  -0.7639   0.7625   0.7318   0.00    0.0
2022/12/06 11:51:48.000   45.410855842   11.891704779    69.3585   5  24   2.1231   1.6556   3.9472  -0.7641   0.7630   0.7317   0.00    0.0
2022/12/06 11:51:49.000   45.410854070   11.891703070    69.4182   5  24   2.1231   1.6557   3.9473  -0.7643   0.7635   0.7315   0.00    0.0
2022/12/06 11:51:50.000   45.410853991   11.891702284    69.3496   5  24   2.1232   1.6558   3.9473  -0.7645   0.7641   0.7314   0.00    0.0
2022/12/06 11:51:51.000   45.410855236   11.891701670    69.4369   5  24   2.1233   1.6559   3.9473  -0.7647   0.7646   0.7312   0.00    0.0
2022/12/06 11:51:52.000   45.410856605   11.891699305    69.4109   5  24   2.1234   1.6559   3.9473  -0.7649   0.7651   0.7311   0.00    0.0
2022/12/06 11:51:53.000   45.410856965   11.891699763    69.6090   5  24   2.1235   1.6560   3.9474  -0.7651   0.7655   0.7309   0.00    0.0
2022/12/06 11:51:54.000   45.410857939   11.891699014    69.4538   5  24   2.1235   1.6561   3.9474  -0.7653   0.7660   0.7308   0.00    0.0
2022/12/06 11:51:55.000   45.410857745   11.891699073    69.4700   5  24   2.1236   1.6561   3.9474  -0.7655   0.7665   0.7306   0.00    0.0
2022/12/06 11:51:56.000   45.410857449   11.891699492    69.6144   5  24   2.1237   1.6562   3.9475  -0.7657   0.7670   0.7305   0.00    0.0
2022/12/06 11:51:57.000   45.410858484   11.891698119    69.6241   5  24   2.1238   1.6563   3.9475  -0.7659   0.7675   0.7303   0.00    0.0
2022/12/06 11:51:58.000   45.410860098   11.891697774    69.9332   5  24   2.1238   1.6564   3.9475  -0.7661   0.7680   0.7302   0.00    0.0
2022/12/06 11:51:59.000   45.410858696   11.891699402    70.1154   5  24   2.1239   1.6564   3.9475  -0.7663   0.7685   0.7301   0.00    0.0
2022/12/06 11:52:00.000   45.410858149   11.891699760    70.0625   5  24   2.1240   1.6565   3.9476  -0.7665   0.7690   0.7299   0.00    0.0
2022/12/06 11:52:01.000   45.410859887   11.891698606    69.9162   5  24   2.1241   1.6566   3.9476  -0.7667   0.7695   0.7298   0.00    0.0
2022/12/06 11:52:02.000   45.410858763   11.891700072    70.0945   5  24   2.1242   1.6566   3.9476  -0.7670   0.7700   0.7296   0.00    0.0
2022/12/06 11:52:03.000   45.410859168   11.891701643    70.0216   5  24   2.1242   1.6567   3.9476  -0.7672   0.7705   0.7295   0.00    0.0
2022/12/06 11:52:04.000   45.410858083   11.891701862    70.1001   5  24   2.1243   1.6568   3.9477  -0.7674   0.7710   0.7293   0.00    0.0
2022/12/06 11:52:05.000   45.410856301   11.891702088    69.9798   5  24   2.1244   1.6569   3.9477  -0.7676   0.7715   0.7292   0.00    0.0
2022/12/06 11:52:06.000   45.410856059   11.891704110    70.0517   5  24   2.1245   1.6569   3.9477  -0.7678   0.7720   0.7290   0.00    0.0
2022/12/06 11:52:07.000   45.410855225   11.891706308    69.7655   5  24   2.1245   1.6570   3.9477  -0.7680   0.7725   0.7289   0.00    0.0
2022/12/06 11:52:08.000   45.410854775   11.891707678    70.1038   5  24   2.1246   1.6571   3.9478  -0.7682   0.7730   0.7287   0.00    0.0
2022/12/06 11:52:09.000   45.410854457   11.891706698    69.8962   5  24   2.1247   1.6572   3.9478  -0.7684   0.7735   0.7286   0.00    0.0
2022/12/06 11:52:10.000   45.410852637   11.891710161    69.9988   5  24   2.1248   1.6572   3.9478  -0.7686   0.7740   0.7284   0.00    0.0
2022/12/06 11:52:11.000   45.410851864   11.891709894    69.9915   5  24   2.1248   1.6573   3.9479  -0.7688   0.7745   0.7282   0.00    0.0
2022/12/06 11:52:12.000   45.410850560   11.891710718    70.0031   5  24   2.1249   1.6574   3.9479  -0.7690   0.7750   0.7281   0.00    0.0
2022/12/06 11:52:13.000   45.410849918   11.891710255    69.8719   5  24   2.1250   1.6574   3.9479  -0.7692   0.7755   0.7279   0.00    0.0
2022/12/06 11:52:14.000   45.410848525   11.891711501    69.9953   5  24   2.1251   1.6575   3.9479  -0.7694   0.7760   0.7278   0.00    0.0
2022/12/06 11:52:15.000   45.410848559   11.891711721    70.0087   5  24   2.1252   1.6576   3.9480  -0.7696   0.7765   0.7276   0.00    0.0
2022/12/06 11:52:16.000   45.410847612   11.891711837    69.8612   5  24   2.1252   1.6577   3.9480  -0.7698   0.7770   0.7275   0.00    0.0
2022/12/06 11:52:17.000   45.410848331   11.891712252    69.7817   5  24   2.1253   1.6577   3.9480  -0.7700   0.7775   0.7273   0.00    0.0
2022/12/06 11:52:18.000   45.410847838   11.891712864    70.0274   5  24   2.1254   1.6578   3.9480  -0.7702   0.7779   0.7272   0.00    0.0
2022/12/06 11:52:19.000   45.410847625   11.891712417    70.0727   5  24   2.1255   1.6579   3.9481  -0.7704   0.7784   0.7270   0.00    0.0
2022/12/06 11:52:20.000   45.410846993   11.891713404    70.0771   5  24   2.1255   1.6580   3.9481  -0.7706   0.7789   0.7269   0.00    0.0
