% program   : RTKPOST ver.2.4.3 b34
% inp file  : C:\Users\franc\Desktop\Satellite_Navigation\Workbook_8\GNSSdata_29052024_static\swift-gnss-20240529-130001.sbp.obs
% inp file  : C:\Users\franc\Desktop\Satellite_Navigation\Workbook_8\GNSSdata_29052024_static\swift-gnss-20240529-130001.sbp.nav
% obs start : 2024/05/29 11:00:20.0 GPST (week2316 298820.0s)
% obs end   : 2024/05/29 11:20:42.0 GPST (week2316 300042.0s)
% pos mode  : Single
% elev mask : 15.0 deg
% ionos opt : Broadcast
% tropo opt : Saastamoinen
% ephemeris : Broadcast
% navi sys  : GPS
%
% (lat/lon/height=WGS84/ellipsoidal,Q=1:fix,2:float,3:sbas,4:dgps,5:single,6:ppp,ns=# of satellites)
%  GPST                  latitude(deg) longitude(deg)  height(m)   Q  ns   sdn(m)   sde(m)   sdu(m)  sdne(m)  sdeu(m)  sdun(m) age(s)  ratio
2024/05/29 11:00:20.000   45.410460423   11.898889092    65.6523   5   8   2.9330   2.4695   5.4096  -0.8149  -1.5617  -1.2702   0.00    0.0
2024/05/29 11:00:21.000   45.410460815   11.898889519    65.6126   5   8   2.9331   2.4696   5.4095  -0.8153  -1.5613  -1.2707   0.00    0.0
2024/05/29 11:00:22.000   45.410460329   11.898887399    65.4532   5   8   2.9333   2.4696   5.4093  -0.8156  -1.5610  -1.2711   0.00    0.0
2024/05/29 11:00:23.000   45.410460666   11.898886827    65.3263   5   8   2.9335   2.4697   5.4092  -0.8160  -1.5606  -1.2716   0.00    0.0
2024/05/29 11:00:24.000   45.410461582   11.898884693    65.0649   5   8   2.9337   2.4698   5.4091  -0.8163  -1.5602  -1.2721   0.00    0.0
2024/05/29 11:00:25.000   45.410461583   11.898881842    64.4711   5   8   2.9338   2.4698   5.4090  -0.8167  -1.5598  -1.2726   0.00    0.0
2024/05/29 11:00:26.000   45.410462711   11.898876636    64.0092   5   8   2.9340   2.4699   5.4089  -0.8170  -1.5594  -1.2731   0.00    0.0
2024/05/29 11:00:27.000   45.410462188   11.898875019    63.8134   5   8   2.9342   2.4700   5.4088  -0.8174  -1.5591  -1.2735   0.00    0.0
2024/05/29 11:00:28.000   45.410461091   11.898874903    63.6061   5   8   2.9344   2.4700   5.4087  -0.8177  -1.5587  -1.2740   0.00    0.0
2024/05/29 11:00:29.000   45.410461389   11.898875249    63.6657   5   8   2.9345   2.4701   5.4086  -0.8181  -1.5583  -1.2745   0.00    0.0
2024/05/29 11:00:30.000   45.410461109   11.898874301    63.7192   5   8   2.9347   2.4701   5.4085  -0.8184  -1.5579  -1.2750   0.00    0.0
2024/05/29 11:00:31.000   45.410462391   11.898876337    64.6179   5   8   2.9349   2.4702   5.4084  -0.8188  -1.5575  -1.2755   0.00    0.0
2024/05/29 11:00:32.000   45.410462044   11.898878141    64.9361   5   8   2.9351   2.4703   5.4083  -0.8191  -1.5571  -1.2760   0.00    0.0
2024/05/29 11:00:33.000   45.410462114   11.898881197    64.9526   5   8   2.9352   2.4703   5.4081  -0.8194  -1.5568  -1.2764   0.00    0.0
2024/05/29 11:00:34.000   45.410462823   11.898883501    65.5681   5   8   2.9354   2.4704   5.4080  -0.8198  -1.5564  -1.2769   0.00    0.0
2024/05/29 11:00:35.000   45.410462179   11.898884892    66.2352   5   8   2.9356   2.4705   5.4079  -0.8201  -1.5560  -1.2774   0.00    0.0
2024/05/29 11:00:36.000   45.410460681   11.898887640    66.4528   5   8   2.9358   2.4705   5.4078  -0.8205  -1.5556  -1.2779   0.00    0.0
2024/05/29 11:00:37.000   45.410458872   11.898886793    66.0652   5   8   2.9359   2.4706   5.4077  -0.8208  -1.5552  -1.2784   0.00    0.0
2024/05/29 11:00:38.000   45.410461033   11.898886978    66.0633   5   8   2.9361   2.4707   5.4076  -0.8212  -1.5549  -1.2788   0.00    0.0
2024/05/29 11:00:39.000   45.410458717   11.898881159    65.7137   5   8   2.9363   2.4707   5.4075  -0.8215  -1.5545  -1.2793   0.00    0.0
2024/05/29 11:00:40.000   45.410459143   11.898878614    65.4771   5   8   2.9365   2.4708   5.4074  -0.8219  -1.5541  -1.2798   0.00    0.0
2024/05/29 11:00:41.000   45.410460317   11.898877290    65.2363   5   8   2.9367   2.4709   5.4073  -0.8222  -1.5537  -1.2803   0.00    0.0
2024/05/29 11:00:42.000   45.410460005   11.898875034    64.6135   5   8   2.9368   2.4709   5.4072  -0.8226  -1.5533  -1.2808   0.00    0.0
2024/05/29 11:00:43.000   45.410458129   11.898873640    64.7101   5   8   2.9370   2.4710   5.4071  -0.8229  -1.5529  -1.2812   0.00    0.0
2024/05/29 11:00:44.000   45.410457781   11.898873091    64.4349   5   8   2.9372   2.4711   5.4070  -0.8233  -1.5526  -1.2817   0.00    0.0
2024/05/29 11:00:45.000   45.410458402   11.898873621    64.3893   5   8   2.9374   2.4711   5.4068  -0.8236  -1.5522  -1.2822   0.00    0.0
2024/05/29 11:00:46.000   45.410458211   11.898872103    64.2439   5   8   2.9375   2.4712   5.4067  -0.8240  -1.5518  -1.2827   0.00    0.0
2024/05/29 11:00:47.000   45.410459510   11.898871265    63.9815   5   8   2.9377   2.4713   5.4066  -0.8243  -1.5514  -1.2832   0.00    0.0
2024/05/29 11:00:48.000   45.410461365   11.898870076    64.2692   5   8   2.9379   2.4713   5.4065  -0.8247  -1.5510  -1.2837   0.00    0.0
2024/05/29 11:00:49.000   45.410461766   11.898870274    64.5079   5   8   2.9381   2.4714   5.4064  -0.8250  -1.5506  -1.2841   0.00    0.0
2024/05/29 11:00:50.000   45.410461510   11.898872522    64.8603   5   8   2.9382   2.4714   5.4063  -0.8253  -1.5503  -1.2846   0.00    0.0
2024/05/29 11:00:51.000   45.410459810   11.898873059    64.3463   5   8   2.9384   2.4715   5.4062  -0.8257  -1.5499  -1.2851   0.00    0.0
2024/05/29 11:00:52.000   45.410460557   11.898872488    64.1839   5   8   2.9386   2.4716   5.4061  -0.8260  -1.5495  -1.2856   0.00    0.0
2024/05/29 11:00:53.000   45.410459836   11.898874669    64.4179   5   8   2.9388   2.4716   5.4060  -0.8264  -1.5491  -1.2861   0.00    0.0
2024/05/29 11:00:54.000   45.410458169   11.898879096    64.7516   5   8   2.9389   2.4717   5.4059  -0.8267  -1.5487  -1.2865   0.00    0.0
2024/05/29 11:00:55.000   45.410459133   11.898883072    65.0320   5   8   2.9391   2.4718   5.4058  -0.8271  -1.5483  -1.2870   0.00    0.0
2024/05/29 11:00:56.000   45.410458540   11.898885221    65.1482   5   8   2.9393   2.4718   5.4057  -0.8274  -1.5480  -1.2875   0.00    0.0
2024/05/29 11:00:57.000   45.410460595   11.898886164    65.0858   5   8   2.9395   2.4719   5.4055  -0.8278  -1.5476  -1.2880   0.00    0.0
2024/05/29 11:00:58.000   45.410462384   11.898887348    65.3294   5   8   2.9397   2.4720   5.4054  -0.8281  -1.5472  -1.2885   0.00    0.0
2024/05/29 11:00:59.000   45.410461738   11.898883977    64.9938   5   8   2.9398   2.4720   5.4053  -0.8285  -1.5468  -1.2889   0.00    0.0
2024/05/29 11:01:00.000   45.410461112   11.898882455    64.4471   5   8   2.9400   2.4721   5.4052  -0.8288  -1.5464  -1.2894   0.00    0.0
2024/05/29 11:01:01.000   45.410461235   11.898879575    64.2936   5   8   2.9402   2.4722   5.4051  -0.8292  -1.5460  -1.2899   0.00    0.0
2024/05/29 11:01:02.000   45.410460897   11.898881761    64.7983   5   8   2.9404   2.4722   5.4050  -0.8295  -1.5457  -1.2904   0.00    0.0
2024/05/29 11:01:03.000   45.410459788   11.898881348    65.1394   5   8   2.9405   2.4723   5.4049  -0.8298  -1.5453  -1.2909   0.00    0.0
2024/05/29 11:01:04.000   45.410458112   11.898882734    65.6433   5   8   2.9407   2.4724   5.4048  -0.8302  -1.5449  -1.2914   0.00    0.0
2024/05/29 11:01:05.000   45.410458686   11.898882477    66.0577   5   8   2.9409   2.4724   5.4047  -0.8305  -1.5445  -1.2918   0.00    0.0
2024/05/29 11:01:06.000   45.410458367   11.898885497    66.0564   5   8   2.9411   2.4725   5.4046  -0.8309  -1.5441  -1.2923   0.00    0.0
2024/05/29 11:01:07.000   45.410459280   11.898886364    66.1936   5   8   2.9412   2.4726   5.4045  -0.8312  -1.5437  -1.2928   0.00    0.0
2024/05/29 11:01:08.000   45.410459584   11.898887843    65.8322   5   8   2.9414   2.4726   5.4044  -0.8316  -1.5433  -1.2933   0.00    0.0
2024/05/29 11:01:09.000   45.410457821   11.898888462    66.0309   5   8   2.9416   2.4727   5.4042  -0.8319  -1.5430  -1.2938   0.00    0.0
2024/05/29 11:01:10.000   45.410457178   11.898891052    66.5453   5   8   2.9418   2.4728   5.4041  -0.8323  -1.5426  -1.2942   0.00    0.0
2024/05/29 11:01:11.000   45.410458474   11.898888680    66.7099   5   8   2.9420   2.4728   5.4040  -0.8326  -1.5422  -1.2947   0.00    0.0
2024/05/29 11:01:12.000   45.410457218   11.898892002    66.3802   5   8   2.9421   2.4729   5.4039  -0.8329  -1.5418  -1.2952   0.00    0.0
2024/05/29 11:01:13.000   45.410457831   11.898891863    66.2676   5   8   2.9423   2.4730   5.4038  -0.8333  -1.5414  -1.2957   0.00    0.0
2024/05/29 11:01:14.000   45.410458646   11.898888964    65.8207   5   8   2.9425   2.4730   5.4037  -0.8336  -1.5410  -1.2962   0.00    0.0
2024/05/29 11:01:15.000   45.410458101   11.898888708    65.4504   5   8   2.9427   2.4731   5.4036  -0.8340  -1.5406  -1.2967   0.00    0.0
2024/05/29 11:01:16.000   45.410458349   11.898885414    65.1663   5   8   2.9428   2.4732   5.4035  -0.8343  -1.5402  -1.2971   0.00    0.0
2024/05/29 11:01:17.000   45.410459759   11.898883204    64.5675   5   8   2.9430   2.4732   5.4034  -0.8347  -1.5399  -1.2976   0.00    0.0
2024/05/29 11:01:18.000   45.410462195   11.898884498    64.6311   5   8   2.9432   2.4733   5.4033  -0.8350  -1.5395  -1.2981   0.00    0.0
2024/05/29 11:01:19.000   45.410461982   11.898883059    64.5381   5   8   2.9434   2.4734   5.4032  -0.8353  -1.5391  -1.2986   0.00    0.0
2024/05/29 11:01:20.000   45.410463079   11.898882466    64.6711   5   8   2.9436   2.4734   5.4031  -0.8357  -1.5387  -1.2991   0.00    0.0
2024/05/29 11:01:21.000   45.410463693   11.898880120    64.7210   5   8   2.9437   2.4735   5.4030  -0.8360  -1.5383  -1.2995   0.00    0.0
2024/05/29 11:01:22.000   45.410463771   11.898881264    64.9598   5   8   2.9439   2.4736   5.4028  -0.8364  -1.5379  -1.3000   0.00    0.0
2024/05/29 11:01:23.000   45.410464233   11.898880098    65.6818   5   8   2.9441   2.4736   5.4027  -0.8367  -1.5375  -1.3005   0.00    0.0
2024/05/29 11:01:24.000   45.410465000   11.898881001    65.9942   5   8   2.9443   2.4737   5.4026  -0.8371  -1.5371  -1.3010   0.00    0.0
2024/05/29 11:01:25.000   45.410464805   11.898880752    66.3414   5   8   2.9444   2.4738   5.4025  -0.8374  -1.5368  -1.3015   0.00    0.0
2024/05/29 11:01:26.000   45.410465325   11.898879895    66.0543   5   8   2.9446   2.4738   5.4024  -0.8378  -1.5364  -1.3020   0.00    0.0
2024/05/29 11:01:27.000   45.410463195   11.898881920    66.2469   5   8   2.9448   2.4739   5.4023  -0.8381  -1.5360  -1.3024   0.00    0.0
2024/05/29 11:01:28.000   45.410462858   11.898881622    66.2374   5   8   2.9450   2.4740   5.4022  -0.8384  -1.5356  -1.3029   0.00    0.0
2024/05/29 11:01:29.000   45.410463491   11.898882243    66.4258   5   8   2.9452   2.4740   5.4021  -0.8388  -1.5352  -1.3034   0.00    0.0
2024/05/29 11:01:30.000   45.410464454   11.898880945    66.2837   5   8   2.9453   2.4741   5.4020  -0.8391  -1.5348  -1.3039   0.00    0.0
2024/05/29 11:01:31.000   45.410462374   11.898882981    66.0197   5   8   2.9455   2.4742   5.4019  -0.8395  -1.5344  -1.3044   0.00    0.0
2024/05/29 11:01:32.000   45.410462916   11.898881326    65.5078   5   8   2.9457   2.4742   5.4018  -0.8398  -1.5340  -1.3048   0.00    0.0
2024/05/29 11:01:33.000   45.410461259   11.898881578    65.3449   5   8   2.9459   2.4743   5.4017  -0.8401  -1.5336  -1.3053   0.00    0.0
2024/05/29 11:01:34.000   45.410462718   11.898881486    65.1834   5   8   2.9460   2.4744   5.4016  -0.8405  -1.5333  -1.3058   0.00    0.0
2024/05/29 11:01:35.000   45.410462046   11.898879514    65.3302   5   8   2.9462   2.4744   5.4015  -0.8408  -1.5329  -1.3063   0.00    0.0
2024/05/29 11:01:36.000   45.410462523   11.898877136    64.9418   5   8   2.9464   2.4745   5.4013  -0.8412  -1.5325  -1.3068   0.00    0.0
2024/05/29 11:01:37.000   45.410461261   11.898878149    65.1481   5   8   2.9466   2.4746   5.4012  -0.8415  -1.5321  -1.3073   0.00    0.0
2024/05/29 11:01:38.000   45.410462280   11.898877040    65.1436   5   8   2.9468   2.4746   5.4011  -0.8419  -1.5317  -1.3077   0.00    0.0
2024/05/29 11:01:39.000   45.410461313   11.898876563    65.1530   5   8   2.9469   2.4747   5.4010  -0.8422  -1.5313  -1.3082   0.00    0.0
2024/05/29 11:01:40.000   45.410460969   11.898877474    65.5544   5   8   2.9471   2.4748   5.4009  -0.8425  -1.5309  -1.3087   0.00    0.0
2024/05/29 11:01:41.000   45.410460873   11.898881462    65.5801   5   8   2.9473   2.4748   5.4008  -0.8429  -1.5305  -1.3092   0.00    0.0
2024/05/29 11:01:42.000   45.410460738   11.898883830    65.7840   5   8   2.9475   2.4749   5.4007  -0.8432  -1.5301  -1.3097   0.00    0.0
2024/05/29 11:01:43.000   45.410461235   11.898885112    66.2080   5   8   2.9477   2.4750   5.4006  -0.8436  -1.5297  -1.3101   0.00    0.0
2024/05/29 11:01:44.000   45.410461809   11.898887764    66.2880   5   8   2.9478   2.4750   5.4005  -0.8439  -1.5293  -1.3106   0.00    0.0
2024/05/29 11:01:45.000   45.410461121   11.898889941    66.6603   5   8   2.9480   2.4751   5.4004  -0.8442  -1.5290  -1.3111   0.00    0.0
2024/05/29 11:01:46.000   45.410458323   11.898889898    66.8033   5   8   2.9482   2.4752   5.4003  -0.8446  -1.5286  -1.3116   0.00    0.0
2024/05/29 11:01:47.000   45.410458335   11.898888674    66.6704   5   8   2.9484   2.4752   5.4002  -0.8449  -1.5282  -1.3121   0.00    0.0
2024/05/29 11:01:48.000   45.410459734   11.898886528    66.1238   5   8   2.9486   2.4753   5.4001  -0.8453  -1.5278  -1.3126   0.00    0.0
2024/05/29 11:01:49.000   45.410461869   11.898885426    66.0255   5   8   2.9487   2.4754   5.4000  -0.8456  -1.5274  -1.3130   0.00    0.0
2024/05/29 11:01:50.000   45.410461929   11.898882492    65.3494   5   8   2.9489   2.4754   5.3998  -0.8459  -1.5270  -1.3135   0.00    0.0
2024/05/29 11:01:51.000   45.410461638   11.898879424    64.6279   5   8   2.9491   2.4755   5.3997  -0.8463  -1.5266  -1.3140   0.00    0.0
2024/05/29 11:01:52.000   45.410461557   11.898874893    64.2176   5   8   2.9493   2.4756   5.3996  -0.8466  -1.5262  -1.3145   0.00    0.0
2024/05/29 11:01:53.000   45.410462043   11.898874718    63.5311   5   8   2.9495   2.4756   5.3995  -0.8470  -1.5258  -1.3150   0.00    0.0
2024/05/29 11:01:54.000   45.410461551   11.898877824    63.5051   5   8   2.9496   2.4757   5.3994  -0.8473  -1.5254  -1.3155   0.00    0.0
2024/05/29 11:01:55.000   45.410458741   11.898877903    63.4396   5   8   2.9498   2.4758   5.3993  -0.8477  -1.5250  -1.3159   0.00    0.0
2024/05/29 11:01:56.000   45.410458403   11.898879110    63.5102   5   8   2.9500   2.4759   5.3992  -0.8480  -1.5246  -1.3164   0.00    0.0
2024/05/29 11:01:57.000   45.410457475   11.898880077    64.0659   5   8   2.9502   2.4759   5.3991  -0.8483  -1.5243  -1.3169   0.00    0.0
2024/05/29 11:01:58.000   45.410458697   11.898884064    64.2250   5   8   2.9504   2.4760   5.3990  -0.8487  -1.5239  -1.3174   0.00    0.0
2024/05/29 11:01:59.000   45.410458310   11.898882872    64.7456   5   8   2.9505   2.4761   5.3989  -0.8490  -1.5235  -1.3179   0.00    0.0
2024/05/29 11:02:00.000   45.410456634   11.898885080    64.8933   5   8   2.9507   2.4761   5.3988  -0.8494  -1.5231  -1.3183   0.00    0.0
2024/05/29 11:02:01.000   45.410456034   11.898886929    65.1973   5   8   2.9509   2.4762   5.3987  -0.8497  -1.5227  -1.3188   0.00    0.0
2024/05/29 11:02:02.000   45.410456085   11.898889258    65.3263   5   8   2.9511   2.4763   5.3986  -0.8500  -1.5223  -1.3193   0.00    0.0
2024/05/29 11:02:03.000   45.410455704   11.898890872    65.5924   5   8   2.9513   2.4763   5.3985  -0.8504  -1.5219  -1.3198   0.00    0.0
2024/05/29 11:02:04.000   45.410452676   11.898892885    65.9441   5   8   2.9514   2.4764   5.3984  -0.8507  -1.5215  -1.3203   0.00    0.0
2024/05/29 11:02:05.000   45.410453773   11.898892449    65.6823   5   8   2.9516   2.4765   5.3983  -0.8510  -1.5211  -1.3208   0.00    0.0
2024/05/29 11:02:06.000   45.410455661   11.898889884    65.5262   5   8   2.9518   2.4765   5.3981  -0.8514  -1.5207  -1.3212   0.00    0.0
2024/05/29 11:02:07.000   45.410457371   11.898886899    65.2929   5   8   2.9520   2.4766   5.3980  -0.8517  -1.5203  -1.3217   0.00    0.0
2024/05/29 11:02:08.000   45.410459461   11.898885094    64.4418   5   8   2.9522   2.4767   5.3979  -0.8521  -1.5199  -1.3222   0.00    0.0
2024/05/29 11:02:09.000   45.410458033   11.898883207    64.0459   5   8   2.9523   2.4767   5.3978  -0.8524  -1.5195  -1.3227   0.00    0.0
2024/05/29 11:02:10.000   45.410458700   11.898880513    63.8174   5   8   2.9525   2.4768   5.3977  -0.8527  -1.5191  -1.3232   0.00    0.0
2024/05/29 11:02:11.000   45.410459343   11.898878474    63.9657   5   8   2.9527   2.4769   5.3976  -0.8531  -1.5187  -1.3236   0.00    0.0
2024/05/29 11:02:12.000   45.410459718   11.898880455    63.6893   5   8   2.9529   2.4769   5.3975  -0.8534  -1.5183  -1.3241   0.00    0.0
2024/05/29 11:02:13.000   45.410460183   11.898880840    63.8097   5   8   2.9531   2.4770   5.3974  -0.8538  -1.5179  -1.3246   0.00    0.0
2024/05/29 11:02:14.000   45.410459481   11.898881116    64.1268   5   8   2.9532   2.4771   5.3973  -0.8541  -1.5176  -1.3251   0.00    0.0
2024/05/29 11:02:15.000   45.410459222   11.898883260    64.5266   5   8   2.9534   2.4771   5.3972  -0.8544  -1.5172  -1.3256   0.00    0.0
2024/05/29 11:02:16.000   45.410460063   11.898884885    65.0719   5   8   2.9536   2.4772   5.3971  -0.8548  -1.5168  -1.3261   0.00    0.0
2024/05/29 11:02:17.000   45.410459874   11.898884340    65.1445   5   8   2.9538   2.4773   5.3970  -0.8551  -1.5164  -1.3265   0.00    0.0
2024/05/29 11:02:18.000   45.410458339   11.898884370    65.3132   5   8   2.9540   2.4774   5.3969  -0.8554  -1.5160  -1.3270   0.00    0.0
2024/05/29 11:02:19.000   45.410457663   11.898884322    65.2816   5   8   2.9541   2.4774   5.3968  -0.8558  -1.5156  -1.3275   0.00    0.0
2024/05/29 11:02:20.000   45.410456819   11.898887573    65.4159   5   8   2.9543   2.4775   5.3967  -0.8561  -1.5152  -1.3280   0.00    0.0
2024/05/29 11:02:21.000   45.410457287   11.898886786    65.7067   5   8   2.9545   2.4776   5.3966  -0.8565  -1.5148  -1.3285   0.00    0.0
2024/05/29 11:02:22.000   45.410457929   11.898886995    65.8498   5   8   2.9547   2.4776   5.3964  -0.8568  -1.5144  -1.3290   0.00    0.0
2024/05/29 11:02:23.000   45.410457781   11.898884040    65.4935   5   8   2.9549   2.4777   5.3963  -0.8571  -1.5140  -1.3294   0.00    0.0
2024/05/29 11:02:24.000   45.410457918   11.898881471    64.9007   5   8   2.9550   2.4778   5.3962  -0.8575  -1.5136  -1.3299   0.00    0.0
2024/05/29 11:02:25.000   45.410459410   11.898879257    64.3320   5   8   2.9552   2.4778   5.3961  -0.8578  -1.5132  -1.3304   0.00    0.0
2024/05/29 11:02:26.000   45.410459787   11.898879703    64.2807   5   8   2.9554   2.4779   5.3960  -0.8582  -1.5128  -1.3309   0.00    0.0
2024/05/29 11:02:27.000   45.410459605   11.898877446    64.1884   5   8   2.9556   2.4780   5.3959  -0.8585  -1.5124  -1.3314   0.00    0.0
2024/05/29 11:02:28.000   45.410458587   11.898877566    64.1583   5   8   2.9558   2.4780   5.3958  -0.8588  -1.5120  -1.3318   0.00    0.0
2024/05/29 11:02:29.000   45.410460001   11.898877192    63.7628   5   8   2.9560   2.4781   5.3957  -0.8592  -1.5116  -1.3323   0.00    0.0
2024/05/29 11:02:30.000   45.410459152   11.898879256    64.0730   5   8   2.9561   2.4782   5.3956  -0.8595  -1.5112  -1.3328   0.00    0.0
2024/05/29 11:02:31.000   45.410460066   11.898880297    64.2735   5   8   2.9563   2.4783   5.3955  -0.8598  -1.5108  -1.3333   0.00    0.0
2024/05/29 11:02:32.000   45.410459927   11.898881108    64.7626   5   8   2.9565   2.4783   5.3954  -0.8602  -1.5104  -1.3338   0.00    0.0
2024/05/29 11:02:33.000   45.410459381   11.898883735    64.9981   5   8   2.9567   2.4784   5.3953  -0.8605  -1.5100  -1.3343   0.00    0.0
2024/05/29 11:02:34.000   45.410459810   11.898886653    65.3481   5   8   2.9569   2.4785   5.3952  -0.8608  -1.5096  -1.3347   0.00    0.0
2024/05/29 11:02:35.000   45.410459269   11.898890925    65.3001   5   8   2.9570   2.4785   5.3951  -0.8612  -1.5092  -1.3352   0.00    0.0
2024/05/29 11:02:36.000   45.410458748   11.898891060    65.7385   5   8   2.9572   2.4786   5.3950  -0.8615  -1.5088  -1.3357   0.00    0.0
2024/05/29 11:02:37.000   45.410458489   11.898892542    65.5633   5   8   2.9574   2.4787   5.3949  -0.8619  -1.5084  -1.3362   0.00    0.0
2024/05/29 11:02:38.000   45.410457277   11.898893508    65.3912   5   8   2.9576   2.4787   5.3948  -0.8622  -1.5080  -1.3367   0.00    0.0
2024/05/29 11:02:39.000   45.410456831   11.898891438    65.4898   5   8   2.9578   2.4788   5.3947  -0.8625  -1.5076  -1.3371   0.00    0.0
2024/05/29 11:02:40.000   45.410458642   11.898888655    64.8438   5   8   2.9580   2.4789   5.3946  -0.8629  -1.5072  -1.3376   0.00    0.0
2024/05/29 11:02:41.000   45.410459045   11.898887329    64.6915   5   8   2.9581   2.4789   5.3944  -0.8632  -1.5068  -1.3381   0.00    0.0
2024/05/29 11:02:42.000   45.410458751   11.898884041    64.5718   5   8   2.9583   2.4790   5.3943  -0.8635  -1.5064  -1.3386   0.00    0.0
2024/05/29 11:02:43.000   45.410458686   11.898883634    64.4892   5   8   2.9585   2.4791   5.3942  -0.8639  -1.5060  -1.3391   0.00    0.0
2024/05/29 11:02:44.000   45.410458282   11.898884606    64.6363   5   8   2.9587   2.4792   5.3941  -0.8642  -1.5056  -1.3396   0.00    0.0
2024/05/29 11:02:45.000   45.410460234   11.898886160    65.0172   5   8   2.9589   2.4792   5.3940  -0.8645  -1.5052  -1.3400   0.00    0.0
2024/05/29 11:02:46.000   45.410461923   11.898885494    65.2049   5   8   2.9590   2.4793   5.3939  -0.8649  -1.5048  -1.3405   0.00    0.0
2024/05/29 11:02:47.000   45.410461472   11.898884154    65.7419   5   8   2.9592   2.4794   5.3938  -0.8652  -1.5044  -1.3410   0.00    0.0
2024/05/29 11:02:48.000   45.410462598   11.898885712    65.9119   5   8   2.9594   2.4794   5.3937  -0.8656  -1.5040  -1.3415   0.00    0.0
2024/05/29 11:02:49.000   45.410462355   11.898889546    66.2668   5   8   2.9596   2.4795   5.3936  -0.8659  -1.5036  -1.3420   0.00    0.0
2024/05/29 11:02:50.000   45.410461498   11.898889782    66.0343   5   8   2.9598   2.4796   5.3935  -0.8662  -1.5032  -1.3425   0.00    0.0
2024/05/29 11:02:51.000   45.410463056   11.898889822    65.9439   5   8   2.9600   2.4796   5.3934  -0.8666  -1.5028  -1.3429   0.00    0.0
2024/05/29 11:02:52.000   45.410463663   11.898889761    65.3952   5   8   2.9601   2.4797   5.3933  -0.8669  -1.5024  -1.3434   0.00    0.0
2024/05/29 11:02:53.000   45.410464106   11.898886794    65.6183   5   8   2.9603   2.4798   5.3932  -0.8672  -1.5020  -1.3439   0.00    0.0
2024/05/29 11:02:54.000   45.410465087   11.898887695    65.1421   5   8   2.9605   2.4799   5.3931  -0.8676  -1.5016  -1.3444   0.00    0.0
2024/05/29 11:02:55.000   45.410463576   11.898886903    65.4773   5   8   2.9607   2.4799   5.3930  -0.8679  -1.5012  -1.3449   0.00    0.0
2024/05/29 11:02:56.000   45.410464129   11.898883044    65.0208   5   8   2.9609   2.4800   5.3929  -0.8682  -1.5008  -1.3453   0.00    0.0
2024/05/29 11:02:57.000   45.410464201   11.898880886    65.0172   5   8   2.9611   2.4801   5.3928  -0.8686  -1.5004  -1.3458   0.00    0.0
2024/05/29 11:02:58.000   45.410462768   11.898880838    65.2549   5   8   2.9612   2.4801   5.3927  -0.8689  -1.5000  -1.3463   0.00    0.0
2024/05/29 11:02:59.000   45.410464303   11.898881587    65.2756   5   8   2.9614   2.4802   5.3926  -0.8692  -1.4996  -1.3468   0.00    0.0
2024/05/29 11:03:00.000   45.410465391   11.898881578    65.0047   5   8   2.9616   2.4803   5.3925  -0.8696  -1.4992  -1.3473   0.00    0.0
2024/05/29 11:03:01.000   45.410465272   11.898879297    64.9634   5   8   2.9618   2.4803   5.3923  -0.8699  -1.4988  -1.3478   0.00    0.0
2024/05/29 11:03:02.000   45.410464183   11.898875759    65.3701   5   8   2.9620   2.4804   5.3922  -0.8702  -1.4984  -1.3482   0.00    0.0
2024/05/29 11:03:03.000   45.410465495   11.898874391    65.1652   5   8   2.9622   2.4805   5.3921  -0.8706  -1.4980  -1.3487   0.00    0.0
2024/05/29 11:03:04.000   45.410465796   11.898874651    65.1943   5   8   2.9623   2.4806   5.3920  -0.8709  -1.4976  -1.3492   0.00    0.0
2024/05/29 11:03:05.000   45.410465904   11.898874441    65.1403   5   8   2.9625   2.4806   5.3919  -0.8712  -1.4972  -1.3497   0.00    0.0
2024/05/29 11:03:06.000   45.410462494   11.898876624    65.4432   5   8   2.9627   2.4807   5.3918  -0.8716  -1.4968  -1.3502   0.00    0.0
2024/05/29 11:03:07.000   45.410460933   11.898878778    65.9697   5   8   2.9629   2.4808   5.3917  -0.8719  -1.4964  -1.3506   0.00    0.0
2024/05/29 11:03:08.000   45.410460684   11.898878870    65.8908   5   8   2.9631   2.4808   5.3916  -0.8722  -1.4960  -1.3511   0.00    0.0
2024/05/29 11:03:09.000   45.410461739   11.898878854    65.8303   5   8   2.9633   2.4809   5.3915  -0.8726  -1.4956  -1.3516   0.00    0.0
2024/05/29 11:03:10.000   45.410460148   11.898879076    65.7432   5   8   2.9634   2.4810   5.3914  -0.8729  -1.4952  -1.3521   0.00    0.0
2024/05/29 11:03:11.000   45.410461489   11.898878611    65.4248   5   8   2.9636   2.4811   5.3913  -0.8732  -1.4948  -1.3526   0.00    0.0
2024/05/29 11:03:12.000   45.410461410   11.898881687    64.6657   5   8   2.9638   2.4811   5.3912  -0.8736  -1.4944  -1.3531   0.00    0.0
2024/05/29 11:03:13.000   45.410462072   11.898881135    64.8110   5   8   2.9640   2.4812   5.3911  -0.8739  -1.4940  -1.3535   0.00    0.0
2024/05/29 11:03:14.000   45.410461795   11.898878172    64.0858   5   8   2.9642   2.4813   5.3910  -0.8742  -1.4936  -1.3540   0.00    0.0
2024/05/29 11:03:15.000   45.410460807   11.898874104    63.9898   5   8   2.9644   2.4813   5.3909  -0.8746  -1.4931  -1.3545   0.00    0.0
2024/05/29 11:03:16.000   45.410459447   11.898873181    64.0323   5   8   2.9645   2.4814   5.3908  -0.8749  -1.4927  -1.3550   0.00    0.0
2024/05/29 11:03:17.000   45.410459400   11.898875208    64.3543   5   8   2.9647   2.4815   5.3907  -0.8752  -1.4923  -1.3555   0.00    0.0
2024/05/29 11:03:18.000   45.410460084   11.898875780    64.6142   5   8   2.9649   2.4815   5.3906  -0.8756  -1.4919  -1.3560   0.00    0.0
2024/05/29 11:03:19.000   45.410459914   11.898876315    64.6865   5   8   2.9651   2.4816   5.3905  -0.8759  -1.4915  -1.3564   0.00    0.0
2024/05/29 11:03:20.000   45.410458287   11.898877504    65.3620   5   8   2.9653   2.4817   5.3904  -0.8762  -1.4911  -1.3569   0.00    0.0
2024/05/29 11:03:21.000   45.410457870   11.898879900    65.5622   5   8   2.9655   2.4818   5.3903  -0.8766  -1.4907  -1.3574   0.00    0.0
2024/05/29 11:03:22.000   45.410457658   11.898879579    66.0003   5   8   2.9656   2.4818   5.3902  -0.8769  -1.4903  -1.3579   0.00    0.0
2024/05/29 11:03:23.000   45.410459468   11.898878940    66.1256   5   8   2.9658   2.4819   5.3901  -0.8772  -1.4899  -1.3584   0.00    0.0
2024/05/29 11:03:24.000   45.410459130   11.898878246    66.4457   5   8   2.9660   2.4820   5.3900  -0.8776  -1.4895  -1.3588   0.00    0.0
2024/05/29 11:03:25.000   45.410461134   11.898876711    66.6730   5   8   2.9662   2.4820   5.3899  -0.8779  -1.4891  -1.3593   0.00    0.0
2024/05/29 11:03:26.000   45.410460917   11.898877000    66.4860   5   8   2.9664   2.4821   5.3897  -0.8782  -1.4887  -1.3598   0.00    0.0
2024/05/29 11:03:27.000   45.410460267   11.898876593    66.3399   5   8   2.9666   2.4822   5.3896  -0.8786  -1.4883  -1.3603   0.00    0.0
2024/05/29 11:03:28.000   45.410460507   11.898875368    65.9740   5   8   2.9668   2.4823   5.3895  -0.8789  -1.4879  -1.3608   0.00    0.0
2024/05/29 11:03:29.000   45.410460695   11.898876766    65.7532   5   8   2.9669   2.4823   5.3894  -0.8792  -1.4875  -1.3613   0.00    0.0
2024/05/29 11:03:30.000   45.410461305   11.898877323    65.7814   5   8   2.9671   2.4824   5.3893  -0.8796  -1.4871  -1.3617   0.00    0.0
2024/05/29 11:03:31.000   45.410460085   11.898875640    66.0025   5   8   2.9673   2.4825   5.3892  -0.8799  -1.4867  -1.3622   0.00    0.0
2024/05/29 11:03:32.000   45.410459506   11.898875467    66.0815   5   8   2.9675   2.4825   5.3891  -0.8802  -1.4862  -1.3627   0.00    0.0
2024/05/29 11:03:33.000   45.410459370   11.898876380    66.0196   5   8   2.9677   2.4826   5.3890  -0.8806  -1.4858  -1.3632   0.00    0.0
2024/05/29 11:03:34.000   45.410461455   11.898876880    65.7792   5   8   2.9679   2.4827   5.3889  -0.8809  -1.4854  -1.3637   0.00    0.0
2024/05/29 11:03:35.000   45.410461919   11.898877958    65.7234   5   8   2.9680   2.4828   5.3888  -0.8812  -1.4850  -1.3641   0.00    0.0
2024/05/29 11:03:36.000   45.410462003   11.898880172    65.7234   5   8   2.9682   2.4828   5.3887  -0.8816  -1.4846  -1.3646   0.00    0.0
2024/05/29 11:03:37.000   45.410461928   11.898881608    65.8438   5   8   2.9684   2.4829   5.3886  -0.8819  -1.4842  -1.3651   0.00    0.0
2024/05/29 11:03:38.000   45.410461086   11.898881642    66.3608   5   8   2.9686   2.4830   5.3885  -0.8822  -1.4838  -1.3656   0.00    0.0
2024/05/29 11:03:39.000   45.410459458   11.898883797    66.4050   5   8   2.9688   2.4830   5.3884  -0.8826  -1.4834  -1.3661   0.00    0.0
2024/05/29 11:03:40.000   45.410461526   11.898883926    66.5226   5   8   2.9690   2.4831   5.3883  -0.8829  -1.4830  -1.3666   0.00    0.0
2024/05/29 11:03:41.000   45.410459441   11.898883875    66.5399   5   8   2.9692   2.4832   5.3882  -0.8832  -1.4826  -1.3670   0.00    0.0
2024/05/29 11:03:42.000   45.410458302   11.898882543    66.5185   5   8   2.9693   2.4833   5.3881  -0.8836  -1.4822  -1.3675   0.00    0.0
2024/05/29 11:03:43.000   45.410458099   11.898881975    66.3549   5   8   2.9695   2.4833   5.3880  -0.8839  -1.4818  -1.3680   0.00    0.0
2024/05/29 11:03:44.000   45.410458427   11.898879684    66.5501   5   8   2.9697   2.4834   5.3879  -0.8842  -1.4813  -1.3685   0.00    0.0
2024/05/29 11:03:45.000   45.410458452   11.898877810    66.1514   5   8   2.9699   2.4835   5.3878  -0.8845  -1.4809  -1.3690   0.00    0.0
2024/05/29 11:03:46.000   45.410457892   11.898876685    65.9060   5   8   2.9701   2.4835   5.3877  -0.8849  -1.4805  -1.3694   0.00    0.0
2024/05/29 11:03:47.000   45.410456254   11.898875967    65.5172   5   8   2.9703   2.4836   5.3876  -0.8852  -1.4801  -1.3699   0.00    0.0
2024/05/29 11:03:48.000   45.410457239   11.898875814    65.1666   5   8   2.9705   2.4837   5.3875  -0.8855  -1.4797  -1.3704   0.00    0.0
2024/05/29 11:03:49.000   45.410457925   11.898877425    65.1498   5   8   2.9706   2.4838   5.3874  -0.8859  -1.4793  -1.3709   0.00    0.0
2024/05/29 11:03:50.000   45.410457193   11.898878599    65.2082   5   8   2.9708   2.4838   5.3873  -0.8862  -1.4789  -1.3714   0.00    0.0
2024/05/29 11:03:51.000   45.410456257   11.898878480    65.3926   5   8   2.9710   2.4839   5.3872  -0.8865  -1.4785  -1.3719   0.00    0.0
2024/05/29 11:03:52.000   45.410455738   11.898880070    65.2932   5   8   2.9712   2.4840   5.3871  -0.8869  -1.4781  -1.3723   0.00    0.0
2024/05/29 11:03:53.000   45.410454821   11.898879777    65.8806   5   8   2.9714   2.4841   5.3870  -0.8872  -1.4777  -1.3728   0.00    0.0
2024/05/29 11:03:54.000   45.410454102   11.898883236    65.9492   5   8   2.9716   2.4841   5.3869  -0.8875  -1.4772  -1.3733   0.00    0.0
2024/05/29 11:03:55.000   45.410453879   11.898885733    66.1279   5   8   2.9718   2.4842   5.3868  -0.8879  -1.4768  -1.3738   0.00    0.0
2024/05/29 11:03:56.000   45.410455444   11.898887326    66.1767   5   8   2.9719   2.4843   5.3867  -0.8882  -1.4764  -1.3743   0.00    0.0
2024/05/29 11:03:57.000   45.410458630   11.898889690    65.7082   5   8   2.9721   2.4843   5.3866  -0.8885  -1.4760  -1.3747   0.00    0.0
2024/05/29 11:03:58.000   45.410460190   11.898890523    65.3544   5   8   2.9723   2.4844   5.3865  -0.8888  -1.4756  -1.3752   0.00    0.0
2024/05/29 11:03:59.000   45.410461674   11.898888006    65.3835   5   8   2.9725   2.4845   5.3863  -0.8892  -1.4752  -1.3757   0.00    0.0
2024/05/29 11:04:00.000   45.410462169   11.898888379    65.2914   5   8   2.9727   2.4846   5.3862  -0.8895  -1.4748  -1.3762   0.00    0.0
2024/05/29 11:04:01.000   45.410462416   11.898884128    65.4085   5   8   2.9729   2.4846   5.3861  -0.8898  -1.4744  -1.3767   0.00    0.0
2024/05/29 11:04:02.000   45.410462716   11.898881653    65.0927   5   8   2.9731   2.4847   5.3860  -0.8902  -1.4739  -1.3772   0.00    0.0
2024/05/29 11:04:03.000   45.410463928   11.898882174    64.4691   5   8   2.9732   2.4848   5.3859  -0.8905  -1.4735  -1.3776   0.00    0.0
2024/05/29 11:04:04.000   45.410465181   11.898881030    64.1645   5   8   2.9734   2.4849   5.3858  -0.8908  -1.4731  -1.3781   0.00    0.0
2024/05/29 11:04:05.000   45.410467775   11.898880079    64.0099   5   8   2.9736   2.4849   5.3857  -0.8911  -1.4727  -1.3786   0.00    0.0
2024/05/29 11:04:06.000   45.410467417   11.898877424    63.4881   5   8   2.9738   2.4850   5.3856  -0.8915  -1.4723  -1.3791   0.00    0.0
2024/05/29 11:04:07.000   45.410468338   11.898877141    64.2732   5   8   2.9740   2.4851   5.3855  -0.8918  -1.4719  -1.3796   0.00    0.0
2024/05/29 11:04:08.000   45.410469126   11.898877272    64.5085   5   8   2.9742   2.4851   5.3854  -0.8921  -1.4715  -1.3800   0.00    0.0
2024/05/29 11:04:09.000   45.410469390   11.898875991    64.9760   5   8   2.9744   2.4852   5.3853  -0.8925  -1.4711  -1.3805   0.00    0.0
2024/05/29 11:04:10.000   45.410467101   11.898877459    65.1708   5   8   2.9746   2.4853   5.3852  -0.8928  -1.4706  -1.3810   0.00    0.0
2024/05/29 11:04:11.000   45.410467504   11.898878642    65.3859   5   8   2.9747   2.4854   5.3851  -0.8931  -1.4702  -1.3815   0.00    0.0
2024/05/29 11:04:12.000   45.410468474   11.898879075    65.5507   5   8   2.9749   2.4854   5.3850  -0.8935  -1.4698  -1.3820   0.00    0.0
2024/05/29 11:04:13.000   45.410468772   11.898879088    65.0872   5   8   2.9751   2.4855   5.3849  -0.8938  -1.4694  -1.3824   0.00    0.0
2024/05/29 11:04:14.000   45.410467935   11.898882535    64.5708   5   8   2.9753   2.4856   5.3848  -0.8941  -1.4690  -1.3829   0.00    0.0
2024/05/29 11:04:15.000   45.410466045   11.898882814    64.5478   5   8   2.9755   2.4857   5.3847  -0.8944  -1.4686  -1.3834   0.00    0.0
2024/05/29 11:04:16.000   45.410466926   11.898882708    64.2753   5   8   2.9757   2.4857   5.3846  -0.8948  -1.4682  -1.3839   0.00    0.0
2024/05/29 11:04:17.000   45.410468729   11.898884321    63.9792   5   8   2.9759   2.4858   5.3845  -0.8951  -1.4677  -1.3844   0.00    0.0
2024/05/29 11:04:18.000   45.410467700   11.898884628    63.8474   5   8   2.9760   2.4859   5.3844  -0.8954  -1.4673  -1.3849   0.00    0.0
2024/05/29 11:04:19.000   45.410466753   11.898883880    64.0467   5   8   2.9762   2.4859   5.3843  -0.8958  -1.4669  -1.3853   0.00    0.0
2024/05/29 11:04:20.000   45.410466350   11.898881214    63.9776   5   8   2.9764   2.4860   5.3842  -0.8961  -1.4665  -1.3858   0.00    0.0
2024/05/29 11:04:21.000   45.410465856   11.898884350    63.9054   5   8   2.9766   2.4861   5.3841  -0.8964  -1.4661  -1.3863   0.00    0.0
2024/05/29 11:04:22.000   45.410467202   11.898887190    63.9526   5   8   2.9768   2.4862   5.3840  -0.8967  -1.4657  -1.3868   0.00    0.0
2024/05/29 11:04:23.000   45.410466444   11.898885000    64.5918   5   8   2.9770   2.4862   5.3839  -0.8971  -1.4653  -1.3873   0.00    0.0
2024/05/29 11:04:24.000   45.410465679   11.898883979    64.8744   5   8   2.9772   2.4863   5.3838  -0.8974  -1.4648  -1.3877   0.00    0.0
2024/05/29 11:04:25.000   45.410464635   11.898884841    64.9341   5   8   2.9774   2.4864   5.3837  -0.8977  -1.4644  -1.3882   0.00    0.0
2024/05/29 11:04:26.000   45.410465488   11.898883686    64.7412   5   8   2.9775   2.4865   5.3836  -0.8981  -1.4640  -1.3887   0.00    0.0
2024/05/29 11:04:27.000   45.410463744   11.898883949    65.1278   5   8   2.9777   2.4865   5.3835  -0.8984  -1.4636  -1.3892   0.00    0.0
2024/05/29 11:04:28.000   45.410462538   11.898884365    64.9117   5   8   2.9779   2.4866   5.3834  -0.8987  -1.4632  -1.3897   0.00    0.0
2024/05/29 11:04:29.000   45.410462572   11.898885505    65.0639   5   8   2.9781   2.4867   5.3833  -0.8990  -1.4628  -1.3901   0.00    0.0
2024/05/29 11:04:30.000   45.410461418   11.898883907    65.0472   5   8   2.9783   2.4868   5.3832  -0.8994  -1.4623  -1.3906   0.00    0.0
2024/05/29 11:04:31.000   45.410460727   11.898884369    64.6226   5   8   2.9785   2.4868   5.3831  -0.8997  -1.4619  -1.3911   0.00    0.0
2024/05/29 11:04:32.000   45.410459911   11.898882883    64.9572   5   8   2.9787   2.4869   5.3830  -0.9000  -1.4615  -1.3916   0.00    0.0
2024/05/29 11:04:33.000   45.410459066   11.898880571    64.8223   5   8   2.9789   2.4870   5.3829  -0.9003  -1.4611  -1.3921   0.00    0.0
2024/05/29 11:04:34.000   45.410460671   11.898879129    64.9502   5   8   2.9790   2.4871   5.3828  -0.9007  -1.4607  -1.3926   0.00    0.0
2024/05/29 11:04:35.000   45.410462810   11.898877802    65.0058   5   8   2.9792   2.4871   5.3827  -0.9010  -1.4603  -1.3930   0.00    0.0
2024/05/29 11:04:36.000   45.410461654   11.898878641    64.7931   5   8   2.9794   2.4872   5.3826  -0.9013  -1.4598  -1.3935   0.00    0.0
2024/05/29 11:04:37.000   45.410463832   11.898877442    64.6916   5   8   2.9796   2.4873   5.3825  -0.9017  -1.4594  -1.3940   0.00    0.0
2024/05/29 11:04:38.000   45.410463847   11.898878301    63.9353   5   8   2.9798   2.4873   5.3824  -0.9020  -1.4590  -1.3945   0.00    0.0
2024/05/29 11:04:39.000   45.410464583   11.898877730    64.5205   5   8   2.9800   2.4874   5.3823  -0.9023  -1.4586  -1.3950   0.00    0.0
2024/05/29 11:04:40.000   45.410462643   11.898878168    64.7095   5   8   2.9802   2.4875   5.3822  -0.9026  -1.4582  -1.3954   0.00    0.0
2024/05/29 11:04:41.000   45.410462936   11.898881125    64.7242   5   8   2.9804   2.4876   5.3821  -0.9030  -1.4577  -1.3959   0.00    0.0
2024/05/29 11:04:42.000   45.410463290   11.898882057    64.7537   5   8   2.9806   2.4876   5.3820  -0.9033  -1.4573  -1.3964   0.00    0.0
2024/05/29 11:04:43.000   45.410462601   11.898882259    65.2974   5   8   2.9807   2.4877   5.3819  -0.9036  -1.4569  -1.3969   0.00    0.0
2024/05/29 11:04:44.000   45.410461235   11.898884360    65.6863   5   8   2.9809   2.4878   5.3818  -0.9039  -1.4565  -1.3974   0.00    0.0
2024/05/29 11:04:45.000   45.410459327   11.898883802    65.7567   5   8   2.9811   2.4879   5.3817  -0.9043  -1.4561  -1.3978   0.00    0.0
2024/05/29 11:04:46.000   45.410457529   11.898885256    65.6016   5   8   2.9813   2.4879   5.3816  -0.9046  -1.4557  -1.3983   0.00    0.0
2024/05/29 11:04:47.000   45.410459592   11.898883455    65.6893   5   8   2.9815   2.4880   5.3815  -0.9049  -1.4552  -1.3988   0.00    0.0
2024/05/29 11:04:48.000   45.410460048   11.898880562    65.2679   5   8   2.9817   2.4881   5.3814  -0.9053  -1.4548  -1.3993   0.00    0.0
2024/05/29 11:04:49.000   45.410460608   11.898880576    65.6075   5   8   2.9819   2.4882   5.3813  -0.9056  -1.4544  -1.3998   0.00    0.0
2024/05/29 11:04:50.000   45.410459146   11.898877140    65.6401   5   8   2.9821   2.4882   5.3812  -0.9059  -1.4540  -1.4002   0.00    0.0
2024/05/29 11:04:51.000   45.410458196   11.898876290    65.2418   5   8   2.9823   2.4883   5.3811  -0.9062  -1.4536  -1.4007   0.00    0.0
2024/05/29 11:04:52.000   45.410457135   11.898874349    65.5667   5   8   2.9824   2.4884   5.3810  -0.9066  -1.4531  -1.4012   0.00    0.0
2024/05/29 11:04:53.000   45.410455937   11.898875226    65.0837   5   8   2.9826   2.4885   5.3809  -0.9069  -1.4527  -1.4017   0.00    0.0
2024/05/29 11:04:54.000   45.410455664   11.898870321    65.9374   5   8   2.9828   2.4885   5.3808  -0.9072  -1.4523  -1.4022   0.00    0.0
2024/05/29 11:04:55.000   45.410453135   11.898871125    66.3203   5   8   2.9830   2.4886   5.3807  -0.9075  -1.4519  -1.4027   0.00    0.0
2024/05/29 11:04:56.000   45.410454011   11.898873736    65.8853   5   8   2.9832   2.4887   5.3806  -0.9079  -1.4514  -1.4031   0.00    0.0
2024/05/29 11:04:57.000   45.410455782   11.898873106    65.7773   5   8   2.9834   2.4888   5.3805  -0.9082  -1.4510  -1.4036   0.00    0.0
2024/05/29 11:04:58.000   45.410456504   11.898875024    65.5478   5   8   2.9836   2.4888   5.3804  -0.9085  -1.4506  -1.4041   0.00    0.0
2024/05/29 11:04:59.000   45.410455819   11.898874028    65.7721   5   8   2.9838   2.4889   5.3803  -0.9088  -1.4502  -1.4046   0.00    0.0
2024/05/29 11:05:00.000   45.410453870   11.898875287    65.6529   5   8   2.9840   2.4890   5.3802  -0.9092  -1.4498  -1.4051   0.00    0.0
2024/05/29 11:05:01.000   45.410455617   11.898876330    65.4163   5   8   2.9841   2.4891   5.3801  -0.9095  -1.4493  -1.4055   0.00    0.0
2024/05/29 11:05:02.000   45.410458275   11.898880005    65.3396   5   8   2.9843   2.4891   5.3800  -0.9098  -1.4489  -1.4060   0.00    0.0
2024/05/29 11:05:03.000   45.410457950   11.898879070    65.7896   5   8   2.9845   2.4892   5.3799  -0.9101  -1.4485  -1.4065   0.00    0.0
2024/05/29 11:05:04.000   45.410458703   11.898880032    65.6512   5   8   2.9847   2.4893   5.3798  -0.9105  -1.4481  -1.4070   0.00    0.0
2024/05/29 11:05:05.000   45.410459672   11.898882411    65.6607   5   8   2.9849   2.4894   5.3797  -0.9108  -1.4476  -1.4075   0.00    0.0
2024/05/29 11:05:06.000   45.410458923   11.898883406    65.4871   5   8   2.9851   2.4894   5.3796  -0.9111  -1.4472  -1.4079   0.00    0.0
2024/05/29 11:05:07.000   45.410458582   11.898882908    65.7645   5   8   2.9853   2.4895   5.3795  -0.9114  -1.4468  -1.4084   0.00    0.0
2024/05/29 11:05:08.000   45.410458474   11.898882585    65.4459   5   8   2.9855   2.4896   5.3794  -0.9118  -1.4464  -1.4089   0.00    0.0
2024/05/29 11:05:09.000   45.410457975   11.898881088    65.8784   5   8   2.9857   2.4897   5.3793  -0.9121  -1.4460  -1.4094   0.00    0.0
2024/05/29 11:05:10.000   45.410458569   11.898880644    65.6114   5   8   2.9858   2.4897   5.3792  -0.9124  -1.4455  -1.4099   0.00    0.0
2024/05/29 11:05:11.000   45.410458311   11.898882030    65.5112   5   8   2.9860   2.4898   5.3791  -0.9127  -1.4451  -1.4103   0.00    0.0
2024/05/29 11:05:12.000   45.410456480   11.898878855    65.8366   5   8   2.9862   2.4899   5.3790  -0.9131  -1.4447  -1.4108   0.00    0.0
2024/05/29 11:05:13.000   45.410458337   11.898881951    65.1474   5   8   2.9864   2.4900   5.3789  -0.9134  -1.4443  -1.4113   0.00    0.0
2024/05/29 11:05:14.000   45.410458847   11.898885220    65.0359   5   8   2.9866   2.4900   5.3788  -0.9137  -1.4438  -1.4118   0.00    0.0
2024/05/29 11:05:15.000   45.410459500   11.898886522    65.2545   5   8   2.9868   2.4901   5.3787  -0.9140  -1.4434  -1.4123   0.00    0.0
2024/05/29 11:05:16.000   45.410460224   11.898888683    65.2355   5   8   2.9870   2.4902   5.3786  -0.9144  -1.4430  -1.4127   0.00    0.0
2024/05/29 11:05:17.000   45.410462044   11.898888443    65.0301   5   8   2.9872   2.4903   5.3785  -0.9147  -1.4426  -1.4132   0.00    0.0
2024/05/29 11:05:18.000   45.410461196   11.898892323    64.9670   5   8   2.9874   2.4903   5.3784  -0.9150  -1.4421  -1.4137   0.00    0.0
2024/05/29 11:05:19.000   45.410459501   11.898891853    64.8748   5   8   2.9876   2.4904   5.3783  -0.9153  -1.4417  -1.4142   0.00    0.0
2024/05/29 11:05:20.000   45.410459844   11.898889429    65.2933   5   8   2.9877   2.4905   5.3782  -0.9157  -1.4413  -1.4147   0.00    0.0
2024/05/29 11:05:21.000   45.410457914   11.898889058    65.6419   5   8   2.9879   2.4906   5.3781  -0.9160  -1.4409  -1.4151   0.00    0.0
2024/05/29 11:05:22.000   45.410457649   11.898890010    65.3911   5   8   2.9881   2.4906   5.3780  -0.9163  -1.4404  -1.4156   0.00    0.0
2024/05/29 11:05:23.000   45.410458131   11.898889750    65.2834   5   8   2.9883   2.4907   5.3779  -0.9166  -1.4400  -1.4161   0.00    0.0
2024/05/29 11:05:24.000   45.410458338   11.898890850    65.0586   5   8   2.9885   2.4908   5.3778  -0.9170  -1.4396  -1.4166   0.00    0.0
2024/05/29 11:05:25.000   45.410458072   11.898891106    64.8855   5   8   2.9887   2.4909   5.3777  -0.9173  -1.4392  -1.4171   0.00    0.0
2024/05/29 11:05:26.000   45.410460170   11.898893080    64.7940   5   8   2.9889   2.4909   5.3776  -0.9176  -1.4387  -1.4175   0.00    0.0
2024/05/29 11:05:27.000   45.410460227   11.898892261    65.3031   5   8   2.9891   2.4910   5.3775  -0.9179  -1.4383  -1.4180   0.00    0.0
2024/05/29 11:05:28.000   45.410459240   11.898891183    65.5063   5   8   2.9893   2.4911   5.3774  -0.9183  -1.4379  -1.4185   0.00    0.0
2024/05/29 11:05:29.000   45.410459492   11.898891637    65.2583   5   8   2.9895   2.4912   5.3773  -0.9186  -1.4375  -1.4190   0.00    0.0
2024/05/29 11:05:30.000   45.410458504   11.898889389    65.2201   5   8   2.9897   2.4912   5.3772  -0.9189  -1.4370  -1.4195   0.00    0.0
2024/05/29 11:05:31.000   45.410459561   11.898887678    65.3014   5   8   2.9898   2.4913   5.3771  -0.9192  -1.4366  -1.4199   0.00    0.0
2024/05/29 11:05:32.000   45.410461362   11.898888174    64.7912   5   8   2.9900   2.4914   5.3770  -0.9196  -1.4362  -1.4204   0.00    0.0
2024/05/29 11:05:33.000   45.410460566   11.898887767    64.8210   5   8   2.9902   2.4915   5.3769  -0.9199  -1.4357  -1.4209   0.00    0.0
2024/05/29 11:05:34.000   45.410460045   11.898885058    65.0223   5   8   2.9904   2.4915   5.3768  -0.9202  -1.4353  -1.4214   0.00    0.0
2024/05/29 11:05:35.000   45.410462038   11.898886238    64.8439   5   8   2.9906   2.4916   5.3767  -0.9205  -1.4349  -1.4219   0.00    0.0
2024/05/29 11:05:36.000   45.410461699   11.898885536    64.6993   5   8   2.9908   2.4917   5.3766  -0.9208  -1.4345  -1.4223   0.00    0.0
2024/05/29 11:05:37.000   45.410462521   11.898885048    64.4876   5   8   2.9910   2.4918   5.3765  -0.9212  -1.4340  -1.4228   0.00    0.0
2024/05/29 11:05:38.000   45.410462067   11.898885606    64.0193   5   8   2.9912   2.4919   5.3764  -0.9215  -1.4336  -1.4233   0.00    0.0
2024/05/29 11:05:39.000   45.410462188   11.898884436    64.6105   5   8   2.9914   2.4919   5.3763  -0.9218  -1.4332  -1.4238   0.00    0.0
2024/05/29 11:05:40.000   45.410459775   11.898884786    64.5422   5   8   2.9916   2.4920   5.3762  -0.9221  -1.4327  -1.4243   0.00    0.0
2024/05/29 11:05:41.000   45.410460052   11.898886171    64.3765   5   8   2.9918   2.4921   5.3761  -0.9225  -1.4323  -1.4247   0.00    0.0
2024/05/29 11:05:42.000   45.410458243   11.898885974    64.6296   5   8   2.9919   2.4922   5.3760  -0.9228  -1.4319  -1.4252   0.00    0.0
2024/05/29 11:05:43.000   45.410459285   11.898888804    64.7923   5   8   2.9921   2.4922   5.3759  -0.9231  -1.4315  -1.4257   0.00    0.0
2024/05/29 11:05:44.000   45.410458326   11.898886578    64.9700   5   8   2.9923   2.4923   5.3758  -0.9234  -1.4310  -1.4262   0.00    0.0
2024/05/29 11:05:45.000   45.410458945   11.898885144    65.2685   5   8   2.9925   2.4924   5.3757  -0.9238  -1.4306  -1.4267   0.00    0.0
2024/05/29 11:05:46.000   45.410459974   11.898882113    65.4877   5   8   2.9927   2.4925   5.3756  -0.9241  -1.4302  -1.4271   0.00    0.0
2024/05/29 11:05:47.000   45.410459985   11.898880804    65.4314   5   8   2.9929   2.4925   5.3755  -0.9244  -1.4297  -1.4276   0.00    0.0
2024/05/29 11:05:48.000   45.410460935   11.898879386    64.8093   5   8   2.9931   2.4926   5.3754  -0.9247  -1.4293  -1.4281   0.00    0.0
2024/05/29 11:05:49.000   45.410460832   11.898877221    64.7495   5   8   2.9933   2.4927   5.3753  -0.9250  -1.4289  -1.4286   0.00    0.0
2024/05/29 11:05:50.000   45.410461630   11.898877604    64.5959   5   8   2.9935   2.4928   5.3752  -0.9254  -1.4284  -1.4291   0.00    0.0
2024/05/29 11:05:51.000   45.410461406   11.898880012    64.6873   5   8   2.9937   2.4928   5.3751  -0.9257  -1.4280  -1.4295   0.00    0.0
2024/05/29 11:05:52.000   45.410461920   11.898881219    64.9235   5   8   2.9939   2.4929   5.3750  -0.9260  -1.4276  -1.4300   0.00    0.0
2024/05/29 11:05:53.000   45.410463066   11.898881404    65.0805   5   8   2.9941   2.4930   5.3749  -0.9263  -1.4272  -1.4305   0.00    0.0
2024/05/29 11:05:54.000   45.410463823   11.898884207    64.8584   5   8   2.9942   2.4931   5.3748  -0.9267  -1.4267  -1.4310   0.00    0.0
2024/05/29 11:05:55.000   45.410463174   11.898887728    65.2669   5   8   2.9944   2.4932   5.3747  -0.9270  -1.4263  -1.4315   0.00    0.0
2024/05/29 11:05:56.000   45.410462025   11.898885940    65.4419   5   8   2.9946   2.4932   5.3746  -0.9273  -1.4259  -1.4319   0.00    0.0
2024/05/29 11:05:57.000   45.410458792   11.898885604    65.6153   5   8   2.9948   2.4933   5.3745  -0.9276  -1.4254  -1.4324   0.00    0.0
2024/05/29 11:05:58.000   45.410458943   11.898887263    65.4626   5   8   2.9950   2.4934   5.3744  -0.9279  -1.4250  -1.4329   0.00    0.0
2024/05/29 11:05:59.000   45.410459540   11.898887877    65.5017   5   8   2.9952   2.4935   5.3743  -0.9283  -1.4246  -1.4334   0.00    0.0
2024/05/29 11:06:00.000   45.410461402   11.898889273    65.4230   5   8   2.9954   2.4935   5.3742  -0.9286  -1.4241  -1.4338   0.00    0.0
2024/05/29 11:06:01.000   45.410463297   11.898892075    64.7191   5   8   2.9956   2.4936   5.3741  -0.9289  -1.4237  -1.4343   0.00    0.0
2024/05/29 11:06:02.000   45.410462813   11.898888604    64.8070   5   8   2.9958   2.4937   5.3740  -0.9292  -1.4233  -1.4348   0.00    0.0
2024/05/29 11:06:03.000   45.410464908   11.898887360    64.8446   5   8   2.9960   2.4938   5.3739  -0.9295  -1.4228  -1.4353   0.00    0.0
2024/05/29 11:06:04.000   45.410466480   11.898890967    64.3837   5   8   2.9962   2.4938   5.3738  -0.9299  -1.4224  -1.4358   0.00    0.0
2024/05/29 11:06:05.000   45.410463762   11.898890498    64.3600   5   8   2.9964   2.4939   5.3737  -0.9302  -1.4220  -1.4362   0.00    0.0
2024/05/29 11:06:06.000   45.410464575   11.898889432    64.2255   5   8   2.9966   2.4940   5.3737  -0.9305  -1.4215  -1.4367   0.00    0.0
2024/05/29 11:06:07.000   45.410463254   11.898887160    64.9524   5   8   2.9967   2.4941   5.3736  -0.9308  -1.4211  -1.4372   0.00    0.0
2024/05/29 11:06:08.000   45.410463142   11.898886617    64.8443   5   8   2.9969   2.4942   5.3735  -0.9312  -1.4207  -1.4377   0.00    0.0
2024/05/29 11:06:09.000   45.410462322   11.898885138    65.3688   5   8   2.9971   2.4942   5.3734  -0.9315  -1.4202  -1.4382   0.00    0.0
2024/05/29 11:06:10.000   45.410459984   11.898883290    65.6805   5   8   2.9973   2.4943   5.3733  -0.9318  -1.4198  -1.4386   0.00    0.0
2024/05/29 11:06:11.000   45.410461178   11.898885845    65.2723   5   8   2.9975   2.4944   5.3732  -0.9321  -1.4194  -1.4391   0.00    0.0
2024/05/29 11:06:12.000   45.410461041   11.898885699    65.5569   5   8   2.9977   2.4945   5.3731  -0.9324  -1.4189  -1.4396   0.00    0.0
2024/05/29 11:06:13.000   45.410459101   11.898887628    65.5583   5   8   2.9979   2.4945   5.3730  -0.9328  -1.4185  -1.4401   0.00    0.0
2024/05/29 11:06:14.000   45.410459153   11.898887196    65.4774   5   8   2.9981   2.4946   5.3729  -0.9331  -1.4181  -1.4405   0.00    0.0
2024/05/29 11:06:15.000   45.410460601   11.898887718    65.2416   5   8   2.9983   2.4947   5.3728  -0.9334  -1.4176  -1.4410   0.00    0.0
2024/05/29 11:06:16.000   45.410460551   11.898887556    65.2588   5   8   2.9985   2.4948   5.3727  -0.9337  -1.4172  -1.4415   0.00    0.0
2024/05/29 11:06:17.000   45.410459905   11.898886655    65.0300   5   8   2.9987   2.4949   5.3726  -0.9340  -1.4167  -1.4420   0.00    0.0
2024/05/29 11:06:18.000   45.410461083   11.898887958    65.1511   5   8   2.9989   2.4949   5.3725  -0.9344  -1.4163  -1.4425   0.00    0.0
2024/05/29 11:06:19.000   45.410461871   11.898887311    64.8816   5   8   2.9991   2.4950   5.3724  -0.9347  -1.4159  -1.4429   0.00    0.0
2024/05/29 11:06:20.000   45.410460366   11.898885639    64.9604   5   8   2.9993   2.4951   5.3723  -0.9350  -1.4154  -1.4434   0.00    0.0
2024/05/29 11:06:21.000   45.410459666   11.898885177    64.7497   5   8   2.9994   2.4952   5.3722  -0.9353  -1.4150  -1.4439   0.00    0.0
2024/05/29 11:06:22.000   45.410460670   11.898885434    64.6346   5   8   2.9996   2.4952   5.3721  -0.9356  -1.4146  -1.4444   0.00    0.0
2024/05/29 11:06:23.000   45.410459193   11.898884747    64.4702   5   8   2.9998   2.4953   5.3720  -0.9360  -1.4141  -1.4449   0.00    0.0
2024/05/29 11:06:24.000   45.410456787   11.898881342    64.6707   5   8   3.0000   2.4954   5.3719  -0.9363  -1.4137  -1.4453   0.00    0.0
2024/05/29 11:06:25.000   45.410457371   11.898878725    65.0738   5   8   3.0002   2.4955   5.3718  -0.9366  -1.4133  -1.4458   0.00    0.0
2024/05/29 11:06:26.000   45.410455831   11.898879112    65.2807   5   8   3.0004   2.4956   5.3717  -0.9369  -1.4128  -1.4463   0.00    0.0
2024/05/29 11:06:27.000   45.410458302   11.898880429    64.7235   5   8   3.0006   2.4956   5.3716  -0.9373  -1.4124  -1.4468   0.00    0.0
2024/05/29 11:06:28.000   45.410459693   11.898880210    64.6177   5   8   3.0008   2.4957   5.3715  -0.9376  -1.4119  -1.4472   0.00    0.0
2024/05/29 11:06:29.000   45.410460954   11.898881159    64.6039   5   8   3.0010   2.4958   5.3714  -0.9379  -1.4115  -1.4477   0.00    0.0
2024/05/29 11:06:30.000   45.410463533   11.898878549    64.2409   5   8   3.0012   2.4959   5.3713  -0.9382  -1.4111  -1.4482   0.00    0.0
2024/05/29 11:06:31.000   45.410462148   11.898877406    64.6299   5   8   3.0014   2.4959   5.3712  -0.9385  -1.4106  -1.4487   0.00    0.0
2024/05/29 11:06:32.000   45.410463380   11.898875245    64.4232   5   8   3.0016   2.4960   5.3711  -0.9388  -1.4102  -1.4492   0.00    0.0
2024/05/29 11:06:33.000   45.410460503   11.898874162    64.7421   5   8   3.0018   2.4961   5.3710  -0.9392  -1.4097  -1.4496   0.00    0.0
2024/05/29 11:06:34.000   45.410462509   11.898873664    64.6137   5   8   3.0020   2.4962   5.3709  -0.9395  -1.4093  -1.4501   0.00    0.0
2024/05/29 11:06:35.000   45.410462078   11.898873936    64.3035   5   8   3.0022   2.4963   5.3708  -0.9398  -1.4089  -1.4506   0.00    0.0
2024/05/29 11:06:36.000   45.410461648   11.898872734    64.3647   5   8   3.0023   2.4963   5.3707  -0.9401  -1.4084  -1.4511   0.00    0.0
2024/05/29 11:06:37.000   45.410461166   11.898873765    64.6841   5   8   3.0025   2.4964   5.3707  -0.9404  -1.4080  -1.4515   0.00    0.0
2024/05/29 11:06:38.000   45.410459899   11.898875265    64.7039   5   8   3.0027   2.4965   5.3706  -0.9408  -1.4076  -1.4520   0.00    0.0
2024/05/29 11:06:39.000   45.410461806   11.898877155    64.7903   5   8   3.0029   2.4966   5.3705  -0.9411  -1.4071  -1.4525   0.00    0.0
2024/05/29 11:06:40.000   45.410461138   11.898878118    65.3006   5   8   3.0031   2.4967   5.3704  -0.9414  -1.4067  -1.4530   0.00    0.0
2024/05/29 11:06:41.000   45.410460607   11.898880125    65.2307   5   8   3.0033   2.4967   5.3703  -0.9417  -1.4062  -1.4535   0.00    0.0
2024/05/29 11:06:42.000   45.410460145   11.898880188    65.4560   5   8   3.0035   2.4968   5.3702  -0.9420  -1.4058  -1.4539   0.00    0.0
2024/05/29 11:06:43.000   45.410459840   11.898880983    65.7774   5   8   3.0037   2.4969   5.3701  -0.9424  -1.4054  -1.4544   0.00    0.0
2024/05/29 11:06:44.000   45.410461055   11.898884426    65.7899   5   8   3.0039   2.4970   5.3700  -0.9427  -1.4049  -1.4549   0.00    0.0
2024/05/29 11:06:45.000   45.410461611   11.898883109    65.4483   5   8   3.0041   2.4970   5.3699  -0.9430  -1.4045  -1.4554   0.00    0.0
2024/05/29 11:06:46.000   45.410460793   11.898883398    65.9536   5   8   3.0043   2.4971   5.3698  -0.9433  -1.4040  -1.4558   0.00    0.0
2024/05/29 11:06:47.000   45.410461516   11.898883256    65.7868   5   8   3.0045   2.4972   5.3697  -0.9436  -1.4036  -1.4563   0.00    0.0
2024/05/29 11:06:48.000   45.410462722   11.898882332    65.7353   5   8   3.0047   2.4973   5.3696  -0.9440  -1.4031  -1.4568   0.00    0.0
2024/05/29 11:06:49.000   45.410462654   11.898884335    65.7788   5   8   3.0049   2.4974   5.3695  -0.9443  -1.4027  -1.4573   0.00    0.0
2024/05/29 11:06:50.000   45.410462107   11.898884553    66.0546   5   8   3.0051   2.4974   5.3694  -0.9446  -1.4023  -1.4578   0.00    0.0
2024/05/29 11:06:51.000   45.410459905   11.898882939    65.9823   5   8   3.0053   2.4975   5.3693  -0.9449  -1.4018  -1.4582   0.00    0.0
2024/05/29 11:06:52.000   45.410461303   11.898884232    65.9274   5   8   3.0055   2.4976   5.3692  -0.9452  -1.4014  -1.4587   0.00    0.0
2024/05/29 11:06:53.000   45.410460638   11.898882595    65.8401   5   8   3.0057   2.4977   5.3691  -0.9456  -1.4009  -1.4592   0.00    0.0
2024/05/29 11:06:54.000   45.410460771   11.898881719    65.6863   5   8   3.0058   2.4978   5.3690  -0.9459  -1.4005  -1.4597   0.00    0.0
2024/05/29 11:06:55.000   45.410459725   11.898879641    65.5786   5   8   3.0060   2.4978   5.3689  -0.9462  -1.4000  -1.4601   0.00    0.0
2024/05/29 11:06:56.000   45.410459818   11.898877766    65.3991   5   8   3.0062   2.4979   5.3688  -0.9465  -1.3996  -1.4606   0.00    0.0
2024/05/29 11:06:57.000   45.410462348   11.898879587    65.1602   5   8   3.0064   2.4980   5.3687  -0.9468  -1.3992  -1.4611   0.00    0.0
2024/05/29 11:06:58.000   45.410462661   11.898881878    65.2051   5   8   3.0066   2.4981   5.3686  -0.9471  -1.3987  -1.4616   0.00    0.0
2024/05/29 11:06:59.000   45.410463424   11.898885345    64.6553   5   8   3.0068   2.4981   5.3685  -0.9475  -1.3983  -1.4621   0.00    0.0
2024/05/29 11:07:00.000   45.410462222   11.898887596    64.9356   5   8   3.0070   2.4982   5.3685  -0.9478  -1.3978  -1.4625   0.00    0.0
2024/05/29 11:07:01.000   45.410461122   11.898890594    65.2645   5   8   3.0072   2.4983   5.3684  -0.9481  -1.3974  -1.4630   0.00    0.0
2024/05/29 11:07:02.000   45.410460066   11.898889989    65.7374   5   8   3.0074   2.4984   5.3683  -0.9484  -1.3969  -1.4635   0.00    0.0
2024/05/29 11:07:03.000   45.410458492   11.898892396    65.2593   5   8   3.0076   2.4985   5.3682  -0.9487  -1.3965  -1.4640   0.00    0.0
2024/05/29 11:07:04.000   45.410455758   11.898889321    65.0410   5   8   3.0078   2.4985   5.3681  -0.9491  -1.3961  -1.4644   0.00    0.0
2024/05/29 11:07:05.000   45.410457452   11.898891354    64.4672   5   8   3.0080   2.4986   5.3680  -0.9494  -1.3956  -1.4649   0.00    0.0
2024/05/29 11:07:06.000   45.410457607   11.898887700    64.5647   5   8   3.0082   2.4987   5.3679  -0.9497  -1.3952  -1.4654   0.00    0.0
2024/05/29 11:07:07.000   45.410457134   11.898886065    64.5497   5   8   3.0084   2.4988   5.3678  -0.9500  -1.3947  -1.4659   0.00    0.0
2024/05/29 11:07:08.000   45.410455783   11.898885603    64.4274   5   8   3.0086   2.4989   5.3677  -0.9503  -1.3943  -1.4663   0.00    0.0
2024/05/29 11:07:09.000   45.410453634   11.898884392    64.2622   5   8   3.0088   2.4989   5.3676  -0.9506  -1.3938  -1.4668   0.00    0.0
2024/05/29 11:07:10.000   45.410455178   11.898883490    64.1815   5   8   3.0090   2.4990   5.3675  -0.9510  -1.3934  -1.4673   0.00    0.0
2024/05/29 11:07:11.000   45.410454372   11.898880574    64.5662   5   8   3.0092   2.4991   5.3674  -0.9513  -1.3929  -1.4678   0.00    0.0
2024/05/29 11:07:12.000   45.410454251   11.898878910    64.5003   5   8   3.0094   2.4992   5.3673  -0.9516  -1.3925  -1.4683   0.00    0.0
2024/05/29 11:07:13.000   45.410456016   11.898879274    64.6562   5   8   3.0096   2.4993   5.3672  -0.9519  -1.3920  -1.4687   0.00    0.0
2024/05/29 11:07:14.000   45.410454700   11.898877319    64.9682   5   8   3.0098   2.4993   5.3671  -0.9522  -1.3916  -1.4692   0.00    0.0
2024/05/29 11:07:15.000   45.410454455   11.898879224    65.0408   5   8   3.0100   2.4994   5.3670  -0.9525  -1.3911  -1.4697   0.00    0.0
2024/05/29 11:07:16.000   45.410454563   11.898878553    64.9802   5   8   3.0101   2.4995   5.3669  -0.9529  -1.3907  -1.4702   0.00    0.0
2024/05/29 11:07:17.000   45.410454442   11.898879655    65.4447   5   8   3.0103   2.4996   5.3668  -0.9532  -1.3903  -1.4706   0.00    0.0
2024/05/29 11:07:18.000   45.410452728   11.898881935    65.7227   5   8   3.0105   2.4997   5.3667  -0.9535  -1.3898  -1.4711   0.00    0.0
