     3.04           OBSERVATION DATA    M: Mixed            RINEX VERSION / TYPE
sbp2rinex v2.3 (RTKL                    20240531 140048 UTC PGM / RUN BY / DATE 
format: Swift Navigation SBP-JSON, option:                  COMMENT             
log: .\swift-gnss-20240529-132206.sbp.json                  COMMENT             
                                                            MARKER NAME         
                                                            MARKER NUMBER       
                                                            MARKER TYPE         
                                                            OBSERVER / AGENCY   
                                                            REC # / TYPE / VERS 
                                                            ANT # / TYPE        
  4388917.4893   924775.8032  4519531.3868                  APPROX POSITION XYZ 
        0.0000        0.0000        0.0000                  ANTENNA: DELTA H/E/N
G    8 C1C L1C D1C S1C C2S L2S D2S S2S                      SYS / # / OBS TYPES 
R    8 C1C L1C D1C S1C C2C L2C D2C S2C                      SYS / # / OBS TYPES 
E    8 C1B L1B D1B S1B C7I L7I D7I S7I                      SYS / # / OBS TYPES 
C    8 C2I L2I D2I S2I C7I L7I D7I S7I                      SYS / # / OBS TYPES 
  2024    05    29    11    22   25.0000000     GPS         TIME OF FIRST OBS   
  2024    05    29    11    32   34.0000000     GPS         TIME OF LAST OBS    
G L1C                                                       SYS / PHASE SHIFT   
G L2S  0.00000                                              SYS / PHASE SHIFT   
R L1C                                                       SYS / PHASE SHIFT   
R L2C                                                       SYS / PHASE SHIFT   
E L1B                                                       SYS / PHASE SHIFT   
E L7I                                                       SYS / PHASE SHIFT   
C L2I                                                       SYS / PHASE SHIFT   
C L7I                                                       SYS / PHASE SHIFT   
  8 R01  1 R02 -4 R09 -2 R15  0 R16 -1 R17  4 R18 -3 R24  2 GLONASS SLOT / FRQ #
 C1C    0.000 C1P    0.000 C2C    0.000 C2P    0.000        GLONASS COD/PHS/BIS 
                                                            END OF HEADER       
> 2024 05 29 11 22 25.0000000  0 29       0.000000000000
G18  24468793.700   128584380.613       -3140.441          46.750    24468800.340   100195654.055       -2447.270          43.250  
G27  20093820.480   105593740.172        -172.656          54.000    20093824.000    82280853.777        -135.258          50.000  
G08  21174395.580   111272206.074        2008.836          51.500    21174401.200    86705648.031        1565.707          50.750  
G10  20806752.740   109340224.523         529.348          54.250    20806756.620    85200200.730         413.035          49.000  
G16  22013015.120   115679169.348       -2934.711          48.750                                                                  
G21  22883765.920   120255001.9381       2439.238          46.750                                                                  
G23  21530463.660   113143351.555       -1851.891          51.250    21530466.140    88163663.637       -1444.617          49.250  
G26  24626607.160   129413649.160       -3690.727          42.000    24626618.960   100841903.500       -2875.441          36.250  
R17  19690763.840   105369295.746        -550.750          53.000    19690771.920    81953891.082        -428.797          51.750  
R02  21119374.840   112697097.309        2601.082          53.000    21119383.840    87653322.672        2023.527          50.250  
R18  20863320.700   111369863.816        2090.660          54.000    20863328.540    86621018.711        1625.691          53.250  
R16  21112957.660   112781661.473        -493.852          53.000    21112965.520    87719085.262        -384.250          52.250  
R15  22048302.580   117819467.480       -3805.469          49.250    22048314.400    91637374.055       -2961.363          47.750  
R01  21401935.460   114405649.129       -1310.781          48.500    21401945.500    88982182.234       -1021.203          45.000  
R24  22546696.500   120567343.781       -2946.609          43.250    22546707.920    93774591.066       -2289.598          42.750  
C36  24604108.800   128120041.676       -1361.957          46.750                                                                  
C27  21787518.880   113453324.848        -879.930          53.750                                                                  
C30  22631307.460   117847160.660        1659.254          52.000                                                                  
C33  25264081.000   131556693.090       -2021.086          47.000                                                                  
C13  39160904.700   203921099.020       -1117.668          45.000    39160915.260   157684756.984        -864.996          42.250  
C32  24762444.920   128944579.816        3222.672          46.000                                                                  
C28  24731305.640   128782400.4801      -2533.426          47.250                                                                  
E11  22578034.760   118648375.984         291.652          47.500    22578035.520    90912381.145         222.945          48.500  
E02  26065917.220   136977325.184        1731.352          45.250    26065923.100   104956672.895        1325.379          47.250  
E12  25247877.160   132678484.484       -1919.629          45.750    25247880.020   101662730.781       -1469.512          46.500  
E24  26391676.420   138689177.395       -3063.879          43.750    26391684.840   106268338.859       -2345.027          45.500  
E25  24216987.200   127261124.684        -964.152          49.500    24216993.020    97511775.039        -740.145          51.750  
E36  26245318.420   137920082.3671       2075.633          44.500    26245327.340   105679065.629        1590.676          47.750  
E19  26983829.960   141800988.035        1087.563          35.000    26983838.580   108652723.254         831.797          41.500  
> 2024 05 29 11 22 26.0000000  0 29       0.000000000000
G18  24469381.620   128587469.887       -3139.953          47.250    24469388.280   100198061.332       -2445.922          44.750  
G27  20093843.520   105593861.238        -170.820          54.000    20093847.180    82280948.129        -133.457          50.250  
G08  21174003.600   111270145.355        2010.594          52.000    21174008.800    86704042.270        1567.223          50.500  
G10  20806642.400   109339644.129         529.906          54.000    20806646.100    85199748.465         413.578          48.750  
G16  22013564.160   115682053.773       -2934.754          49.250                                                                  
G21  22883292.240   120252511.895        2441.410          47.250                                                                  
G23  21530806.660   113145153.203       -1851.234          51.500    21530809.000    88165067.508       -1442.160          49.500  
G26  24627299.880   129417289.934       -3689.625          40.500    24627312.340   100844740.441       -2876.082          37.000  
R17  19690856.960   105369793.711        -548.891          53.250    19690864.680    81954278.383        -426.277          51.750  
R02  21118878.200   112694443.973        2602.285          53.000    21118886.280    87651258.965        2024.535          50.000  
R18  20862919.260   111367720.945        2092.121          53.750    20862927.300    86619352.066        1626.969          53.500  
R16  21113039.940   112782102.848        -492.168          53.000    21113048.260    87719428.531        -383.426          52.000  
R15  22049004.880   117823222.035       -3805.980          47.000    22049017.220    91640294.301       -2960.031          44.500  
R01  21402171.040   114406907.891       -1309.906          48.500    21402181.940    88983161.242       -1016.684          45.500  
R24  22547237.760   120570238.418       -2944.570          42.000    22547249.480    93776842.375       -2290.223          41.000  
C36  24604360.740   128121352.574       -1360.680          47.750                                                                  
C27  21787677.820   113454153.215        -877.414          53.500                                                                  
C30  22630979.080   117845450.309        1661.293          52.250                                                                  
C33  25264459.360   131558663.063       -2018.910          47.500                                                                  
C13  39161109.680   203922165.109       -1115.980          45.500    39161119.980   157685581.297        -863.391          42.000  
C32  24761816.380   128941306.516        3223.016          45.250                                                                  
C28  24731782.440   128784882.859       -2532.320          48.000                                                                  
E11  22577969.260   118648032.996         293.172          47.250    22577970.240    90912118.316         224.391          48.500  
E02  26065577.960   136975543.434        1731.473          44.750    26065584.140   104955307.668        1326.910          48.500  
E12  25248232.320   132680351.824       -1916.469          45.500    25248235.460   101664161.578       -1468.520          46.750  
E24  26392249.960   138692189.508       -3061.348          44.250    26392258.300   106270646.855       -2344.328          45.500  
E25  24217161.260   127262039.027        -964.352          49.500    24217166.960    97512475.637        -739.316          51.750  
E36  26244913.240   137917954.625        2078.238          44.000    26244922.640   105677435.219        1591.852          48.000  
E19  26983613.340   141799850.516        1086.480          34.250    26983622.240   108651851.684         832.750          42.750  
> 2024 05 29 11 22 27.0000000  0 29       0.000000000000
G18  24469969.660   128590560.770       -3137.727          46.500    24469976.320   100200469.793       -2445.965          44.750  
G27  20093867.060   105593984.613        -170.457          54.000    20093870.680    82281044.242        -132.328          50.000  
G08  21173611.840   111268086.773        2011.219          52.000    21173617.160    86702438.172        1567.520          50.500  
G10  20806532.420   109339066.066         529.922          53.750    20806536.180    85199298.047         414.527          48.500  
G16  22014113.540   115684940.238       -2934.977          48.750                                                                  
G21  22882818.960   120250023.664        2440.742          47.000                                                                  
G23  21531150.100   113146957.102       -1851.859          51.750    21531152.240    88166473.145       -1442.945          49.500  
G26  24627992.800   129420932.148       -3690.328          40.750    24628005.160   100847578.500       -2871.699          37.000  
R17  19690950.340   105370293.836        -547.828          53.500    19690958.640    81954667.383        -426.090          52.000  
R02  21118381.140   112691792.977        2601.848          52.750    21118389.660    87649197.086        2024.113          50.000  
R18  20862518.000   111365580.164        2092.559          53.750    20862526.260    86617686.980        1628.625          52.750  
R16  21113123.400   112782546.879        -491.590          53.750    21113131.280    87719773.895        -383.156          51.500  
R15  22049708.360   117826978.586       -3806.180          46.750    22049719.680    91643216.023       -2959.707          45.500  
R01  21402407.060   114408169.250       -1310.109          48.750    21402417.240    88984142.336       -1019.980          45.500  
R24  22547779.460   120573134.750       -2942.582          40.000    22547790.280    93779095.066       -2289.438          39.250  
C36  24604612.700   128122665.527       -1359.352          47.500                                                                  
C27  21787837.360   113454983.598        -876.641          53.500                                                                  
C30  22630650.920   117843741.906        1661.285          52.250                                                                  
C33  25264837.860   131560635.164       -2018.590          46.750                                                                  
C13  39161314.480   203923232.871       -1115.172          45.250    39161325.280   157686407.035        -862.273          42.750  
C32  24761188.460   128938034.879        3223.586          45.750                                                                  
C28  24732259.560   128787366.785       -2530.992          47.250                                                                  
E11  22577904.520   118647692.051         294.109          47.500    22577905.320    90911857.078         225.461          48.250  
E02  26065239.160   136973763.852        1731.500          44.500    26065245.400   104953944.074        1327.023          48.250  
E12  25248588.000   132682221.020       -1917.090          45.250    25248591.140   101665593.797       -1468.418          47.250  
E24  26392823.300   138695203.301       -3059.309          43.500    26392831.520   106272956.121       -2344.992          44.500  
E25  24217335.600   127262955.570        -964.508          49.500    24217341.520    97513177.926        -738.508          51.750  
E36  26244509.020   137915828.629        2078.828          44.500    26244517.960   105675806.223        1594.250          47.250  
E19  26983397.260   141798715.078        1084.711          35.250    26983406.160   108650981.641         835.141          42.000  
> 2024 05 29 11 22 28.0000000  0 29       0.000000000000
G18  24470558.100   128593652.887       -3138.984          47.250    24470564.760   100202879.246       -2445.156          45.500  
G27  20093890.920   105594109.719        -171.488          54.000    20093894.480    82281141.754        -132.305          50.000  
G08  21173220.540   111266029.813        2011.199          52.000    21173225.420    86700835.367        1567.125          50.000  
G10  20806422.900   109338489.953         530.191          54.000    20806426.680    85198849.109         413.383          48.750  
G16  22014663.280   115687828.809       -2934.566          47.750                                                                  
G21  22882345.700   120247537.496        2438.891          46.000                                                                  
G23  21531493.620   113148762.598       -1851.938          52.250    21531495.820    88167880.035       -1443.957          49.250  
G26  24628686.780   129424576.262       -3688.375          41.500    24628699.120   100850418.074       -2875.934          36.750  
R17  19691044.220   105370795.359        -548.555          53.750    19691052.220    81955057.449        -426.883          52.000  
R02  21117884.060   112689144.070        2601.855          53.000    21117893.660    87647136.844        2023.684          50.500  
R18  20862117.400   111363440.953        2092.602          53.250    20862125.300    86616023.172        1628.883          53.000  
R16  21113206.760   112782993.215        -492.938          52.750    21113214.940    87720121.059        -383.520          51.500  
R15  22050411.660   117830737.539       -3806.113          40.750    22050422.680    91646139.625       -2959.930          41.000  
R01  21402643.140   114409432.531       -1311.258          49.250    21402653.700    88985124.891       -1017.602          46.500  
R24  22548322.480   120576032.551       -2945.422          37.000                                                                  
C36  24604865.240   128123980.578       -1359.547          47.000                                                                  
C27  21787997.160   113455815.367        -877.438          53.500                                                                  
C30  22630323.020   117842035.016        1662.242          51.500                                                                  
C33  25265216.820   131562608.703       -2018.836          45.750                                                                  
C13  39161519.720   203924301.672       -1114.820          44.250    39161530.700   157687233.465        -861.438          43.000  
C32  24760560.080   128934765.188        3223.301          44.500                                                                  
C28  24732736.680   128789852.176       -2531.188          48.000                                                                  
E11  22577839.880   118647352.574         292.738          47.250    22577840.800    90911596.965         225.008          48.500  
E02  26064900.540   136971985.887        1732.262          42.250    26064907.260   104952581.750        1328.387          47.000  
E12  25248944.020   132684091.309       -1917.285          46.000    25248946.920   101667026.902       -1467.648          47.250  
E24  26393397.260   138698219.156       -3060.531          43.250    26393405.060   106275266.957       -2345.746          43.750  
E25  24217510.120   127263874.113        -966.250          48.750    24217516.440    97513881.766        -738.820          52.000  
E36  26244104.720   137913704.422        2080.215          44.000    26244113.600   105674178.629        1594.000          46.000  
E19  26983182.100   141797581.133        1087.086          36.250    26983190.240   108650112.848         832.574          40.750  
> 2024 05 29 11 22 29.0000000  0 28       0.000000000000
G18  24471146.180   128596744.227       -3140.129          46.000    24471153.500   100205288.082       -2446.980          46.500  
G27  20093914.460   105594234.113        -171.305          53.750    20093918.140    82281238.684        -133.145          50.000  
G08  21172829.080   111263971.770        2012.293          51.750    21172833.740    86699231.707        1568.355          49.500  
G10  20806313.200   109337913.258         529.660          55.000    20806316.940    85198399.746         413.332          48.750  
G16  22015212.540   115690716.027       -2932.738          48.750                                                                  
G21  22881872.280   120245049.520        2443.227          46.000                                                                  
G23  21531837.060   113150567.813       -1852.227          51.750    21531839.420    88169286.719       -1444.098          49.500  
G26  24629379.740   129428218.539       -3690.438          42.000    24629392.380   100853256.254       -2875.078          39.500  
R17  19691137.640   105371296.211        -548.703          53.250    19691145.620    81955447.008        -427.516          51.750  
R02  21117387.960   112686494.781        2601.008          53.750    21117396.820    87645076.293        2023.332          50.500  
R18  20861715.880   111361300.402        2093.125          52.750    20861724.280    86614358.309        1628.449          52.750  
R16  21113290.460   112783438.801        -492.789          53.000    21113298.140    87720467.605        -383.688          51.500  
R01  21402879.420   114410695.918       -1312.523          48.500    21402889.600    88986107.508       -1020.625          45.500  
R24  22548864.880   120578954.8633      -2944.332          28.500                                                                  
C36  24605117.420   128125294.250       -1359.383          46.500                                                                  
C27  21788156.720   113456646.430        -878.496          53.750                                                                  
C30  22629994.940   117840326.832        1663.031          51.000                                                                  
C33  25265595.300   131564581.945       -2022.395          45.250                                                                  
C13  39161724.820   203925369.746       -1114.855          44.250    39161735.940   157688059.418        -861.891          42.250  
C32  24759932.200   128931494.098        3225.172          46.750                                                                  
C28  24733213.760   128792336.789       -2531.371          47.500                                                                  
E11  22577775.200   118647011.988         294.148          47.000    22577776.060    90911336.000         225.258          48.500  
E02  26064561.960   136970206.789        1732.223          41.750    26064568.580   104951218.555        1328.883          45.750  
E12  25249300.120   132685960.926       -1917.199          46.000    25249302.740   101668459.473       -1468.148          47.000  
E24  26393971.220   138701233.320       -3060.078          44.750    26393978.860   106277576.527       -2345.605          46.500  
E25  24217684.760   127264791.414        -962.871          48.750    24217690.860    97514584.645        -739.367          50.750  
E36  26243700.260   137911578.477        2078.734          44.000    26243709.020   105672549.641        1592.461          45.500  
E19  26982966.080   141796446.965        1086.887          35.750    26982974.540   108649243.785         834.332          42.000  
> 2024 05 29 11 22 30.0000000  0 28       0.000000000000
G18  24471735.340   128599840.051       -3139.070          46.250    24471742.260   100207700.375       -2447.344          45.000  
G27  20093938.800   105594361.711        -171.789          54.000    20093942.320    82281338.129        -134.664          50.250  
G08  21172437.740   111261915.820        2011.430          51.000    21172442.480    86697629.691        1568.094          49.250  
G10  20806204.040   109337340.395         528.707          54.250    20806207.780    85197953.402         411.156          49.250  
G16  22015762.440   115693605.766       -2934.391          49.000                                                                  
G21  22881398.960   120242562.809        2443.277          45.500                                                                  
G23  21532181.320   113152377.324       -1854.902          51.250    21532183.960    88170696.734       -1445.242          49.500  
G26  24630073.040   129431863.305       -3688.238          42.750    24630085.560   100856096.324       -2877.055          39.250  
R17  19691231.860   105371800.570        -549.406          53.250    19691239.880    81955839.277        -427.027          51.500  
R02  21116892.680   112683850.160        2599.695          54.250    21116901.040    87643019.375        2022.324          51.000  
R18  20861315.300   111359161.590        2094.637          53.000    20861323.160    86612694.797        1629.352          52.000  
R16  21113374.340   112783886.641        -492.633          53.000    21113382.400    87720815.973        -383.543          51.750  
R15  22051817.940   117838272.5943      -3804.066          42.250    22051828.860    91652003.4613      -2959.344          43.500  
R01  21403116.980   114411964.125       -1312.875          48.250    21403127.160    88987093.918       -1024.230          44.750  
C36  24605369.760   128126609.309       -1359.723          46.250                                                                  
C27  21788317.020   113457481.051        -878.695          53.500                                                                  
C30  22629667.120   117838620.539        1663.375          51.000                                                                  
C33  25265975.380   131566559.523       -2022.094          45.500                                                                  
C13  39161930.380   203926441.672       -1114.500          43.250    39161941.520   157688888.289        -864.117          42.000  
C32  24759304.820   128928226.141        3223.180          46.750                                                                  
C28  24733691.560   128794825.820       -2531.879          48.000                                                                  
E11  22577710.680   118646673.891         295.762          46.750    22577711.680    90911076.957         225.516          48.250  
E02  26064224.140   136968429.641        1733.270          42.500    26064230.300   104949856.844        1329.199          45.250  
E12  25249656.560   132687834.492       -1917.492          45.750    25249659.320   101669895.086       -1468.902          47.000  
E24  26394544.820   138704250.082       -3061.402          44.750    26394553.140   106279888.047       -2344.875          47.000  
E25  24217859.720   127265710.789        -963.355          48.250    24217865.700    97515289.113        -737.699          51.250  
E36  26243295.960   137909453.664        2080.703          45.000    26243304.760   105670921.520        1593.492          46.000  
E19                                                                  26982759.580   108648378.324         830.484          42.250  
> 2024 05 29 11 22 31.0000000  0 28       0.000000000000
G18  24472324.780   128602937.879       -3140.266          46.250    24472331.920   100210114.320       -2448.199          44.750  
G27  20093963.340   105594490.348        -172.527          53.250    20093966.760    82281438.371        -135.145          50.500  
G08  21172046.360   111259859.609        2012.715          50.250    21172051.260    86696027.438        1568.773          49.500  
G10  20806095.300   109336769.484         526.391          53.750    20806099.020    85197508.531         409.871          49.000  
G16  22016312.500   115696496.789       -2934.445          47.500                                                                  
G21  22880925.820   120240075.582        2443.645          46.250                                                                  
G23  21532526.020   113154188.676       -1855.957          50.750    21532528.420    88172108.184       -1445.582          50.000  
G26  24630767.140   129435509.871       -3689.863          40.750    24630779.020   100858937.770       -2873.785          39.500  
R17  19691326.660   105372305.770        -549.191          53.500    19691333.940    81956232.262        -428.430          52.000  
R02  21116397.860   112681208.488        2596.160          54.250    21116406.220    87640964.781        2020.285          51.250  
R18  20860914.940   111357022.188        2095.938          53.000    20860922.120    86611030.781        1629.105          51.250  
R16  21113458.280   112784334.547        -490.867          52.500    21113466.320    87721164.359        -381.262          50.750  
R15  22052522.100   117842032.1802      -3804.398          43.750    22052533.180    91654927.5742      -2958.211          44.750  
R01  21403354.240   114413234.445       -1315.313          48.750    21403364.460    88988081.988       -1022.801          45.750  
C36  24605622.360   128127923.953       -1356.527          46.750                                                                  
C27  21788477.380   113458316.988        -879.727          53.500                                                                  
C30  22629339.320   117836913.793        1663.898          50.750                                                                  
C33  25266355.400   131568538.738       -2022.516          46.500                                                                  
C13  39162136.480   203927514.668       -1115.160          44.750    39162147.700   157689718.039        -863.707          45.250  
C32  24758677.100   128924960.375        3222.590          45.000                                                                  
C28  24734170.340   128797317.367       -2536.730          48.500                                                                  
E11  22577646.560   118646336.051         293.855          47.000    22577647.520    90910818.102         226.074          48.750  
E02  26063885.660   136966651.840        1733.203          43.750    26063891.880   104948494.633        1328.875          45.000  
E12  25250013.160   132689709.594       -1919.496          46.000    25250016.060   101671331.871       -1470.910          47.250  
E24  26395119.640   138707268.465       -3061.813          44.000    26395127.520   106282200.879       -2345.926          46.000  
E25  24218035.180   127266630.527        -962.551          49.000    24218040.700    97515993.840        -736.875          50.500  
E36  26242892.000   137907328.328        2083.133          44.000    26242900.160   105669293.125        1596.363          42.750  
E19  26982537.200   141794197.4491       1081.695          40.250    26982544.900   108647514.793         828.547          41.250  
> 2024 05 29 11 22 32.0000000  0 28       0.000000000000
G18  24472922.980   128606080.637       -3140.699          46.000    24472929.780   100212563.246       -2448.820          43.250  
G27  20093996.260   105594663.684        -171.430          53.500    20093999.780    82281573.445        -134.406          50.250  
G08  21171663.120   111257846.910        2014.645          50.000    21171668.180    86694459.121        1570.730          48.500  
G10  20805995.380   109336243.980         526.824          54.000    20805999.060    85197099.066         411.418          49.250  
G16  22016871.120   115699432.586       -2933.168          47.500                                                                  
G21  22880460.800   120237631.652        2446.492          42.750                                                                  
G23  21532879.300   113156045.129       -1854.605          51.250    21532881.680    88173554.801       -1444.801          50.500  
G26  24631469.460   129439201.207       -3688.141          40.000    24631481.880   100861814.219       -2875.832          37.250  
R17  19691429.160   105372856.160        -549.090          53.500    19691437.380    81956660.348        -426.313          52.250  
R02  21115911.260   112678613.547        2595.734          54.750    21115920.000    87638946.508        2018.813          51.750  
R18  20860521.480   111354926.594        2097.648          52.500    20860529.680    86609400.938        1630.945          50.500  
R16  21113549.980   112784827.012        -489.816          51.750    21113558.300    87721547.340        -381.480          49.500  
R01  21403601.400   114414550.898       -1316.375          49.000    21403611.040    88989105.875       -1024.324          46.250  
R15                                                                  22053245.120    91657886.824       -2956.648          39.500  
C36  24605883.000   128129281.605       -1355.313          46.250                                                                  
C27  21788646.620   113459197.332        -879.273          53.750                                                                  
C30  22629019.900   117835250.141        1665.852          50.250                                                                  
C33  25266744.000   131570562.313       -2023.363          46.750                                                                  
C13  39162351.220   203928631.605       -1115.313          45.250    39162362.440   157690581.742        -862.027          46.750  
C32  24758058.500   128921739.582        3221.777          45.500                                                                  
C28  24734657.440   128799853.871       -2535.066          48.000                                                                  
E11  22577590.560   118646042.227         295.586          46.750    22577591.640    90910592.984         226.367          48.500  
E02  26063555.380   136964917.125        1736.727          44.500    26063561.800   104947165.488        1329.230          45.500  
E12  25250378.440   132691629.445       -1918.652          45.750    25250381.360   101672802.906       -1470.414          47.750  
E24  26395702.440   138710331.793       -3060.508          44.750    26395710.100   106284548.051       -2348.195          46.000  
E25  24218218.320   127267594.375        -963.023          48.500    24218224.140    97516732.375        -737.590          50.500  
E36  26242496.120   137905246.387        2084.719          39.250    26242504.040   105667697.855        1596.293          42.750  
E19  26982331.460   141793115.813        1083.309          42.500    26982338.720   108646686.004         830.809          39.750  
> 2024 05 29 11 22 33.0000000  0 27       0.000000000000
G18  24473513.440   128609183.852       -3143.238          46.000    24473519.940   100214981.289       -2449.629          43.250  
G27  20094021.820   105594797.672        -175.316          53.500    20094025.280    82281677.863        -136.395          50.000  
G08  21171272.520   111255793.789        2012.262          50.000    21171277.760    86692859.320        1567.980          49.250  
G10  20805888.000   109335679.801         522.590          54.250    20805891.700    85196659.469         406.496          49.000  
G16  22017422.420   115702329.621       -2939.367          48.250                                                                  
G21  22879987.700   120235147.355        2444.031          42.750                                                                  
G23  21533224.920   113157862.313       -1858.492          51.250    21533227.320    88174970.785       -1447.551          50.750  
G26  24632164.280   129442853.988       -3693.348          39.500    24632177.520   100864660.516       -2877.605          39.250  
R17  19691524.300   105373365.891        -551.309          53.250    19691532.520    81957056.801        -428.598          52.250  
R02  21115417.960   112675979.910        2591.633          55.250    21115426.780    87636898.129        2015.285          52.250  
R18  20860122.000   111352789.711        2096.426          52.250    20860129.760    86607738.926        1629.660          49.000  
R16  21113635.020   112785278.813        -494.023          52.500    21113643.000    87721898.781        -383.566          49.250  
R01  21403839.500   114415827.500       -1318.922          48.500    21403849.360    88990098.805       -1025.344          45.750  
C36  24606136.180   128130599.258       -1358.637          44.750                                                                  
C27  21788808.200   113460038.617        -881.547          53.500                                                                  
C30  22628692.900   117833546.340        1663.555          50.250                                                                  
C33  25267125.200   131572546.438       -2023.879          46.250                                                                  
C13  39162558.320   203929708.715       -1117.480          45.250    39162569.420   157691414.625        -863.961          46.500  
C32  24757432.780   128918480.750        3215.398          46.250                                                                  
C28  24735137.100   128802351.871       -2537.250          47.750                                                                  
E11  22577526.540   118645708.441         291.801          46.250    22577528.080    90910337.230         224.504          47.750  
E02  26063217.500   136963141.598        1736.027          44.500    26063223.860   104945805.008        1330.563          46.000  
E12  25250736.300   132693509.574       -1919.629          45.750    25250739.060   101674243.563       -1470.977          47.750  
E24  26396278.160   138713356.508       -3066.035          45.500    26396285.480   106286865.770       -2349.129          45.500  
E25  24218394.140   127268518.621        -966.941          48.000    24218400.060    97517440.586        -740.461          50.250  
E36  26242091.620   137903124.066        2081.117          42.500    26242100.420   105666071.688        1595.375          41.750  
E19  26982118.420   141791995.078        1080.660          42.750    26982125.260   108645827.242         830.047          40.750  
> 2024 05 29 11 22 34.0000000  0 27       0.000000000000
G18  24474103.780   128612286.301       -3143.348          45.750    24474110.360   100217398.750       -2449.250          43.250  
G27  20094047.060   105594931.227        -175.082          53.250    20094050.740    82281781.941        -135.992          50.250  
G08  21170881.560   111253739.273        2014.219          50.000    21170886.780    86691258.402        1568.582          48.500  
G10  20805780.680   109335115.938         521.152          54.500    20805784.460    85196220.109         406.879          49.750  
G16  22017974.040   115705227.418       -2940.715          47.750                                                                  
G21  22879514.860   120232662.230        2442.770          43.500                                                                  
G23  21533570.640   113159678.887       -1857.566          50.500    21533573.100    88176386.289       -1446.184          50.500  
G26  24632860.040   129446507.902       -3695.711          42.000    24632872.860   100867507.781       -2877.031          37.250  
R17  19691619.460   105373874.422        -549.711          53.000    19691627.680    81957452.340        -426.965          52.250  
R02  21114924.240   112673347.188        2591.406          54.750    21114933.340    87634850.473        2015.031          52.000  
R18  20859721.760   111350651.215        2097.715          52.250    20859728.800    86606075.691        1631.855          49.500  
R16  21113719.180   112785729.859        -492.152          52.000    21113727.320    87722249.652        -383.406          49.750  
R01  21404078.720   114417103.547       -1317.234          48.500    21404087.400    88991091.277       -1023.754          46.000  
C36  24606389.040   128131916.160       -1359.523          46.000                                                                  
C27  21788969.700   113460879.297        -881.441          53.500                                                                  
C30  22628365.320   117831841.105        1664.535          50.250                                                                  
C33  25267505.860   131574529.445       -2021.328          46.500                                                                  
C13  39162764.660   203930784.184       -1115.164          44.500    39162775.920   157692246.227        -860.910          45.000  
C32  24756807.180   128915223.168        3215.484          47.000                                                                  
C28  24735616.860   128804849.863       -2537.824          47.500                                                                  
E11  22577463.300   118645373.656         293.195          47.000    22577464.400    90910080.738         224.453          48.000  
E02  26062880.000   136961364.188        1738.152          44.750    26062886.020   104944443.133        1329.719          45.750  
E12  25251094.220   132695388.680       -1920.355          45.750    25251096.660   101675683.398       -1472.215          47.500  
E24  26396853.920   138716382.277       -3067.055          46.250    26396861.580   106289184.160       -2349.563          46.500  
E25  24218569.760   127269442.602        -964.934          48.750    24218575.740    97518148.594        -740.086          50.500  
E36  26241686.980   137901001.004        2079.512          40.250    26241696.280   105664444.906        1594.785          44.750  
E19  26981904.880   141790874.012        1078.879          42.500    26981912.040   108644968.199         829.539          41.750  
> 2024 05 29 11 22 35.0000000  0 27       0.000000000000
G18  24474693.740   128615386.191       -3140.988          45.250    24474700.180   100219814.355       -2447.875          43.000  
G27  20094072.180   105595063.598        -173.441          53.250    20094076.020    82281885.078        -135.359          50.000  
G08  21170490.460   111251683.043        2015.688          49.750    21170495.520    86689656.164        1570.488          48.500  
G10  20805673.180   109334551.266         522.809          54.500    20805677.020    85195780.102         409.414          49.750  
G16  22018525.340   115708125.125       -2939.715          47.000                                                                  
G21  22879041.680   120230175.980        2446.219          44.000                                                                  
G23  21533915.920   113161493.586       -1854.484          50.250    21533918.360    88177800.363       -1446.156          50.250  
G26  24633555.720   129450161.535       -3696.875          39.500                                                                  
R17  19691714.220   105374380.926        -548.059          53.000    19691722.460    81957846.293        -426.730          51.500  
R02  21114430.300   112670713.719        2591.262          54.750    21114439.740    87632802.242        2014.953          52.500  
R18  20859320.200   111348510.895        2098.688          51.250    20859328.400    86604411.008        1633.195          50.250  
R16  21113803.300   112786179.941        -492.813          51.250    21113811.720    87722599.719        -381.789          48.750  
R01  21404316.920   114418377.648       -1316.105          48.000    21404326.680    88992082.258       -1024.223          45.750  
C36  24606641.580   128133232.008       -1357.230          45.500                                                                  
C27  21789130.800   113461718.309        -879.082          53.500                                                                  
C30  22628037.720   117830134.195        1666.008          51.000                                                                  
C33  25267886.460   131576509.906       -2020.031          47.250                                                                  
C13  39162970.860   203931856.680       -1114.336          45.750    39162981.740   157693075.590        -862.008          45.500  
C32  24756181.800   128911965.230        3217.563          48.000                                                                  
C28  24736096.000   128807346.098       -2537.422          47.000                                                                  
E11  22577399.420   118645037.355         293.855          46.500    22577400.360    90909823.055         225.758          48.250  
E02  26062540.740   136959584.781        1738.828          44.250    26062547.360   104943079.684        1332.691          45.750  
E12  25251450.900   132697265.465       -1917.977          45.250    25251453.760   101677121.438       -1469.711          47.500  
E24  26397429.400   138719408.016       -3067.238          42.750    26397437.240   106291502.625       -2350.875          45.250  
E25  24218745.800   127270365.930        -963.836          48.500    24218751.480    97518856.102        -738.883          49.750  
E36  26241283.580   137898876.824        2083.895          42.000    26241292.520   105662817.254        1596.535          45.000  
E19  26981690.920   141789750.813        1082.348          41.500    26981698.260   108644107.566         828.273          41.500  
> 2024 05 29 11 22 36.0000000  0 28       0.000000000000
G18  24475283.480   128618485.953       -3140.781          41.500    24475289.680   100222229.445       -2444.008          37.500  
G27  20094097.520   105595196.871        -174.461          53.000    20094101.160    82281988.953        -136.223          50.000  
G08  21170099.200   111249627.473        2015.273          50.250    21170104.420    86688054.410        1569.965          48.750  
G10  20805565.880   109333987.730         521.289          54.500    20805569.920    85195340.980         407.523          49.750  
G16  22019076.900   115711024.340       -2941.477          42.250                                                                  
G21  22878568.740   120227690.922        2444.895          44.250                                                                  
G23  21534261.240   113163308.711       -1856.313          50.000    21534263.680    88179214.734       -1446.488          50.750  
G26  24634250.240   129453816.582       -3696.973          37.750                                                                  
R17  19691808.880   105374887.781        -548.523          52.500    19691817.180    81958240.508        -426.867          51.500  
R02  21113937.180   112668081.520        2590.301          54.500    21113946.560    87630754.953        2014.102          51.750  
R18  20858919.380   111346371.125        2098.555          51.250    20858927.600    86602746.723        1632.066          50.250  
R16  21113887.880   112786631.387        -493.219          51.250    21113895.780    87722950.848        -383.711          48.750  
R01  21404554.960   114419652.371       -1317.227          47.750    21404564.740    88993073.727       -1024.258          45.250  
R15                                                                  22056072.640    91669645.4183      -2963.004          37.500  
C36  24606894.540   128134549.051       -1356.711          45.500                                                                  
C27  21789291.800   113462557.773        -880.730          53.000                                                                  
C30  22627710.080   117828427.832        1665.309          50.500                                                                  
C33  25268266.920   131578490.402       -2020.500          47.250                                                                  
C13  39163176.920   203932928.855       -1113.313          44.500    39163187.340   157693904.633        -861.871          44.250  
C32  24755556.040   128908708.758        3216.102          48.250                                                                  
C28  24736575.600   128809842.633       -2537.141          48.250                                                                  
E11  22577335.340   118644701.648         293.473          46.500    22577336.500    90909565.855         226.570          48.000  
E02  26062202.200   136957805.777        1737.023          42.500    26062208.780   104941716.590        1331.227          46.000  
E12  25251808.380   132699142.199       -1919.047          46.000    25251810.960   101678559.469       -1469.332          47.250  
E24  26398005.720   138722434.906       -3069.500          42.500    26398013.280   106293822.059       -2347.941          43.750  
E25  24218921.780   127271290.559        -965.637          49.000    24218927.380    97519564.555        -739.996          49.750  
E36  26240879.100   137896753.602        2083.605          42.750    26240888.200   105661190.465        1595.113          45.250  
E19  26981477.240   141788627.926        1080.793          39.750    26981484.760   108643247.172         827.324          41.750  
> 2024 05 29 11 22 37.0000000  0 25       0.000000000000
G27  20094124.440   105595337.910        -174.375          53.250    20094128.060    82282098.863        -136.438          50.250  
G08  21169709.420   111247579.445        2013.902          49.750    21169714.680    86686458.578        1568.543          49.000  
G10  20805460.260   109333432.137         521.176          54.500    20805464.260    85194908.063         405.777          49.750  
G16  22019630.460   115713931.984       -2940.332          43.250                                                                  
G21  22878097.240   120225213.672        2443.418          44.500                                                                  
G23  21534608.160   113165131.379       -1855.891          50.250    21534610.680    88180634.996       -1446.957          50.750  
R17  19691904.940   105375402.098        -548.805          52.500    19691913.040    81958640.535        -426.910          51.500  
R02  21113445.320   112665457.496        2590.242          54.250    21113454.620    87628714.086        2013.898          52.250  
R18  20858519.860   111344238.980        2097.355          51.750    20858528.380    86601088.402        1631.152          50.500  
R16  21113973.680   112787091.227        -495.324          51.250    21113981.840    87723308.512        -382.961          49.250  
R01  21404795.300   114420935.008       -1316.395          47.500    21404804.900    88994071.320       -1024.141          45.750  
C36  24607148.980   128135874.012       -1359.828          45.000                                                                  
C27  21789454.520   113463404.590        -881.141          53.000                                                                  
C30  22627383.760   117826728.871        1666.660          50.750                                                                  
C33  25268648.400   131580478.188       -2020.996          45.000                                                                  
C13  39163383.920   203934007.848       -1112.555          43.750    39163394.860   157694738.949        -859.031          43.750  
C32  24754932.440   128905460.219        3215.813          46.000                                                                  
C28  24737056.660   128812346.469       -2536.832          48.500                                                                  
E11  22577272.920   118644373.457         295.801          46.500    22577273.840    90909314.359         227.016          48.000  
E02  26061865.340   136956034.371        1736.020          43.500    26061871.680   104940359.258        1332.336          46.000  
E12  25252166.680   132701026.020       -1916.336          45.500    25252169.360   101680002.898       -1470.168          47.000  
E25  24219099.020   127272223.199        -967.176          49.750    24219104.800    97520279.191        -741.629          50.250  
E36  26240476.720   137894638.281        2081.902          44.000    26240485.700   105659569.672        1595.664          47.250  
E19  26981264.640   141787512.484        1083.906          39.250    26981272.700   108642392.551         832.027          41.250  
E24                                                                  26398590.660   106296147.750       -2350.477          40.250  
> 2024 05 29 11 22 38.0000000  0 27       0.000000000000
G27  20094154.980   105595498.191        -174.141          53.250    20094158.680    82282223.758        -136.359          50.000  
G08  21169323.280   111245550.555        2014.324          49.500    21169328.680    86684877.598        1569.492          48.500  
G10  20805358.060   109332895.828         522.043          54.500    20805362.020    85194490.160         408.066          49.500  
G16  22020187.400   115716858.418       -2943.168          44.250                                                                  
G21  22877629.220   120222755.551        2441.145          44.000                                                                  
G23  21534958.720   113166973.152       -1855.707          50.250    21534961.300    88182070.145       -1446.418          50.750  
R17  19692004.580   105375935.762        -548.238          52.500    19692012.520    81959055.609        -426.488          50.750  
R02  21112957.560   112662852.973        2590.309          54.500    21112966.360    87626688.352        2014.574          52.250  
R18  20858124.020   111342126.184        2097.391          51.250    20858131.980    86599445.125        1630.746          49.750  
R16  21114063.920   112787571.098        -495.770          51.750    21114071.500    87723681.707        -386.203          48.750  
R15  22057470.720                       -3810.156          39.500                                                                  
R01  21405038.240   114422237.406       -1316.734          47.500    21405048.640    88995084.242       -1026.086          45.250  
R24                                                                  22553779.820    93804032.8053      -2293.473          37.250  
C36  24607407.060   128137218.016       -1361.188          45.250                                                                  
C27  21789620.580   113464270.172        -879.137          53.000                                                                  
C30  22627060.920   117825048.699        1665.414          50.500                                                                  
C33  25269033.520   131582484.809       -2021.461          45.250                                                                  
C13  39163594.300   203935105.125       -1111.133          43.250    39163605.520   157695587.480        -859.359          43.500  
C32  24754312.200   128902230.203        3215.609          47.000                                                                  
C28  24737541.000   128814868.754       -2536.969          48.500                                                                  
E11  22577214.340   118644064.223         294.922          46.750    22577215.120    90909077.410         224.250          47.750  
E02  26061531.880   136954282.031        1737.840          44.250    26061537.740   104939016.547        1329.289          44.000  
E12  25252528.880   132702928.512       -1917.453          45.750    25252531.280   101681460.660       -1469.086          47.000  
E24  26399163.900   138728542.1331      -3069.230          39.250    26399172.340   106298487.824       -2350.816          42.000  
E25  24219280.220   127273175.039        -967.273          49.000    24219285.960    97521008.551        -741.406          51.000  
E36  26240077.560   137892541.898        2079.234          44.000    26240086.520   105657963.301        1594.289          46.000  
E19  26981055.680   141786415.848        1081.023          40.000    26981063.540   108641552.254         824.637          37.500  
> 2024 05 29 11 22 39.0000000  0 29       0.000000000000
G18  24477064.340   128627848.4963      -3139.391          36.750    24477073.940   100229540.5351      -2446.617          33.500  
G27  20094184.720   105595654.168        -178.121          53.250    20094188.260    82282345.297        -139.895          50.000  
G08  21168936.720   111243517.281        2011.324          49.750    21168941.960    86683293.219        1567.266          48.750  
G10  20805255.160   109332355.281         519.688          54.250    20805259.080    85194068.984         404.371          49.500  
G16  22020743.360   115719780.672       -2942.934          44.500                                                                  
G21  22877160.840   120220292.973        2441.848          43.500                                                                  
G23  21535308.320   113168810.480       -1858.129          50.000    21535310.960    88183501.805       -1448.039          50.750  
G26  24636345.460   129464873.0043      -3697.527          33.250                                                                  
R17  19692103.500   105376464.742        -549.742          52.250    19692111.620    81959467.039        -427.707          51.250  
R02  21112468.580   112660244.152        2586.488          55.500    21112477.700    87624659.285        2011.699          52.750  
R18  20857727.680   111340008.832        2095.621          52.000    20857735.340    86597798.305        1630.121          49.750  
R16  21114152.840   112788047.059        -498.160          51.750    21114161.080    87724051.941        -384.078          49.000  
R15  22058177.760   117872271.9843      -3810.871          40.250    22058189.320    91678436.7032      -2966.789          44.250  
R01  21405281.240   114423535.535       -1320.469          47.000    21405290.820    88996093.934       -1026.785          45.500  
R24  22554317.220   120608088.6372      -2948.387          38.250    22554327.740    93806310.6172      -2294.578          36.500  
C36  24607664.260   128138557.984       -1360.973          45.500                                                                  
C27  21789786.040   113465131.184        -881.660          53.750                                                                  
C30  22626737.540   117823364.082        1663.766          51.500                                                                  
C33  25269417.860   131584486.883       -2022.551          45.250                                                                  
C13  39163804.260   203936197.523       -1110.730          44.250    39163815.260   157696432.172        -860.875          43.750  
C32  24753691.420   128898995.848        3213.723          45.000                                                                  
C28  24738024.240   128817386.199       -2538.094          48.000                                                                  
E11  22577154.580   118643750.445         292.953          46.500    22577155.500    90908836.988         224.523          47.750  
E02  26061197.660   136952525.402        1736.875          44.250    26061203.600   104937670.555        1329.629          44.500  
E12  25252889.900   132704826.129       -1918.047          45.750    25252892.620   101682914.684       -1468.887          47.250  
E24  26399745.040   138731591.789       -3073.301          38.750    26399752.300   106300824.328       -2351.879          41.750  
E25  24219460.480   127274122.762        -969.234          49.250    24219466.260    97521734.703        -741.938          50.500  
E36  26239677.880   137890441.137        2080.660          44.500    26239686.740   105656353.645        1594.641          45.500  
E19  26980846.840   141785314.758        1080.270          40.750    26980853.820   108640708.527         828.945          38.750  
> 2024 05 29 11 22 40.0000000  0 27       0.000000000000
G18  24477657.280   128630965.6682      -3138.957          38.750                                                                  
G27  20094213.940   105595807.379        -177.063          53.250    20094217.260    82282464.691        -137.754          49.750  
G08  21168549.260   111241480.828        2012.934          49.750    21168554.040    86681706.398        1567.504          48.000  
G10  20805151.920   109331812.328         518.879          54.750    20805155.660    85193645.879         403.488          49.500  
G16  22021298.520   115722700.277       -2943.965          46.500                                                                  
G21  22876691.900   120217827.301        2443.344          43.250                                                                  
G23  21535657.500   113170645.160       -1857.766          50.250    21535660.260    88184931.461       -1447.914          51.000  
R17  19692202.000   105376990.707        -550.102          52.500    19692209.520    81959876.086        -428.371          50.750  
R02  21111979.280   112657633.223        2586.242          54.750    21111988.320    87622628.535        2012.051          52.500  
R18  20857330.200   111337888.055        2096.613          51.250    20857337.800    86596148.801        1631.008          49.750  
R16  21114241.160   112788520.391        -497.156          51.250    21114249.820    87724420.051        -386.828          49.000  
