% program   : RTKPOST ver.2.4.3 b34
% inp file  : C:\Users\franc\Desktop\Satellite_Navigation\Workbook_8\GNSSdata_29052024_dynamic\swift-gnss-20240529-132206.sbp.obs
% inp file  : C:\Users\franc\Desktop\Satellite_Navigation\Workbook_8\GNSSdata_29052024_dynamic\swift-gnss-20240529-132206.sbp.nav
% obs start : 2024/05/29 11:22:25.0 GPST (week2316 300145.0s)
% obs end   : 2024/05/29 11:32:34.0 GPST (week2316 300754.0s)
% pos mode  : Single
% elev mask : 15.0 deg
% ionos opt : Broadcast
% tropo opt : Saastamoinen
% ephemeris : Broadcast
% navi sys  : GPS
%
% (lat/lon/height=WGS84/ellipsoidal,Q=1:fix,2:float,3:sbas,4:dgps,5:single,6:ppp,ns=# of satellites)
%  GPST                  latitude(deg) longitude(deg)  height(m)   Q  ns   sdn(m)   sde(m)   sdu(m)  sdne(m)  sdeu(m)  sdun(m) age(s)  ratio
2024/05/29 11:22:25.000   45.410303640   11.898585443    62.1104   5   6   3.8600   3.5227   9.3872  -1.1732  -4.3526  -0.9295   0.00    0.0
2024/05/29 11:22:26.000   45.410295436   11.898588600    62.4305   5   6   3.8600   3.5224   9.3866  -1.1736  -4.3518  -0.9303   0.00    0.0
2024/05/29 11:22:27.000   45.410287351   11.898591119    62.7847   5   6   3.8600   3.5221   9.3860  -1.1740  -4.3510  -0.9311   0.00    0.0
2024/05/29 11:22:28.000   45.410280174   11.898596221    62.3235   5   6   3.8600   3.5219   9.3853  -1.1744  -4.3502  -0.9320   0.00    0.0
2024/05/29 11:22:29.000   45.410270305   11.898600521    62.2230   5   6   3.8600   3.5216   9.3847  -1.1748  -4.3494  -0.9328   0.00    0.0
2024/05/29 11:22:30.000   45.410262264   11.898599411    61.9575   5   6   3.8601   3.5214   9.3841  -1.1752  -4.3486  -0.9336   0.00    0.0
2024/05/29 11:22:31.000   45.410254944   11.898593825    62.1268   5   6   3.8601   3.5211   9.3834  -1.1756  -4.3478  -0.9345   0.00    0.0
2024/05/29 11:22:32.000   45.410250887   11.898582663    62.3783   5   6   3.8601   3.5209   9.3828  -1.1760  -4.3470  -0.9353   0.00    0.0
2024/05/29 11:22:33.000   45.410248120   11.898573441    61.4806   5   6   3.8601   3.5206   9.3822  -1.1764  -4.3462  -0.9361   0.00    0.0
2024/05/29 11:22:34.000   45.410249548   11.898559964    62.0168   5   6   3.8601   3.5203   9.3815  -1.1768  -4.3454  -0.9370   0.00    0.0
2024/05/29 11:22:35.000   45.410250676   11.898549742    61.8128   5   6   3.8602   3.5201   9.3809  -1.1772  -4.3446  -0.9378   0.00    0.0
2024/05/29 11:22:36.000   45.410254763   11.898539122    61.6675   5   6   3.8602   3.5198   9.3802  -1.1776  -4.3438  -0.9387   0.00    0.0
2024/05/29 11:22:37.000   45.410262675   11.898527079    61.6323   5   6   3.8602   3.5196   9.3796  -1.1780  -4.3430  -0.9395   0.00    0.0
2024/05/29 11:22:38.000   45.410267962   11.898515894    61.5193   5   6   3.8602   3.5193   9.3790  -1.1784  -4.3422  -0.9403   0.00    0.0
2024/05/29 11:22:39.000   45.410270545   11.898510349    61.2987   5   6   3.8602   3.5190   9.3783  -1.1788  -4.3414  -0.9412   0.00    0.0
2024/05/29 11:22:40.000   45.410273300   11.898500941    61.2846   5   6   3.8603   3.5188   9.3777  -1.1792  -4.3406  -0.9420   0.00    0.0
2024/05/29 11:22:41.000   45.410284590   11.898487892    61.3197   5   6   3.8603   3.5185   9.3770  -1.1796  -4.3398  -0.9429   0.00    0.0
2024/05/29 11:22:42.000   45.410291591   11.898477342    61.4839   5   6   3.8603   3.5183   9.3764  -1.1800  -4.3390  -0.9437   0.00    0.0
2024/05/29 11:22:43.000   45.410299667   11.898469995    61.2044   5   6   3.8603   3.5180   9.3757  -1.1804  -4.3382  -0.9446   0.00    0.0
2024/05/29 11:22:44.000   45.410305219   11.898457825    61.3005   5   6   3.8603   3.5177   9.3751  -1.1808  -4.3374  -0.9454   0.00    0.0
2024/05/29 11:22:45.000   45.410312604   11.898447213    62.0333   5   6   3.8604   3.5175   9.3744  -1.1812  -4.3366  -0.9463   0.00    0.0
2024/05/29 11:22:46.000   45.410319563   11.898439252    61.6425   5   6   3.8604   3.5172   9.3738  -1.1816  -4.3357  -0.9471   0.00    0.0
2024/05/29 11:22:47.000   45.410328169   11.898430805    61.5747   5   6   3.8604   3.5170   9.3731  -1.1820  -4.3349  -0.9480   0.00    0.0
2024/05/29 11:22:48.000   45.410336597   11.898420030    62.1578   5   6   3.8604   3.5167   9.3725  -1.1824  -4.3341  -0.9488   0.00    0.0
2024/05/29 11:22:49.000   45.410342712   11.898411279    62.4234   5   6   3.8604   3.5164   9.3718  -1.1828  -4.3333  -0.9497   0.00    0.0
2024/05/29 11:22:50.000   45.410347887   11.898408708    61.9789   5   6   3.8605   3.5162   9.3712  -1.1832  -4.3325  -0.9505   0.00    0.0
2024/05/29 11:22:51.000   45.410359635   11.898410358    60.6972   5   5   6.9819  10.9128  23.1631   7.6616 -15.4144 -11.1418   0.00    0.0
2024/05/29 11:22:52.000   45.410365433   11.898390733    62.4475   5   6   3.8605   3.5156   9.3699  -1.1840  -4.3309  -0.9522   0.00    0.0
2024/05/29 11:22:53.000   45.410377382   11.898390624    62.5309   5   6   3.8605   3.5154   9.3692  -1.1844  -4.3301  -0.9531   0.00    0.0
2024/05/29 11:22:54.000   45.410391040   11.898402675    59.5000   5   5   6.9886  10.9173  23.1823   7.6686 -15.4245 -11.1553   0.00    0.0
2024/05/29 11:22:55.000   45.410397497   11.898397790    60.0066   5   5   6.9908  10.9187  23.1887   7.6710 -15.4278 -11.1598   0.00    0.0
2024/05/29 11:22:56.000   45.410404528   11.898387872    60.5366   5   6   3.8606   3.5146   9.3673  -1.1856  -4.3276  -0.9556   0.00    0.0
2024/05/29 11:22:57.000   45.410413396   11.898383486    60.2251   5   6   3.8606   3.5143   9.3666  -1.1860  -4.3268  -0.9564   0.00    0.0
2024/05/29 11:22:58.000   45.410423849   11.898375486    60.5552   5   6   3.8606   3.5141   9.3659  -1.1864  -4.3260  -0.9573   0.00    0.0
2024/05/29 11:22:59.000   45.410430937   11.898368712    61.5900   5   6   3.8607   3.5138   9.3653  -1.1868  -4.3252  -0.9581   0.00    0.0
2024/05/29 11:23:00.000   45.410440516   11.898366868    61.6474   5   6   3.8607   3.5136   9.3646  -1.1872  -4.3244  -0.9590   0.00    0.0
2024/05/29 11:23:01.000   45.410451290   11.898362589    61.3231   5   6   3.8607   3.5133   9.3640  -1.1875  -4.3236  -0.9598   0.00    0.0
2024/05/29 11:23:02.000   45.410458844   11.898364594    61.4328   5   6   3.8607   3.5130   9.3633  -1.1879  -4.3227  -0.9607   0.00    0.0
2024/05/29 11:23:03.000   45.410470522   11.898360977    61.1254   5   6   3.8607   3.5128   9.3626  -1.1883  -4.3219  -0.9615   0.00    0.0
2024/05/29 11:23:04.000   45.410481964   11.898357145    61.3397   5   6   3.8608   3.5125   9.3620  -1.1887  -4.3211  -0.9624   0.00    0.0
2024/05/29 11:23:05.000   45.410487203   11.898355082    60.9246   5   6   3.8608   3.5123   9.3613  -1.1891  -4.3203  -0.9632   0.00    0.0
2024/05/29 11:23:06.000   45.410494700   11.898346186    62.1694   5   6   3.8608   3.5120   9.3606  -1.1895  -4.3195  -0.9641   0.00    0.0
2024/05/29 11:23:07.000   45.410506677   11.898349275    62.3114   5   6   3.8608   3.5117   9.3600  -1.1899  -4.3186  -0.9649   0.00    0.0
2024/05/29 11:23:08.000   45.410523710   11.898357179    60.5061   5   5   7.0199  10.9378  23.2714   7.7016 -15.4710 -11.2182   0.00    0.0
2024/05/29 11:23:09.000   45.410532888   11.898354414    59.8642   5   5   7.0221  10.9392  23.2777   7.7040 -15.4743 -11.2227   0.00    0.0
2024/05/29 11:23:10.000   45.410539171   11.898345520    60.9049   5   6   3.8609   3.5109   9.3580  -1.1910  -4.3162  -0.9675   0.00    0.0
2024/05/29 11:23:11.000   45.410549105   11.898335690    61.4023   5   6   3.8609   3.5107   9.3573  -1.1914  -4.3154  -0.9683   0.00    0.0
2024/05/29 11:23:12.000   45.410560884   11.898339872    61.4430   5   6   3.8609   3.5104   9.3566  -1.1918  -4.3145  -0.9692   0.00    0.0
2024/05/29 11:23:13.000   45.410573284   11.898339206    61.1900   5   6   3.8610   3.5102   9.3560  -1.1922  -4.3137  -0.9700   0.00    0.0
2024/05/29 11:23:14.000   45.410580447   11.898339404    60.9708   5   6   3.8610   3.5099   9.3553  -1.1926  -4.3129  -0.9709   0.00    0.0
2024/05/29 11:23:15.000   45.410589377   11.898341778    60.6003   5   6   3.8610   3.5096   9.3546  -1.1930  -4.3121  -0.9717   0.00    0.0
2024/05/29 11:23:16.000   45.410601540   11.898342527    61.1341   5   6   3.8610   3.5094   9.3539  -1.1933  -4.3112  -0.9726   0.00    0.0
2024/05/29 11:23:17.000   45.410609226   11.898346964    61.2871   5   6   3.8610   3.5091   9.3533  -1.1937  -4.3104  -0.9734   0.00    0.0
2024/05/29 11:23:18.000   45.410618315   11.898351918    61.4518   5   6   3.8611   3.5089   9.3526  -1.1941  -4.3096  -0.9743   0.00    0.0
2024/05/29 11:23:19.000   45.410629251   11.898354269    61.3833   5   6   3.8611   3.5086   9.3519  -1.1945  -4.3088  -0.9751   0.00    0.0
2024/05/29 11:23:20.000   45.410639641   11.898352622    60.8950   5   6   3.8611   3.5083   9.3512  -1.1949  -4.3079  -0.9760   0.00    0.0
2024/05/29 11:23:21.000   45.410650450   11.898358583    60.7345   5   6   3.8611   3.5081   9.3506  -1.1953  -4.3071  -0.9768   0.00    0.0
2024/05/29 11:23:22.000   45.410659196   11.898360960    60.5012   5   6   3.8612   3.5078   9.3499  -1.1956  -4.3063  -0.9777   0.00    0.0
2024/05/29 11:23:23.000   45.410670778   11.898363607    60.5792   5   6   3.8612   3.5075   9.3492  -1.1960  -4.3055  -0.9785   0.00    0.0
2024/05/29 11:23:24.000   45.410679153   11.898366506    60.9808   5   6   3.8612   3.5073   9.3485  -1.1964  -4.3046  -0.9794   0.00    0.0
2024/05/29 11:23:25.000   45.410689139   11.898365343    61.3160   5   6   3.8612   3.5070   9.3478  -1.1968  -4.3038  -0.9802   0.00    0.0
2024/05/29 11:23:26.000   45.410699342   11.898366611    61.9725   5   6   3.8612   3.5068   9.3471  -1.1972  -4.3030  -0.9811   0.00    0.0
2024/05/29 11:23:27.000   45.410710122   11.898369418    61.0685   5   6   3.8613   3.5065   9.3465  -1.1976  -4.3021  -0.9819   0.00    0.0
2024/05/29 11:23:28.000   45.410718116   11.898368503    60.7815   5   6   3.8613   3.5062   9.3458  -1.1979  -4.3013  -0.9828   0.00    0.0
2024/05/29 11:23:29.000   45.410727654   11.898372758    60.1522   5   6   3.8613   3.5060   9.3451  -1.1983  -4.3005  -0.9836   0.00    0.0
2024/05/29 11:23:30.000   45.410734429   11.898362250    61.6935   5   6   3.8613   3.5057   9.3444  -1.1987  -4.2996  -0.9845   0.00    0.0
2024/05/29 11:23:31.000   45.410747334   11.898366139    61.1269   5   6   3.8614   3.5054   9.3437  -1.1991  -4.2988  -0.9853   0.00    0.0
2024/05/29 11:23:32.000   45.410760130   11.898375749    59.2547   5   5   7.0738  10.9715  23.4217   7.7576 -15.5488 -11.3256   0.00    0.0
2024/05/29 11:23:33.000   45.410770971   11.898373024    58.7312   5   5   7.0761  10.9729  23.4279   7.7600 -15.5520 -11.3300   0.00    0.0
2024/05/29 11:23:34.000   45.410773458   11.898360782    61.2198   5   6   3.8614   3.5046   9.3417  -1.2002  -4.2963  -0.9879   0.00    0.0
2024/05/29 11:23:35.000   45.410783416   11.898353219    62.1488   5   6   3.8614   3.5044   9.3410  -1.2006  -4.2955  -0.9887   0.00    0.0
2024/05/29 11:23:36.000   45.410795210   11.898356115    61.4341   5   6   3.8615   3.5041   9.3403  -1.2010  -4.2946  -0.9896   0.00    0.0
2024/05/29 11:23:37.000   45.410809662   11.898359969    59.7343   5   6   3.8615   3.5039   9.3396  -1.2013  -4.2938  -0.9904   0.00    0.0
2024/05/29 11:23:38.000   45.410818817   11.898357099    60.8053   5   6   3.8615   3.5036   9.3389  -1.2017  -4.2929  -0.9913   0.00    0.0
2024/05/29 11:23:39.000   45.410826547   11.898358433    61.1364   5   6   3.8615   3.5033   9.3382  -1.2021  -4.2921  -0.9921   0.00    0.0
2024/05/29 11:23:40.000   45.410833947   11.898358334    61.0036   5   6   3.8616   3.5031   9.3375  -1.2025  -4.2913  -0.9930   0.00    0.0
2024/05/29 11:23:41.000   45.410847346   11.898361908    61.1807   5   6   3.8616   3.5028   9.3368  -1.2028  -4.2904  -0.9938   0.00    0.0
2024/05/29 11:23:42.000   45.410853077   11.898365731    60.9871   5   6   3.8616   3.5025   9.3361  -1.2032  -4.2896  -0.9947   0.00    0.0
2024/05/29 11:23:43.000   45.410866129   11.898364327    61.4028   5   6   3.8616   3.5023   9.3354  -1.2036  -4.2887  -0.9955   0.00    0.0
2024/05/29 11:23:44.000   45.410880090   11.898376109    59.3964   5   5   7.1009  10.9877  23.4956   7.7854 -15.5867 -11.3790   0.00    0.0
2024/05/29 11:23:45.000   45.410888541   11.898371904    60.3459   5   5   7.1032  10.9890  23.5017   7.7877 -15.5898 -11.3834   0.00    0.0
2024/05/29 11:23:46.000   45.410895061   11.898373849    60.2101   5   6   3.8617   3.5015   9.3333  -1.2047  -4.2862  -0.9981   0.00    0.0
2024/05/29 11:23:47.000   45.410911902   11.898390985    57.4928   5   5   7.1077  10.9917  23.5139   7.7923 -15.5960 -11.3923   0.00    0.0
2024/05/29 11:23:48.000   45.410919254   11.898381660    58.5194   5   5   7.1100  10.9930  23.5200   7.7946 -15.5991 -11.3967   0.00    0.0
2024/05/29 11:23:49.000   45.410935653   11.898384272    58.1212   5   5   7.1123  10.9943  23.5261   7.7969 -15.6023 -11.4012   0.00    0.0
2024/05/29 11:23:50.000   45.410934714   11.898371466    60.4327   5   5   7.1145  10.9956  23.5322   7.7992 -15.6054 -11.4056   0.00    0.0
2024/05/29 11:23:51.000   45.410940722   11.898366083    62.3040   5   6   3.8618   3.5002   9.3298  -1.2066  -4.2820  -1.0023   0.00    0.0
2024/05/29 11:23:52.000   45.410951229   11.898375996    61.7607   5   6   3.8618   3.4999   9.3291  -1.2069  -4.2811  -1.0032   0.00    0.0
2024/05/29 11:23:53.000   45.410963389   11.898379119    61.4773   5   6   3.8619   3.4996   9.3284  -1.2073  -4.2803  -1.0040   0.00    0.0
2024/05/29 11:23:54.000   45.410977545   11.898383958    60.8361   5   6   3.8619   3.4994   9.3277  -1.2077  -4.2795  -1.0049   0.00    0.0
2024/05/29 11:23:55.000   45.410980540   11.898388262    61.6212   5   6   3.8619   3.4991   9.3270  -1.2080  -4.2786  -1.0057   0.00    0.0
2024/05/29 11:23:56.000   45.410991406   11.898393353    60.9668   5   6   3.8619   3.4988   9.3263  -1.2084  -4.2778  -1.0066   0.00    0.0
2024/05/29 11:23:57.000   45.411001819   11.898393506    60.6708   5   6   3.8619   3.4986   9.3256  -1.2088  -4.2769  -1.0074   0.00    0.0
2024/05/29 11:23:58.000   45.411012728   11.898397173    60.4360   5   6   3.8620   3.4983   9.3249  -1.2091  -4.2761  -1.0083   0.00    0.0
2024/05/29 11:23:59.000   45.411020904   11.898399083    60.6081   5   6   3.8620   3.4981   9.3241  -1.2095  -4.2752  -1.0091   0.00    0.0
2024/05/29 11:24:00.000   45.411030843   11.898404989    60.5089   5   6   3.8620   3.4978   9.3234  -1.2099  -4.2744  -1.0100   0.00    0.0
2024/05/29 11:24:01.000   45.411040515   11.898405945    60.5876   5   6   3.8620   3.4975   9.3227  -1.2102  -4.2735  -1.0108   0.00    0.0
2024/05/29 11:24:02.000   45.411048413   11.898408535    61.0861   5   6   3.8621   3.4973   9.3220  -1.2106  -4.2727  -1.0117   0.00    0.0
2024/05/29 11:24:03.000   45.411061143   11.898413721    60.5137   5   6   3.8621   3.4970   9.3213  -1.2110  -4.2718  -1.0125   0.00    0.0
2024/05/29 11:24:04.000   45.411071155   11.898415577    60.5252   5   6   3.8621   3.4967   9.3206  -1.2113  -4.2710  -1.0134   0.00    0.0
2024/05/29 11:24:05.000   45.411078959   11.898415182    61.4266   5   6   3.8621   3.4965   9.3199  -1.2117  -4.2701  -1.0142   0.00    0.0
2024/05/29 11:24:06.000   45.411085667   11.898411723    62.0423   5   6   3.8622   3.4962   9.3192  -1.2121  -4.2692  -1.0151   0.00    0.0
2024/05/29 11:24:07.000   45.411098337   11.898426151    60.4149   5   5   7.1532  11.0174  23.6349   7.8381 -15.6574 -11.4808   0.00    0.0
2024/05/29 11:24:08.000   45.411111611   11.898449293    57.6956   5   5   7.1554  11.0186  23.6408   7.8404 -15.6604 -11.4852   0.00    0.0
2024/05/29 11:24:09.000   45.411114923   11.898434046    60.4716   5   6   3.8622   3.4954   9.3170  -1.2132  -4.2667  -1.0176   0.00    0.0
2024/05/29 11:24:10.000   45.411131324   11.898449197    58.6400   5   5   7.1600  11.0211  23.6528   7.8450 -15.6664 -11.4940   0.00    0.0
2024/05/29 11:24:11.000   45.411143075   11.898457127    57.0199   5   5   7.1623  11.0224  23.6588   7.8472 -15.6694 -11.4984   0.00    0.0
2024/05/29 11:24:12.000   45.411149417   11.898451710    58.4898   5   5   7.1645  11.0236  23.6647   7.8495 -15.6724 -11.5028   0.00    0.0
2024/05/29 11:24:13.000   45.411152634   11.898435387    61.4915   5   6   3.8623   3.4943   9.3141  -1.2146  -4.2633  -1.0210   0.00    0.0
2024/05/29 11:24:14.000   45.411161146   11.898442461    61.3254   5   6   3.8623   3.4941   9.3134  -1.2150  -4.2624  -1.0219   0.00    0.0
2024/05/29 11:24:15.000   45.411173006   11.898448845    60.4342   5   6   3.8624   3.4938   9.3127  -1.2153  -4.2615  -1.0227   0.00    0.0
2024/05/29 11:24:16.000   45.411181213   11.898446132    61.0275   5   6   3.8624   3.4935   9.3120  -1.2157  -4.2607  -1.0236   0.00    0.0
2024/05/29 11:24:17.000   45.411193076   11.898449958    60.3530   5   6   3.8624   3.4933   9.3112  -1.2161  -4.2598  -1.0244   0.00    0.0
2024/05/29 11:24:18.000   45.411202582   11.898445026    60.9803   5   6   3.8624   3.4930   9.3105  -1.2164  -4.2590  -1.0253   0.00    0.0
2024/05/29 11:24:19.000   45.411211969   11.898445713    60.4562   5   6   3.8625   3.4928   9.3098  -1.2168  -4.2581  -1.0261   0.00    0.0
2024/05/29 11:24:20.000   45.411223235   11.898443005    59.9962   5   6   3.8625   3.4925   9.3091  -1.2172  -4.2572  -1.0269   0.00    0.0
2024/05/29 11:24:21.000   45.411232934   11.898440163    60.3612   5   6   3.8625   3.4922   9.3083  -1.2175  -4.2564  -1.0278   0.00    0.0
2024/05/29 11:24:22.000   45.411243000   11.898438322    60.2837   5   6   3.8625   3.4920   9.3076  -1.2179  -4.2555  -1.0286   0.00    0.0
2024/05/29 11:24:23.000   45.411254318   11.898432416    60.5334   5   6   3.8625   3.4917   9.3069  -1.2182  -4.2546  -1.0295   0.00    0.0
2024/05/29 11:24:24.000   45.411266810   11.898429272    60.6095   5   6   3.8626   3.4914   9.3061  -1.2186  -4.2538  -1.0303   0.00    0.0
2024/05/29 11:24:25.000   45.411274472   11.898423624    60.6690   5   6   3.8626   3.4912   9.3054  -1.2189  -4.2529  -1.0312   0.00    0.0
2024/05/29 11:24:26.000   45.411281853   11.898419294    60.9047   5   6   3.8626   3.4909   9.3047  -1.2193  -4.2520  -1.0320   0.00    0.0
2024/05/29 11:24:27.000   45.411288692   11.898419005    59.9176   5   6   3.8626   3.4906   9.3039  -1.2197  -4.2512  -1.0329   0.00    0.0
2024/05/29 11:24:28.000   45.411300347   11.898410064    60.1536   5   6   3.8627   3.4904   9.3032  -1.2200  -4.2503  -1.0337   0.00    0.0
2024/05/29 11:24:29.000   45.411308901   11.898405800    60.2404   5   6   3.8627   3.4901   9.3025  -1.2204  -4.2494  -1.0346   0.00    0.0
2024/05/29 11:24:30.000   45.411320689   11.898403619    60.8144   5   6   3.8627   3.4898   9.3017  -1.2207  -4.2486  -1.0354   0.00    0.0
2024/05/29 11:24:31.000   45.411327466   11.898391669    60.1292   5   5   3.8791   3.8110  11.7731  -1.4269  -2.6430  -1.9084   0.00    0.0
2024/05/29 11:24:32.000   45.411336215   11.898390832    60.9545   5   6   3.8628   3.4893   9.3003  -1.2214  -4.2468  -1.0371   0.00    0.0
2024/05/29 11:24:33.000   45.411347745   11.898383746    60.8372   5   6   3.8628   3.4890   9.2995  -1.2218  -4.2460  -1.0380   0.00    0.0
2024/05/29 11:24:34.000   45.411354733   11.898379991    60.5713   5   6   3.8628   3.4888   9.2988  -1.2222  -4.2451  -1.0388   0.00    0.0
2024/05/29 11:24:35.000   45.411365047   11.898378217    59.6367   5   6   3.8628   3.4885   9.2981  -1.2225  -4.2442  -1.0397   0.00    0.0
2024/05/29 11:24:36.000   45.411375225   11.898370318    60.4046   5   6   3.8629   3.4882   9.2973  -1.2229  -4.2433  -1.0405   0.00    0.0
2024/05/29 11:24:37.000   45.411385161   11.898366168    60.1726   5   6   3.8629   3.4880   9.2966  -1.2232  -4.2425  -1.0414   0.00    0.0
2024/05/29 11:24:38.000   45.411393814   11.898360273    60.0012   5   6   3.8629   3.4877   9.2958  -1.2236  -4.2416  -1.0422   0.00    0.0
2024/05/29 11:24:39.000   45.411402820   11.898354313    60.4569   5   6   3.8629   3.4874   9.2951  -1.2239  -4.2407  -1.0431   0.00    0.0
2024/05/29 11:24:40.000   45.411411701   11.898348084    60.3100   5   6   3.8629   3.4872   9.2944  -1.2243  -4.2399  -1.0439   0.00    0.0
2024/05/29 11:24:41.000   45.411423512   11.898339713    61.0246   5   6   3.8630   3.4869   9.2936  -1.2246  -4.2390  -1.0448   0.00    0.0
2024/05/29 11:24:42.000   45.411431557   11.898337696    60.8875   5   6   3.8630   3.4866   9.2929  -1.2250  -4.2381  -1.0456   0.00    0.0
2024/05/29 11:24:43.000   45.411439859   11.898335791    61.1021   5   6   3.8630   3.4864   9.2921  -1.2253  -4.2372  -1.0465   0.00    0.0
2024/05/29 11:24:44.000   45.411448051   11.898332690    60.5567   5   6   3.8630   3.4861   9.2914  -1.2257  -4.2364  -1.0473   0.00    0.0
2024/05/29 11:24:45.000   45.411456099   11.898326041    60.5148   5   6   3.8631   3.4858   9.2906  -1.2260  -4.2355  -1.0482   0.00    0.0
2024/05/29 11:24:46.000   45.411465744   11.898324432    60.3426   5   6   3.8631   3.4856   9.2899  -1.2264  -4.2346  -1.0490   0.00    0.0
2024/05/29 11:24:47.000   45.411475615   11.898318265    60.5462   5   6   3.8631   3.4853   9.2891  -1.2267  -4.2337  -1.0498   0.00    0.0
2024/05/29 11:24:48.000   45.411485138   11.898313422    60.7649   5   6   3.8631   3.4850   9.2884  -1.2271  -4.2328  -1.0507   0.00    0.0
2024/05/29 11:24:49.000   45.411495777   11.898310535    60.4876   5   6   3.8632   3.4848   9.2876  -1.2274  -4.2320  -1.0515   0.00    0.0
2024/05/29 11:24:50.000   45.411505331   11.898306697    60.9553   5   6   3.8632   3.4845   9.2869  -1.2278  -4.2311  -1.0524   0.00    0.0
2024/05/29 11:24:51.000   45.411513729   11.898300976    61.1781   5   6   3.8632   3.4842   9.2861  -1.2281  -4.2302  -1.0532   0.00    0.0
2024/05/29 11:24:52.000   45.411521533   11.898297800    61.0887   5   6   3.8632   3.4840   9.2854  -1.2285  -4.2293  -1.0541   0.00    0.0
2024/05/29 11:24:53.000   45.411531869   11.898293592    60.9105   5   6   3.8633   3.4837   9.2846  -1.2288  -4.2284  -1.0549   0.00    0.0
2024/05/29 11:24:54.000   45.411540237   11.898289119    61.0860   5   6   3.8633   3.4834   9.2839  -1.2292  -4.2276  -1.0558   0.00    0.0
2024/05/29 11:24:55.000   45.411549930   11.898283729    60.8329   5   6   3.8633   3.4832   9.2831  -1.2295  -4.2267  -1.0566   0.00    0.0
2024/05/29 11:24:56.000   45.411560121   11.898275670    60.8573   5   6   3.8633   3.4829   9.2824  -1.2299  -4.2258  -1.0575   0.00    0.0
2024/05/29 11:24:57.000   45.411568549   11.898269034    60.5942   5   6   3.8634   3.4826   9.2816  -1.2302  -4.2249  -1.0583   0.00    0.0
2024/05/29 11:24:58.000   45.411575754   11.898262726    60.4610   5   6   3.8634   3.4824   9.2809  -1.2306  -4.2240  -1.0591   0.00    0.0
2024/05/29 11:24:59.000   45.411581594   11.898254753    60.4039   5   6   3.8634   3.4821   9.2801  -1.2309  -4.2231  -1.0600   0.00    0.0
2024/05/29 11:25:00.000   45.411590748   11.898247538    60.8579   5   6   3.8634   3.4818   9.2794  -1.2313  -4.2223  -1.0608   0.00    0.0
2024/05/29 11:25:01.000   45.411599984   11.898235710    60.7403   5   6   3.8634   3.4815   9.2786  -1.2316  -4.2214  -1.0617   0.00    0.0
2024/05/29 11:25:02.000   45.411606449   11.898224125    60.7462   5   6   3.8635   3.4813   9.2778  -1.2320  -4.2205  -1.0625   0.00    0.0
2024/05/29 11:25:03.000   45.411612461   11.898216941    60.8669   5   6   3.8635   3.4810   9.2771  -1.2323  -4.2196  -1.0634   0.00    0.0
2024/05/29 11:25:04.000   45.411617393   11.898208177    60.6989   5   6   3.8635   3.4807   9.2763  -1.2327  -4.2187  -1.0642   0.00    0.0
2024/05/29 11:25:05.000   45.411626383   11.898200355    60.4218   5   6   3.8635   3.4805   9.2756  -1.2330  -4.2178  -1.0651   0.00    0.0
2024/05/29 11:25:06.000   45.411634934   11.898191559    60.1786   5   6   3.8636   3.4802   9.2748  -1.2334  -4.2169  -1.0659   0.00    0.0
2024/05/29 11:25:07.000   45.411642546   11.898179422    60.5595   5   6   3.8636   3.4799   9.2740  -1.2337  -4.2161  -1.0667   0.00    0.0
2024/05/29 11:25:08.000   45.411648301   11.898170698    60.5963   5   6   3.8636   3.4797   9.2733  -1.2340  -4.2152  -1.0676   0.00    0.0
2024/05/29 11:25:09.000   45.411653094   11.898157219    60.6391   5   6   3.8636   3.4794   9.2725  -1.2344  -4.2143  -1.0684   0.00    0.0
2024/05/29 11:25:10.000   45.411658687   11.898150445    60.4670   5   6   3.8637   3.4791   9.2717  -1.2347  -4.2134  -1.0693   0.00    0.0
2024/05/29 11:25:11.000   45.411667134   11.898138603    60.3800   5   6   3.8637   3.4789   9.2710  -1.2351  -4.2125  -1.0701   0.00    0.0
2024/05/29 11:25:12.000   45.411674170   11.898129397    60.6456   5   6   3.8637   3.4786   9.2702  -1.2354  -4.2116  -1.0710   0.00    0.0
2024/05/29 11:25:13.000   45.411684084   11.898119485    60.4689   5   6   3.8637   3.4783   9.2695  -1.2358  -4.2107  -1.0718   0.00    0.0
2024/05/29 11:25:14.000   45.411692696   11.898108816    60.1868   5   6   3.8638   3.4781   9.2687  -1.2361  -4.2098  -1.0726   0.00    0.0
2024/05/29 11:25:15.000   45.411698313   11.898098928    60.1372   5   6   3.8638   3.4778   9.2679  -1.2364  -4.2089  -1.0735   0.00    0.0
2024/05/29 11:25:16.000   45.411704503   11.898088737    60.1307   5   6   3.8638   3.4775   9.2671  -1.2368  -4.2080  -1.0743   0.00    0.0
2024/05/29 11:25:17.000   45.411711414   11.898078947    60.3633   5   6   3.8638   3.4773   9.2664  -1.2371  -4.2071  -1.0752   0.00    0.0
2024/05/29 11:25:18.000   45.411719283   11.898065240    60.5379   5   6   3.8639   3.4770   9.2656  -1.2375  -4.2062  -1.0760   0.00    0.0
2024/05/29 11:25:19.000   45.411727141   11.898056665    60.3912   5   6   3.8639   3.4767   9.2648  -1.2378  -4.2053  -1.0768   0.00    0.0
2024/05/29 11:25:20.000   45.411732855   11.898046451    60.6391   5   6   3.8639   3.4765   9.2641  -1.2381  -4.2044  -1.0777   0.00    0.0
2024/05/29 11:25:21.000   45.411738901   11.898036922    60.6601   5   6   3.8639   3.4762   9.2633  -1.2385  -4.2035  -1.0785   0.00    0.0
2024/05/29 11:25:22.000   45.411745956   11.898026964    60.8166   5   6   3.8640   3.4759   9.2625  -1.2388  -4.2027  -1.0794   0.00    0.0
2024/05/29 11:25:23.000   45.411753434   11.898016319    60.7855   5   6   3.8640   3.4756   9.2617  -1.2392  -4.2018  -1.0802   0.00    0.0
2024/05/29 11:25:24.000   45.411761970   11.898006741    60.9122   5   6   3.8640   3.4754   9.2610  -1.2395  -4.2009  -1.0811   0.00    0.0
2024/05/29 11:25:25.000   45.411768631   11.897999542    61.2880   5   6   3.8640   3.4751   9.2602  -1.2398  -4.2000  -1.0819   0.00    0.0
2024/05/29 11:25:26.000   45.411773781   11.897984884    59.8289   5   6   3.8641   3.4748   9.2594  -1.2402  -4.1991  -1.0827   0.00    0.0
2024/05/29 11:25:27.000   45.411782107   11.897975457    60.4815   5   6   3.8641   3.4746   9.2586  -1.2405  -4.1982  -1.0836   0.00    0.0
2024/05/29 11:25:28.000   45.411788929   11.897964955    60.4437   5   6   3.8641   3.4743   9.2579  -1.2409  -4.1973  -1.0844   0.00    0.0
2024/05/29 11:25:29.000   45.411794158   11.897955618    60.6780   5   6   3.8641   3.4740   9.2571  -1.2412  -4.1964  -1.0853   0.00    0.0
2024/05/29 11:25:30.000   45.411800870   11.897941131    60.9019   5   6   3.8642   3.4738   9.2563  -1.2415  -4.1955  -1.0861   0.00    0.0
2024/05/29 11:25:31.000   45.411807302   11.897929930    61.1791   5   6   3.8642   3.4735   9.2555  -1.2419  -4.1946  -1.0869   0.00    0.0
2024/05/29 11:25:32.000   45.411811192   11.897919338    60.9214   5   6   3.8642   3.4732   9.2548  -1.2422  -4.1937  -1.0878   0.00    0.0
2024/05/29 11:25:33.000   45.411818301   11.897909465    61.0379   5   6   3.8642   3.4730   9.2540  -1.2425  -4.1928  -1.0886   0.00    0.0
2024/05/29 11:25:34.000   45.411827741   11.897898921    60.6499   5   6   3.8643   3.4727   9.2532  -1.2429  -4.1918  -1.0894   0.00    0.0
2024/05/29 11:25:35.000   45.411831928   11.897888284    60.3968   5   6   3.8643   3.4724   9.2524  -1.2432  -4.1909  -1.0903   0.00    0.0
2024/05/29 11:25:36.000   45.411839515   11.897877848    60.3062   5   6   3.8643   3.4722   9.2516  -1.2436  -4.1900  -1.0911   0.00    0.0
2024/05/29 11:25:37.000   45.411845149   11.897868876    60.2059   5   6   3.8643   3.4719   9.2508  -1.2439  -4.1891  -1.0920   0.00    0.0
2024/05/29 11:25:38.000   45.411851442   11.897858038    60.6084   5   6   3.8644   3.4716   9.2501  -1.2442  -4.1882  -1.0928   0.00    0.0
2024/05/29 11:25:39.000   45.411858818   11.897845184    60.9286   5   6   3.8644   3.4714   9.2493  -1.2446  -4.1873  -1.0936   0.00    0.0
2024/05/29 11:25:40.000   45.411867624   11.897835585    60.4371   5   6   3.8644   3.4711   9.2485  -1.2449  -4.1864  -1.0945   0.00    0.0
2024/05/29 11:25:41.000   45.411873835   11.897822574    60.6255   5   6   3.8644   3.4708   9.2477  -1.2452  -4.1855  -1.0953   0.00    0.0
2024/05/29 11:25:42.000   45.411880123   11.897814770    60.6042   5   6   3.8645   3.4705   9.2469  -1.2456  -4.1846  -1.0961   0.00    0.0
2024/05/29 11:25:43.000   45.411889054   11.897806473    60.9791   5   6   3.8645   3.4703   9.2461  -1.2459  -4.1837  -1.0970   0.00    0.0
2024/05/29 11:25:44.000   45.411899657   11.897796735    61.3191   5   6   3.8645   3.4700   9.2453  -1.2462  -4.1828  -1.0978   0.00    0.0
2024/05/29 11:25:45.000   45.411906807   11.897793725    61.6674   5   6   3.8645   3.4697   9.2446  -1.2466  -4.1819  -1.0987   0.00    0.0
2024/05/29 11:25:46.000   45.411916973   11.897784987    61.6819   5   6   3.8645   3.4695   9.2438  -1.2469  -4.1810  -1.0995   0.00    0.0
2024/05/29 11:25:47.000   45.411924236   11.897780506    60.7693   5   6   3.8646   3.4692   9.2430  -1.2472  -4.1801  -1.1003   0.00    0.0
2024/05/29 11:25:48.000   45.411934672   11.897774223    59.9897   5   6   3.8646   3.4689   9.2422  -1.2476  -4.1792  -1.1012   0.00    0.0
2024/05/29 11:25:49.000   45.411943286   11.897766122    61.0908   5   6   3.8646   3.4687   9.2414  -1.2479  -4.1782  -1.1020   0.00    0.0
2024/05/29 11:25:50.000   45.411952925   11.897762575    60.4355   5   6   3.8647   3.4684   9.2406  -1.2482  -4.1773  -1.1028   0.00    0.0
2024/05/29 11:25:51.000   45.411961156   11.897756052    60.9926   5   6   3.8647   3.4681   9.2398  -1.2486  -4.1764  -1.1037   0.00    0.0
2024/05/29 11:25:52.000   45.411971713   11.897753342    60.9696   5   6   3.8647   3.4679   9.2390  -1.2489  -4.1755  -1.1045   0.00    0.0
2024/05/29 11:25:53.000   45.411980455   11.897752087    61.1977   5   6   3.8647   3.4676   9.2382  -1.2492  -4.1746  -1.1054   0.00    0.0
2024/05/29 11:25:54.000   45.411991996   11.897755473    61.0295   5   6   3.8648   3.4673   9.2374  -1.2495  -4.1737  -1.1062   0.00    0.0
2024/05/29 11:25:55.000   45.412000002   11.897759232    60.8601   5   6   3.8648   3.4671   9.2366  -1.2499  -4.1728  -1.1070   0.00    0.0
2024/05/29 11:25:56.000   45.412007369   11.897765652    61.0656   5   6   3.8648   3.4668   9.2358  -1.2502  -4.1719  -1.1079   0.00    0.0
2024/05/29 11:25:57.000   45.412018795   11.897770781    60.8614   5   6   3.8648   3.4665   9.2350  -1.2505  -4.1709  -1.1087   0.00    0.0
2024/05/29 11:25:58.000   45.412026802   11.897779626    60.7334   5   6   3.8649   3.4663   9.2342  -1.2509  -4.1700  -1.1095   0.00    0.0
2024/05/29 11:25:59.000   45.412033661   11.897784664    61.3161   5   6   3.8649   3.4660   9.2334  -1.2512  -4.1691  -1.1103   0.00    0.0
2024/05/29 11:26:00.000   45.412042527   11.897792120    60.7255   5   6   3.8649   3.4657   9.2326  -1.2515  -4.1682  -1.1112   0.00    0.0
2024/05/29 11:26:01.000   45.412050721   11.897801886    61.0454   5   6   3.8649   3.4654   9.2318  -1.2518  -4.1673  -1.1120   0.00    0.0
2024/05/29 11:26:02.000   45.412058436   11.897809172    61.1803   5   6   3.8650   3.4652   9.2310  -1.2522  -4.1664  -1.1128   0.00    0.0
2024/05/29 11:26:03.000   45.412067017   11.897819010    60.7601   5   6   3.8650   3.4649   9.2302  -1.2525  -4.1655  -1.1137   0.00    0.0
2024/05/29 11:26:04.000   45.412077773   11.897825869    60.4854   5   6   3.8650   3.4646   9.2294  -1.2528  -4.1645  -1.1145   0.00    0.0
2024/05/29 11:26:05.000   45.412083469   11.897836332    60.4307   5   6   3.8650   3.4644   9.2286  -1.2532  -4.1636  -1.1153   0.00    0.0
2024/05/29 11:26:06.000   45.412090542   11.897840103    60.7642   5   6   3.8651   3.4641   9.2278  -1.2535  -4.1627  -1.1162   0.00    0.0
2024/05/29 11:26:07.000   45.412102386   11.897847244    60.2728   5   6   3.8651   3.4638   9.2270  -1.2538  -4.1618  -1.1170   0.00    0.0
2024/05/29 11:26:08.000   45.412111044   11.897852962    60.4526   5   6   3.8651   3.4636   9.2262  -1.2541  -4.1609  -1.1178   0.00    0.0
2024/05/29 11:26:09.000   45.412122745   11.897860851    60.2921   5   6   3.8651   3.4633   9.2254  -1.2545  -4.1600  -1.1187   0.00    0.0
2024/05/29 11:26:10.000   45.412132437   11.897862930    60.7334   5   6   3.8652   3.4630   9.2246  -1.2548  -4.1590  -1.1195   0.00    0.0
2024/05/29 11:26:11.000   45.412140559   11.897865658    60.5649   5   6   3.8652   3.4628   9.2238  -1.2551  -4.1581  -1.1203   0.00    0.0
2024/05/29 11:26:12.000   45.412150389   11.897875576    60.0499   5   6   3.8652   3.4625   9.2230  -1.2554  -4.1572  -1.1211   0.00    0.0
2024/05/29 11:26:13.000   45.412161554   11.897878844    60.3912   5   6   3.8652   3.4622   9.2222  -1.2558  -4.1563  -1.1220   0.00    0.0
2024/05/29 11:26:14.000   45.412171352   11.897883309    60.4601   5   6   3.8653   3.4620   9.2214  -1.2561  -4.1554  -1.1228   0.00    0.0
2024/05/29 11:26:15.000   45.412179400   11.897888293    60.7239   5   6   3.8653   3.4617   9.2206  -1.2564  -4.1544  -1.1236   0.00    0.0
2024/05/29 11:26:16.000   45.412193309   11.897892394    59.5444   5   6   3.8653   3.4614   9.2198  -1.2567  -4.1535  -1.1245   0.00    0.0
2024/05/29 11:26:17.000   45.412197913   11.897893514    59.7338   5   6   3.8653   3.4612   9.2190  -1.2571  -4.1526  -1.1253   0.00    0.0
2024/05/29 11:26:18.000   45.412206224   11.897902551    60.1123   5   5   5.0504   4.6232   9.9789  -3.3978  -5.3806   3.3397   0.00    0.0
2024/05/29 11:26:19.000   45.412217528   11.897904934    59.8492   5   5   5.0501   4.6230   9.9785  -3.3976  -5.3801   3.3395   0.00    0.0
2024/05/29 11:26:20.000   45.412232175   11.897902607    60.1520   5   6   3.8654   3.4604   9.2165  -1.2580  -4.1498  -1.1278   0.00    0.0
2024/05/29 11:26:21.000   45.412242085   11.897905456    60.2853   5   6   3.8654   3.4601   9.2157  -1.2584  -4.1489  -1.1286   0.00    0.0
2024/05/29 11:26:22.000   45.412250549   11.897909844    59.7790   5   6   3.8655   3.4598   9.2149  -1.2587  -4.1480  -1.1294   0.00    0.0
2024/05/29 11:26:23.000   45.412258380   11.897915568    59.9836   5   6   3.8655   3.4596   9.2141  -1.2590  -4.1470  -1.1303   0.00    0.0
2024/05/29 11:26:24.000   45.412269983   11.897918471    60.7246   5   6   3.8655   3.4593   9.2133  -1.2593  -4.1461  -1.1311   0.00    0.0
2024/05/29 11:26:25.000   45.412279911   11.897922336    60.0163   5   5   3.8935   3.8397  11.4789  -1.5373  -2.4017  -2.1146   0.00    0.0
2024/05/29 11:26:26.000   45.412289218   11.897927236    59.7339   5   5   3.8937   3.8399  11.4763  -1.5382  -2.3995  -2.1162   0.00    0.0
2024/05/29 11:26:27.000   45.412297569   11.897933864    59.8755   5   5   3.8938   3.8402  11.4738  -1.5392  -2.3974  -2.1179   0.00    0.0
2024/05/29 11:26:28.000   45.412298435   11.897952892    60.3524   5   4   8.6518  10.3215  12.3710  -8.7401   6.2158  -6.3464   0.00    0.0
2024/05/29 11:26:29.000   45.412307959   11.897957519    59.8034   5   5   5.0471   4.6209   9.9743  -3.3965  -5.3754   3.3381   0.00    0.0
2024/05/29 11:26:30.000   45.412322194   11.897956083    60.6219   5   6   3.8657   3.4577   9.2084  -1.2612  -4.1405  -1.1360   0.00    0.0
2024/05/29 11:26:31.000   45.412332729   11.897964137    60.8477   5   6   3.8657   3.4574   9.2075  -1.2616  -4.1396  -1.1369   0.00    0.0
2024/05/29 11:26:32.000   45.412343703   11.897968306    59.7718   5   5   3.8945   3.8416  11.4611  -1.5440  -2.3864  -2.1260   0.00    0.0
2024/05/29 11:26:33.000   45.412351431   11.897973298    59.9918   5   5   3.8947   3.8418  11.4586  -1.5449  -2.3842  -2.1276   0.00    0.0
2024/05/29 11:26:34.000   45.412358610   11.897982296    60.3670   5   5   3.8948   3.8421  11.4561  -1.5459  -2.3820  -2.1293   0.00    0.0
2024/05/29 11:26:35.000   45.412366867   11.897989104    59.7579   5   5   3.8949   3.8424  11.4535  -1.5469  -2.3798  -2.1309   0.00    0.0
2024/05/29 11:26:36.000   45.412374427   11.897994716    60.8308   5   5   3.8951   3.8426  11.4510  -1.5478  -2.3776  -2.1325   0.00    0.0
2024/05/29 11:26:37.000   45.412382554   11.898005662    60.5681   5   5   3.8952   3.8429  11.4485  -1.5488  -2.3754  -2.1341   0.00    0.0
2024/05/29 11:26:38.000   45.412389515   11.898014509    60.9794   5   6   3.8659   3.4555   9.2018  -1.2638  -4.1331  -1.1426   0.00    0.0
2024/05/29 11:26:39.000   45.412397105   11.898020547    60.5540   5   6   3.8659   3.4553   9.2010  -1.2641  -4.1322  -1.1434   0.00    0.0
2024/05/29 11:26:40.000   45.412405735   11.898026096    60.9294   5   6   3.8659   3.4550   9.2001  -1.2644  -4.1312  -1.1443   0.00    0.0
2024/05/29 11:26:41.000   45.412414687   11.898036839    60.4506   5   6   3.8660   3.4547   9.1993  -1.2648  -4.1303  -1.1451   0.00    0.0
2024/05/29 11:26:42.000   45.412421096   11.898047147    60.3187   5   6   3.8660   3.4545   9.1985  -1.2651  -4.1294  -1.1459   0.00    0.0
2024/05/29 11:26:43.000   45.412427568   11.898057440    59.9712   5   6   3.8660   3.4542   9.1977  -1.2654  -4.1284  -1.1467   0.00    0.0
2024/05/29 11:26:44.000   45.412436925   11.898064244    61.0425   5   6   3.8661   3.4539   9.1968  -1.2657  -4.1275  -1.1476   0.00    0.0
2024/05/29 11:26:45.000   45.412442152   11.898075565    60.2826   5   6   3.8661   3.4537   9.1960  -1.2660  -4.1265  -1.1484   0.00    0.0
2024/05/29 11:26:46.000   45.412449921   11.898080850    60.7503   5   6   3.8661   3.4534   9.1952  -1.2663  -4.1256  -1.1492   0.00    0.0
2024/05/29 11:26:47.000   45.412456535   11.898091255    60.6524   5   6   3.8661   3.4531   9.1943  -1.2667  -4.1247  -1.1500   0.00    0.0
2024/05/29 11:26:48.000   45.412465418   11.898103068    60.3281   5   6   3.8662   3.4529   9.1935  -1.2670  -4.1237  -1.1508   0.00    0.0
2024/05/29 11:26:49.000   45.412474001   11.898117598    60.1301   5   6   3.8662   3.4526   9.1927  -1.2673  -4.1228  -1.1516   0.00    0.0
2024/05/29 11:26:50.000   45.412478500   11.898125951    59.6579   5   6   3.8662   3.4523   9.1918  -1.2676  -4.1219  -1.1525   0.00    0.0
2024/05/29 11:26:51.000   45.412486454   11.898135827    59.9479   5   6   3.8662   3.4521   9.1910  -1.2679  -4.1209  -1.1533   0.00    0.0
2024/05/29 11:26:52.000   45.412495799   11.898147143    59.7393   5   6   3.8663   3.4518   9.1902  -1.2682  -4.1200  -1.1541   0.00    0.0
2024/05/29 11:26:53.000   45.412499851   11.898154458    59.4063   5   6   3.8663   3.4515   9.1893  -1.2686  -4.1190  -1.1549   0.00    0.0
2024/05/29 11:26:54.000   45.412504274   11.898165160    59.6747   5   6   3.8663   3.4513   9.1885  -1.2689  -4.1181  -1.1557   0.00    0.0
2024/05/29 11:26:55.000   45.412509958   11.898177117    60.1082   5   6   3.8663   3.4510   9.1877  -1.2692  -4.1172  -1.1565   0.00    0.0
2024/05/29 11:26:56.000   45.412515678   11.898184909    59.9747   5   6   3.8664   3.4507   9.1868  -1.2695  -4.1162  -1.1574   0.00    0.0
2024/05/29 11:26:57.000   45.412523707   11.898199594    60.4578   5   6   3.8664   3.4505   9.1860  -1.2698  -4.1153  -1.1582   0.00    0.0
2024/05/29 11:26:58.000   45.412526939   11.898213129    60.2891   5   6   3.8664   3.4502   9.1852  -1.2701  -4.1143  -1.1590   0.00    0.0
2024/05/29 11:26:59.000   45.412531616   11.898221743    60.6603   5   6   3.8665   3.4499   9.1843  -1.2704  -4.1134  -1.1598   0.00    0.0
2024/05/29 11:27:00.000   45.412536186   11.898233187    60.3811   5   6   3.8665   3.4496   9.1835  -1.2707  -4.1125  -1.1606   0.00    0.0
2024/05/29 11:27:01.000   45.412542467   11.898247863    60.3504   5   6   3.8665   3.4494   9.1827  -1.2711  -4.1115  -1.1614   0.00    0.0
2024/05/29 11:27:02.000   45.412545835   11.898259451    59.6276   5   6   3.8665   3.4491   9.1818  -1.2714  -4.1106  -1.1622   0.00    0.0
2024/05/29 11:27:03.000   45.412550854   11.898270678    59.7372   5   6   3.8666   3.4488   9.1810  -1.2717  -4.1096  -1.1631   0.00    0.0
2024/05/29 11:27:04.000   45.412554999   11.898284411    60.0611   5   6   3.8666   3.4486   9.1801  -1.2720  -4.1087  -1.1639   0.00    0.0
2024/05/29 11:27:05.000   45.412560991   11.898299023    60.1323   5   6   3.8666   3.4483   9.1793  -1.2723  -4.1077  -1.1647   0.00    0.0
2024/05/29 11:27:06.000   45.412565310   11.898313418    59.8903   5   6   3.8666   3.4480   9.1785  -1.2726  -4.1068  -1.1655   0.00    0.0
2024/05/29 11:27:07.000   45.412569852   11.898325556    59.9824   5   6   3.8667   3.4478   9.1776  -1.2729  -4.1058  -1.1663   0.00    0.0
2024/05/29 11:27:08.000   45.412572822   11.898339193    60.1515   5   6   3.8667   3.4475   9.1768  -1.2732  -4.1049  -1.1671   0.00    0.0
2024/05/29 11:27:09.000   45.412579033   11.898349975    59.5085   5   6   3.8667   3.4472   9.1759  -1.2736  -4.1040  -1.1679   0.00    0.0
2024/05/29 11:27:10.000   45.412582939   11.898363621    59.6851   5   6   3.8667   3.4470   9.1751  -1.2739  -4.1030  -1.1687   0.00    0.0
2024/05/29 11:27:11.000   45.412586212   11.898374318    60.0486   5   6   3.8668   3.4467   9.1742  -1.2742  -4.1021  -1.1695   0.00    0.0
2024/05/29 11:27:12.000   45.412593064   11.898389369    60.0107   5   6   3.8668   3.4464   9.1734  -1.2745  -4.1011  -1.1704   0.00    0.0
2024/05/29 11:27:13.000   45.412598323   11.898400326    60.4561   5   6   3.8668   3.4462   9.1726  -1.2748  -4.1002  -1.1712   0.00    0.0
2024/05/29 11:27:14.000   45.412603928   11.898412467    60.4553   5   6   3.8669   3.4459   9.1717  -1.2751  -4.0992  -1.1720   0.00    0.0
2024/05/29 11:27:15.000   45.412608675   11.898423439    60.7605   5   6   3.8669   3.4456   9.1709  -1.2754  -4.0983  -1.1728   0.00    0.0
2024/05/29 11:27:16.000   45.412616903   11.898436574    60.4572   5   6   3.8669   3.4454   9.1700  -1.2757  -4.0973  -1.1736   0.00    0.0
2024/05/29 11:27:17.000   45.412623278   11.898448053    60.4580   5   6   3.8669   3.4451   9.1692  -1.2760  -4.0964  -1.1744   0.00    0.0
2024/05/29 11:27:18.000   45.412629032   11.898456970    60.5049   5   6   3.8670   3.4448   9.1683  -1.2763  -4.0954  -1.1752   0.00    0.0
2024/05/29 11:27:19.000   45.412635523   11.898469826    59.7339   5   6   3.8670   3.4446   9.1675  -1.2767  -4.0945  -1.1760   0.00    0.0
2024/05/29 11:27:20.000   45.412642827   11.898476385    60.3321   5   6   3.8670   3.4443   9.1666  -1.2770  -4.0935  -1.1768   0.00    0.0
2024/05/29 11:27:21.000   45.412650710   11.898489728    59.8068   5   6   3.8670   3.4440   9.1658  -1.2773  -4.0926  -1.1776   0.00    0.0
2024/05/29 11:27:22.000   45.412657793   11.898500312    59.7257   5   6   3.8671   3.4438   9.1649  -1.2776  -4.0916  -1.1784   0.00    0.0
2024/05/29 11:27:23.000   45.412665156   11.898509287    59.2931   5   6   3.8671   3.4435   9.1641  -1.2779  -4.0907  -1.1793   0.00    0.0
2024/05/29 11:27:24.000   45.412672572   11.898518726    59.5457   5   6   3.8671   3.4432   9.1632  -1.2782  -4.0897  -1.1801   0.00    0.0
2024/05/29 11:27:25.000   45.412680627   11.898527585    59.6767   5   6   3.8672   3.4430   9.1624  -1.2785  -4.0887  -1.1809   0.00    0.0
2024/05/29 11:27:26.000   45.412686998   11.898534695    59.7824   5   6   3.8672   3.4427   9.1615  -1.2788  -4.0878  -1.1817   0.00    0.0
2024/05/29 11:27:27.000   45.412696128   11.898546610    59.4737   5   6   3.8672   3.4424   9.1607  -1.2791  -4.0868  -1.1825   0.00    0.0
2024/05/29 11:27:28.000   45.412702672   11.898555145    59.6796   5   6   3.8672   3.4422   9.1598  -1.2794  -4.0859  -1.1833   0.00    0.0
2024/05/29 11:27:29.000   45.412708893   11.898562722    59.0799   5   6   3.8673   3.4419   9.1589  -1.2797  -4.0849  -1.1841   0.00    0.0
2024/05/29 11:27:30.000   45.412716556   11.898575274    59.1407   5   6   3.8673   3.4416   9.1581  -1.2800  -4.0840  -1.1849   0.00    0.0
2024/05/29 11:27:31.000   45.412724087   11.898580938    59.6339   5   6   3.8673   3.4414   9.1572  -1.2803  -4.0830  -1.1857   0.00    0.0
2024/05/29 11:27:32.000   45.412731358   11.898591585    59.7206   5   6   3.8673   3.4411   9.1564  -1.2806  -4.0821  -1.1865   0.00    0.0
2024/05/29 11:27:33.000   45.412739330   11.898602617    59.9068   5   6   3.8674   3.4408   9.1555  -1.2809  -4.0811  -1.1873   0.00    0.0
2024/05/29 11:27:34.000   45.412744207   11.898613747    59.7352   5   6   3.8674   3.4406   9.1547  -1.2812  -4.0801  -1.1881   0.00    0.0
2024/05/29 11:27:35.000   45.412748837   11.898626483    59.8246   5   6   3.8674   3.4403   9.1538  -1.2815  -4.0792  -1.1889   0.00    0.0
2024/05/29 11:27:36.000   45.412752447   11.898640485    59.7315   5   6   3.8675   3.4400   9.1530  -1.2819  -4.0782  -1.1897   0.00    0.0
2024/05/29 11:27:37.000   45.412752599   11.898657990    58.8301   5   6   3.8675   3.4398   9.1521  -1.2822  -4.0773  -1.1905   0.00    0.0
2024/05/29 11:27:38.000   45.412745434   11.898670101    59.0786   5   6   3.8675   3.4395   9.1512  -1.2825  -4.0763  -1.1913   0.00    0.0
2024/05/29 11:27:39.000   45.412739669   11.898676934    59.8030   5   6   3.8675   3.4392   9.1504  -1.2828  -4.0753  -1.1921   0.00    0.0
2024/05/29 11:27:40.000   45.412730507   11.898682907    59.4745   5   6   3.8676   3.4390   9.1495  -1.2831  -4.0744  -1.1929   0.00    0.0
2024/05/29 11:27:41.000   45.412723260   11.898688254    59.3144   5   6   3.8676   3.4387   9.1487  -1.2834  -4.0734  -1.1937   0.00    0.0
2024/05/29 11:27:42.000   45.412714622   11.898693351    60.0884   5   6   3.8676   3.4384   9.1478  -1.2837  -4.0725  -1.1945   0.00    0.0
2024/05/29 11:27:43.000   45.412704354   11.898695677    59.6774   5   6   3.8676   3.4382   9.1469  -1.2840  -4.0715  -1.1953   0.00    0.0
2024/05/29 11:27:44.000   45.412694570   11.898698172    60.0634   5   6   3.8677   3.4379   9.1461  -1.2843  -4.0705  -1.1961   0.00    0.0
2024/05/29 11:27:45.000   45.412685825   11.898697663    59.9967   5   6   3.8677   3.4376   9.1452  -1.2846  -4.0696  -1.1969   0.00    0.0
2024/05/29 11:27:46.000   45.412676419   11.898699490    60.2501   5   6   3.8677   3.4374   9.1443  -1.2849  -4.0686  -1.1977   0.00    0.0
2024/05/29 11:27:47.000   45.412668061   11.898702938    59.8843   5   6   3.8677   3.4371   9.1435  -1.2852  -4.0676  -1.1985   0.00    0.0
2024/05/29 11:27:48.000   45.412660897   11.898704075    59.8029   5   6   3.8678   3.4368   9.1426  -1.2855  -4.0667  -1.1993   0.00    0.0
2024/05/29 11:27:49.000   45.412652625   11.898705028    59.7903   5   6   3.8678   3.4366   9.1417  -1.2858  -4.0657  -1.2001   0.00    0.0
2024/05/29 11:27:50.000   45.412641554   11.898703686    60.1966   5   6   3.8678   3.4363   9.1409  -1.2861  -4.0647  -1.2009   0.00    0.0
2024/05/29 11:27:51.000   45.412629633   11.898704511    59.8677   5   6   3.8679   3.4360   9.1400  -1.2864  -4.0638  -1.2016   0.00    0.0
2024/05/29 11:27:52.000   45.412623448   11.898704683    59.7596   5   6   3.8679   3.4358   9.1391  -1.2867  -4.0628  -1.2024   0.00    0.0
2024/05/29 11:27:53.000   45.412613191   11.898705211    59.8864   5   6   3.8679   3.4355   9.1383  -1.2870  -4.0618  -1.2032   0.00    0.0
2024/05/29 11:27:54.000   45.412601140   11.898705052    59.6549   5   5   3.9069   3.8650  11.2564  -1.6222  -2.2017  -2.2507   0.00    0.0
2024/05/29 11:27:55.000   45.412590179   11.898709002    60.2576   5   5   3.9070   3.8653  11.2539  -1.6231  -2.1993  -2.2521   0.00    0.0
2024/05/29 11:27:56.000   45.412582518   11.898709661    59.3049   5   5   3.9072   3.8656  11.2515  -1.6241  -2.1970  -2.2535   0.00    0.0
2024/05/29 11:27:57.000   45.412572550   11.898715339    59.7186   5   6   3.8680   3.4344   9.1348  -1.2882  -4.0580  -1.2064   0.00    0.0
2024/05/29 11:27:58.000   45.412564228   11.898720875    59.5271   5   6   3.8680   3.4342   9.1339  -1.2885  -4.0570  -1.2072   0.00    0.0
2024/05/29 11:27:59.000   45.412555247   11.898725564    59.4801   5   6   3.8681   3.4339   9.1331  -1.2888  -4.0560  -1.2080   0.00    0.0
2024/05/29 11:28:00.000   45.412544671   11.898731410    59.9084   5   6   3.8681   3.4336   9.1322  -1.2891  -4.0551  -1.2087   0.00    0.0
2024/05/29 11:28:01.000   45.412538151   11.898740493    60.2168   5   6   3.8681   3.4334   9.1313  -1.2894  -4.0541  -1.2095   0.00    0.0
2024/05/29 11:28:02.000   45.412530116   11.898750122    60.2276   5   6   3.8682   3.4331   9.1304  -1.2897  -4.0531  -1.2103   0.00    0.0
2024/05/29 11:28:03.000   45.412522364   11.898757529    60.5998   5   6   3.8682   3.4328   9.1296  -1.2900  -4.0522  -1.2111   0.00    0.0
2024/05/29 11:28:04.000   45.412515735   11.898769314    60.2927   5   6   3.8682   3.4326   9.1287  -1.2903  -4.0512  -1.2119   0.00    0.0
2024/05/29 11:28:05.000   45.412508698   11.898780778    59.7122   5   6   3.8682   3.4323   9.1278  -1.2906  -4.0502  -1.2127   0.00    0.0
2024/05/29 11:28:06.000   45.412503826   11.898791310    59.9487   5   6   3.8683   3.4320   9.1269  -1.2909  -4.0492  -1.2135   0.00    0.0
2024/05/29 11:28:07.000   45.412495432   11.898801105    59.8992   5   6   3.8683   3.4318   9.1261  -1.2912  -4.0483  -1.2143   0.00    0.0
2024/05/29 11:28:08.000   45.412488609   11.898810372    60.1427   5   6   3.8683   3.4315   9.1252  -1.2915  -4.0473  -1.2150   0.00    0.0
2024/05/29 11:28:09.000   45.412484067   11.898822800    60.2491   5   6   3.8683   3.4312   9.1243  -1.2918  -4.0463  -1.2158   0.00    0.0
2024/05/29 11:28:10.000   45.412477103   11.898834055    60.3687   5   6   3.8684   3.4310   9.1234  -1.2921  -4.0454  -1.2166   0.00    0.0
2024/05/29 11:28:11.000   45.412470658   11.898844335    60.7475   5   6   3.8684   3.4307   9.1226  -1.2924  -4.0444  -1.2174   0.00    0.0
2024/05/29 11:28:12.000   45.412461426   11.898856441    60.5476   5   6   3.8684   3.4304   9.1217  -1.2927  -4.0434  -1.2182   0.00    0.0
2024/05/29 11:28:13.000   45.412457714   11.898867422    60.4461   5   6   3.8685   3.4302   9.1208  -1.2930  -4.0424  -1.2190   0.00    0.0
2024/05/29 11:28:14.000   45.412452580   11.898878351    60.4437   5   6   3.8685   3.4299   9.1199  -1.2933  -4.0415  -1.2198   0.00    0.0
2024/05/29 11:28:15.000   45.412448519   11.898893273    60.4941   5   6   3.8685   3.4297   9.1191  -1.2936  -4.0405  -1.2205   0.00    0.0
2024/05/29 11:28:16.000   45.412441637   11.898905373    60.1278   5   6   3.8685   3.4294   9.1182  -1.2939  -4.0395  -1.2213   0.00    0.0
2024/05/29 11:28:17.000   45.412437239   11.898918760    59.9029   5   6   3.8686   3.4291   9.1173  -1.2942  -4.0385  -1.2221   0.00    0.0
2024/05/29 11:28:18.000   45.412431246   11.898929030    60.4441   5   6   3.8686   3.4289   9.1164  -1.2945  -4.0376  -1.2229   0.00    0.0
2024/05/29 11:28:19.000   45.412427878   11.898940248    60.5928   5   6   3.8686   3.4286   9.1155  -1.2948  -4.0366  -1.2237   0.00    0.0
2024/05/29 11:28:20.000   45.412423541   11.898954670    60.6477   5   6   3.8687   3.4283   9.1146  -1.2951  -4.0356  -1.2245   0.00    0.0
2024/05/29 11:28:21.000   45.412420280   11.898968452    60.0273   5   6   3.8687   3.4281   9.1138  -1.2954  -4.0346  -1.2252   0.00    0.0
2024/05/29 11:28:22.000   45.412419372   11.898982143    60.6220   5   6   3.8687   3.4278   9.1129  -1.2957  -4.0336  -1.2260   0.00    0.0
2024/05/29 11:28:23.000   45.412415836   11.898995812    60.6419   5   6   3.8687   3.4275   9.1120  -1.2960  -4.0327  -1.2268   0.00    0.0
2024/05/29 11:28:24.000   45.412411189   11.899009834    60.5558   5   6   3.8688   3.4273   9.1111  -1.2963  -4.0317  -1.2276   0.00    0.0
2024/05/29 11:28:25.000   45.412409403   11.899024991    60.6902   5   6   3.8688   3.4270   9.1102  -1.2966  -4.0307  -1.2284   0.00    0.0
2024/05/29 11:28:26.000   45.412404704   11.899040242    61.0803   5   6   3.8688   3.4267   9.1093  -1.2969  -4.0297  -1.2292   0.00    0.0
2024/05/29 11:28:27.000   45.412402430   11.899053828    60.5852   5   6   3.8688   3.4265   9.1085  -1.2971  -4.0287  -1.2299   0.00    0.0
2024/05/29 11:28:28.000   45.412399380   11.899069487    60.0899   5   6   3.8689   3.4262   9.1076  -1.2974  -4.0278  -1.2307   0.00    0.0
2024/05/29 11:28:29.000   45.412398247   11.899082754    60.4323   5   6   3.8689   3.4259   9.1067  -1.2977  -4.0268  -1.2315   0.00    0.0
2024/05/29 11:28:30.000   45.412393168   11.899093941    60.5996   5   6   3.8689   3.4257   9.1058  -1.2980  -4.0258  -1.2323   0.00    0.0
2024/05/29 11:28:31.000   45.412389889   11.899108447    60.4638   5   6   3.8690   3.4254   9.1049  -1.2983  -4.0248  -1.2331   0.00    0.0
2024/05/29 11:28:32.000   45.412387587   11.899122335    60.4116   5   6   3.8690   3.4251   9.1040  -1.2986  -4.0238  -1.2338   0.00    0.0
2024/05/29 11:28:33.000   45.412386404   11.899136757    60.8271   5   6   3.8690   3.4249   9.1031  -1.2989  -4.0229  -1.2346   0.00    0.0
2024/05/29 11:28:34.000   45.412381196   11.899148729    61.2345   5   6   3.8690   3.4246   9.1022  -1.2992  -4.0219  -1.2354   0.00    0.0
2024/05/29 11:28:35.000   45.412378444   11.899163336    60.7423   5   6   3.8691   3.4244   9.1014  -1.2995  -4.0209  -1.2362   0.00    0.0
2024/05/29 11:28:36.000   45.412372460   11.899178588    60.5673   5   6   3.8691   3.4241   9.1005  -1.2998  -4.0199  -1.2370   0.00    0.0
2024/05/29 11:28:37.000   45.412369847   11.899193775    60.4446   5   6   3.8691   3.4238   9.0996  -1.3001  -4.0189  -1.2377   0.00    0.0
2024/05/29 11:28:38.000   45.412367030   11.899205419    60.2804   5   6   3.8692   3.4236   9.0987  -1.3004  -4.0179  -1.2385   0.00    0.0
2024/05/29 11:28:39.000   45.412363878   11.899217759    60.0970   5   6   3.8692   3.4233   9.0978  -1.3007  -4.0170  -1.2393   0.00    0.0
2024/05/29 11:28:40.000   45.412358271   11.899230272    60.4904   5   6   3.8692   3.4230   9.0969  -1.3010  -4.0160  -1.2401   0.00    0.0
2024/05/29 11:28:41.000   45.412351353   11.899244463    60.3160   5   6   3.8692   3.4228   9.0960  -1.3012  -4.0150  -1.2408   0.00    0.0
2024/05/29 11:28:42.000   45.412346822   11.899257933    60.4547   5   6   3.8693   3.4225   9.0951  -1.3015  -4.0140  -1.2416   0.00    0.0
2024/05/29 11:28:43.000   45.412340822   11.899269575    60.6448   5   6   3.8693   3.4222   9.0942  -1.3018  -4.0130  -1.2424   0.00    0.0
2024/05/29 11:28:44.000   45.412335695   11.899282488    60.6960   5   6   3.8693   3.4220   9.0933  -1.3021  -4.0120  -1.2432   0.00    0.0
2024/05/29 11:28:45.000   45.412330571   11.899295656    60.6185   5   6   3.8694   3.4217   9.0924  -1.3024  -4.0110  -1.2439   0.00    0.0
2024/05/29 11:28:46.000   45.412325569   11.899308222    60.5290   5   6   3.8694   3.4214   9.0915  -1.3027  -4.0101  -1.2447   0.00    0.0
2024/05/29 11:28:47.000   45.412317937   11.899319052    60.6471   5   6   3.8694   3.4212   9.0906  -1.3030  -4.0091  -1.2455   0.00    0.0
2024/05/29 11:28:48.000   45.412311789   11.899330212    60.4761   5   6   3.8694   3.4209   9.0897  -1.3033  -4.0081  -1.2463   0.00    0.0
2024/05/29 11:28:49.000   45.412304191   11.899338516    60.8246   5   6   3.8695   3.4207   9.0888  -1.3036  -4.0071  -1.2470   0.00    0.0
2024/05/29 11:28:50.000   45.412295318   11.899347216    60.5096   5   6   3.8695   3.4204   9.0879  -1.3039  -4.0061  -1.2478   0.00    0.0
2024/05/29 11:28:51.000   45.412284563   11.899356210    60.3789   5   6   3.8695   3.4201   9.0871  -1.3041  -4.0051  -1.2486   0.00    0.0
2024/05/29 11:28:52.000   45.412276094   11.899363823    60.1269   5   6   3.8695   3.4199   9.0862  -1.3044  -4.0041  -1.2493   0.00    0.0
2024/05/29 11:28:53.000   45.412269876   11.899371299    60.1471   5   6   3.8696   3.4196   9.0853  -1.3047  -4.0031  -1.2501   0.00    0.0
2024/05/29 11:28:54.000   45.412260783   11.899379029    60.4734   5   6   3.8696   3.4193   9.0844  -1.3050  -4.0021  -1.2509   0.00    0.0
2024/05/29 11:28:55.000   45.412250465   11.899385138    60.6000   5   6   3.8696   3.4191   9.0835  -1.3053  -4.0011  -1.2516   0.00    0.0
2024/05/29 11:28:56.000   45.412240644   11.899390874    60.6479   5   6   3.8697   3.4188   9.0826  -1.3056  -4.0002  -1.2524   0.00    0.0
2024/05/29 11:28:57.000   45.412231008   11.899398456    60.9106   5   6   3.8697   3.4185   9.0817  -1.3059  -3.9992  -1.2532   0.00    0.0
2024/05/29 11:28:58.000   45.412221644   11.899402718    61.0938   5   6   3.8697   3.4183   9.0808  -1.3062  -3.9982  -1.2540   0.00    0.0
2024/05/29 11:28:59.000   45.412213135   11.899406464    61.2451   5   6   3.8697   3.4180   9.0799  -1.3065  -3.9972  -1.2547   0.00    0.0
2024/05/29 11:29:00.000   45.412202582   11.899409316    60.9105   5   6   3.8698   3.4178   9.0790  -1.3067  -3.9962  -1.2555   0.00    0.0
2024/05/29 11:29:01.000   45.412193573   11.899414727    60.7357   5   6   3.8698   3.4175   9.0781  -1.3070  -3.9952  -1.2563   0.00    0.0
2024/05/29 11:29:02.000   45.412183412   11.899415310    60.6593   5   6   3.8698   3.4172   9.0772  -1.3073  -3.9942  -1.2570   0.00    0.0
2024/05/29 11:29:03.000   45.412175284   11.899418703    60.8105   5   6   3.8699   3.4170   9.0762  -1.3076  -3.9932  -1.2578   0.00    0.0
2024/05/29 11:29:04.000   45.412161549   11.899419894    60.8133   5   6   3.8699   3.4167   9.0753  -1.3079  -3.9922  -1.2586   0.00    0.0
2024/05/29 11:29:05.000   45.412150850   11.899420374    61.1765   5   6   3.8699   3.4164   9.0744  -1.3082  -3.9912  -1.2593   0.00    0.0
2024/05/29 11:29:06.000   45.412140972   11.899420660    60.9206   5   6   3.8699   3.4162   9.0735  -1.3085  -3.9902  -1.2601   0.00    0.0
2024/05/29 11:29:07.000   45.412132085   11.899423315    60.7747   5   6   3.8700   3.4159   9.0726  -1.3088  -3.9892  -1.2608   0.00    0.0
2024/05/29 11:29:08.000   45.412121913   11.899423290    61.1207   5   6   3.8700   3.4156   9.0717  -1.3090  -3.9882  -1.2616   0.00    0.0
2024/05/29 11:29:09.000   45.412109425   11.899423005    61.4568   5   6   3.8700   3.4154   9.0708  -1.3093  -3.9872  -1.2624   0.00    0.0
2024/05/29 11:29:10.000   45.412101502   11.899424941    61.0595   5   6   3.8701   3.4151   9.0699  -1.3096  -3.9862  -1.2631   0.00    0.0
2024/05/29 11:29:11.000   45.412092196   11.899422697    60.5949   5   6   3.8701   3.4149   9.0690  -1.3099  -3.9852  -1.2639   0.00    0.0
2024/05/29 11:29:12.000   45.412079356   11.899422134    60.8596   5   6   3.8701   3.4146   9.0681  -1.3102  -3.9842  -1.2647   0.00    0.0
2024/05/29 11:29:13.000   45.412068682   11.899420384    60.7286   5   6   3.8701   3.4143   9.0672  -1.3105  -3.9832  -1.2654   0.00    0.0
2024/05/29 11:29:14.000   45.412059419   11.899417967    60.4513   5   6   3.8702   3.4141   9.0663  -1.3108  -3.9822  -1.2662   0.00    0.0
2024/05/29 11:29:15.000   45.412047298   11.899415911    60.8465   5   6   3.8702   3.4138   9.0654  -1.3110  -3.9812  -1.2670   0.00    0.0
2024/05/29 11:29:16.000   45.412036696   11.899418001    61.1736   5   6   3.8702   3.4135   9.0645  -1.3113  -3.9802  -1.2677   0.00    0.0
2024/05/29 11:29:17.000   45.412024972   11.899417535    61.3635   5   6   3.8702   3.4133   9.0636  -1.3116  -3.9792  -1.2685   0.00    0.0
2024/05/29 11:29:18.000   45.412016763   11.899412537    61.0049   5   6   3.8703   3.4130   9.0627  -1.3119  -3.9782  -1.2692   0.00    0.0
2024/05/29 11:29:19.000   45.412006738   11.899406067    60.7109   5   6   3.8703   3.4127   9.0617  -1.3122  -3.9772  -1.2700   0.00    0.0
2024/05/29 11:29:20.000   45.411996235   11.899401760    60.6284   5   5   3.9212   3.8919  11.0480  -1.7033  -1.9952  -2.3657   0.00    0.0
2024/05/29 11:29:21.000   45.411987860   11.899394456    59.9430   5   5   3.9214   3.8922  11.0456  -1.7043  -1.9927  -2.3669   0.00    0.0
2024/05/29 11:29:22.000   45.411976121   11.899396346    61.1147   5   6   3.8704   3.4120   9.0590  -1.3130  -3.9742  -1.2723   0.00    0.0
2024/05/29 11:29:23.000   45.411967189   11.899385665    60.4053   5   6   3.8704   3.4117   9.0581  -1.3133  -3.9732  -1.2730   0.00    0.0
