     3.04           OBSERVATION DATA    M: Mixed            RINEX VERSION / TYPE
sbp2rinex v2.3 (RTKL                    20221206 123528 UTC PGM / RUN BY / DATE 
format: Swift Navigation SBP-JSON, option:                  COMMENT             
log: swift-gnss-20221206-124503.sbp.json                    COMMENT             
                                                            MARKER NAME         
                                                            MARKER NUMBER       
                                                            MARKER TYPE         
                                                            OBSERVER / AGENCY   
                                                            REC # / TYPE / VERS 
                                                            ANT # / TYPE        
  4388984.1634   924238.9471  4519578.2828                  APPROX POSITION XYZ 
        0.0000        0.0000        0.0000                  ANTENNA: DELTA H/E/N
G    8 C1C L1C D1C S1C C2S L2S D2S S2S                      SYS / # / OBS TYPES 
R    8 C1C L1C D1C S1C C2C L2C D2C S2C                      SYS / # / OBS TYPES 
E    8 C1B L1B D1B S1B C7I L7I D7I S7I                      SYS / # / OBS TYPES 
C    8 C2I L2I D2I S2I C7I L7I D7I S7I                      SYS / # / OBS TYPES 
  2022    12    06    11    45   22.0000000     GPS         TIME OF FIRST OBS   
  2022    12    06    12    01   40.0000000     GPS         TIME OF LAST OBS    
G L1C                                                       SYS / PHASE SHIFT   
G L2S  0.00000                                              SYS / PHASE SHIFT   
R L1C                                                       SYS / PHASE SHIFT   
R L2C                                                       SYS / PHASE SHIFT   
E L1B                                                       SYS / PHASE SHIFT   
E L7I                                                       SYS / PHASE SHIFT   
C L2I                                                       SYS / PHASE SHIFT   
C L7I                                                       SYS / PHASE SHIFT   
  6 R01  1 R02 -4 R03  5 R11  0 R12 -1 R13 -2               GLONASS SLOT / FRQ #
 C1C    0.000 C1P    0.000 C2C    0.000 C2P    0.000        GLONASS COD/PHS/BIS 
                                                            END OF HEADER       
> 2022 12 06 11 45 22.0000000  0 23       0.000000000000
G13  20547689.680   107978834.387        1564.031          53.500                                                                  
G30  21160484.820   111199096.051       -1638.336          53.000    21160486.660    86648656.613       -1277.535          50.250  
G05  21076687.280   110758746.348        -988.043          52.750    21076688.740    86305514.109        -769.500          49.250  
G07  23480536.820   123391049.770       -2691.906          49.000    23480537.840    96148865.234       -2097.445          44.500  
G15  22365355.480   117530731.3321       3061.910          49.000    22365356.880    91582411.4061       2385.984          44.750  
G14  20999258.640   110351843.535        1056.121          51.250                                                                  
G20  22121125.200   116247302.082       -3047.793          50.000                                                                  
R02  19164129.800   102263509.164         149.855          57.500    19164135.080    79538279.191         116.734          53.000  
R13  21047700.620   112393576.574        3324.789          45.750    21047705.200    87417224.848        2584.512          43.500  
R12  19147430.540   102282172.258        -140.566          57.500    19147435.660    79552799.258        -108.340          53.250  
R11  21917540.820   117120721.859       -3718.656          53.000    21917546.640    91093878.516       -2893.035          51.250  
R01  21755379.300   116294980.414       -3578.578          49.250    21755388.680    90451674.035       -2783.359          47.000  
R03  21475325.940   114959129.504        3517.676          51.250    21475334.380    89412658.418        2736.273          49.500  
C37  24787029.760   129072569.941        2915.266          46.750                                                                  
C07  38966890.300   202910826.723          73.230          44.000    38966889.000   156903511.586          57.039          44.750  
C23  21904153.160   114060675.750         699.590          53.750                                                                  
C25  22909530.340   119295939.250       -2110.156          51.750                                                                  
C32  22066183.440   114904409.172         592.625          53.500                                                                  
C10  38632282.440   201168418.230         474.586          43.250    38632285.040   155556184.320         366.527          48.000  
E04  24811506.400   130385338.652       -1844.063          48.500    24811507.960    99905644.820       -1414.051          51.250  
E09  23556414.140   123789789.488         551.559          51.250    23556416.080    94851910.641         422.758          51.750  
E24  26859153.760   141145832.289        3093.977          41.250    26859157.620   108150694.121        2370.414          45.500  
E31  23981624.220   126024298.344        1324.520          49.750    23981628.180    96564067.168        1015.828          51.750  
> 2022 12 06 11 45 23.0000000  0 23       0.000000000000
G13  20547392.760   107977273.449        1563.500          53.750                                                                  
G30  21160797.240   111200737.691       -1639.191          52.750    21160798.880    86649935.805       -1276.359          49.750  
G05  21076876.040   110759737.652        -989.125          52.750    21076877.400    86306286.559        -770.016          49.250  
G07  23481049.700   123393744.570       -2692.652          49.000    23481050.540    96150965.066       -2096.672          43.750  
G15  22364773.180   117527671.703        3062.883          49.250    22364774.620    91580027.289        2386.098          44.750  
G14  20999058.580   110350791.367        1054.684          51.500                                                                  
G20  22121705.780   116250353.121       -3048.297          50.000                                                                  
R02  19164102.320   102263361.863         149.992          57.500    19164107.080    79538164.629         115.891          52.750  
R13  21047078.600   112390254.934        3322.438          46.000    21047083.860    87414641.352        2585.742          43.500  
R12  19147457.260   102282315.957        -141.523          57.500    19147462.480    79552911.027        -110.258          53.250  
R11  21918237.400   117124443.258       -3719.059          53.250    21918243.760    91096772.938       -2893.000          51.500  
R01  21756049.120   116298562.191       -3578.992          49.750    21756058.660    90454459.871       -2784.246          47.000  
R03  21474669.200   114955614.656        3517.285          51.250    21474678.220    89409924.656        2736.398          49.750  
C37  24786470.380   129069657.379        2915.449          46.500                                                                  
C07  38966876.400   202910755.176          74.656          43.750    38966874.780   156903456.266          58.875          44.000  
C23  21904019.400   114059978.848         699.512          53.250                                                                  
C25  22909936.200   119298052.809       -2109.852          51.250                                                                  
C32  22066070.300   114903820.293         591.875          53.000                                                                  
C10  38632191.680   201167947.063         473.383          42.750    38632194.420   155555820.004         366.289          47.500  
E04  24811858.100   130387186.531       -1845.070          48.250    24811859.620    99907060.730       -1413.598          51.250  
E09  23556309.600   123789240.094         551.703          51.250    23556311.460    94851489.676         423.988          51.750  
E24  26858565.340   141142740.922        3092.406          41.250    26858569.400   108148325.426        2370.414          45.750  
E31  23981372.780   126022976.082        1325.168          49.750    23981376.480    96563054.008        1015.887          51.750  
> 2022 12 06 11 45 24.0000000  0 23       0.000000000000
G13  20547096.220   107975714.434        1562.594          53.500                                                                  
G30  21161110.080   111202381.199       -1638.969          52.500    21161111.620    86651216.457       -1277.020          50.000  
G05  21077065.280   110760731.191        -990.719          52.500    21077066.280    86307060.734        -771.941          49.250  
G07  23481562.940   123396441.031       -2693.195          48.750    23481563.280    96153066.207       -2097.738          43.750  
G15  22364191.080   117524613.875        3061.953          48.750    22364192.800    91577644.559        2385.309          44.750  
G14  20998858.860   110349741.379        1053.293          51.250                                                                  
G20  22122286.400   116253406.074       -3049.379          49.500                                                                  
R02  19164075.040   102263216.898         148.660          57.750    19164080.040    79538051.875         115.332          52.750  
R13  21046456.980   112386935.379        3322.613          46.000    21046461.780    87412059.480        2584.977          43.750  
R12  19147484.340   102282462.023        -142.879          57.500    19147490.080    79553024.629        -111.148          53.250  
R11  21918933.960   117128166.504       -3719.758          53.250    21918940.420    91099668.793       -2893.438          51.500  
R01  21756719.160   116302145.973       -3580.156          49.500    21756728.700    90457247.242       -2784.480          47.000  
R03  21474012.920   114952101.695        3516.691          51.250    21474022.540    89407192.348        2735.078          49.750  
C37  24785911.220   129066746.559        2914.387          46.500                                                                  
C07  38966863.180   202910685.344          73.039          43.500    38966861.500   156903402.273          59.145          44.500  
C23  21903886.040   114059283.949         698.848          53.250                                                                  
C25  22910342.340   119300168.195       -2111.754          51.250                                                                  
C32  22065957.580   114903233.457         589.422          52.750                                                                  
C10  38632101.900   201167477.602         473.910          43.000    38632104.220   155555456.988         366.816          47.750  
E04  24812210.200   130389036.203       -1845.273          48.500    24812211.640    99908478.008       -1413.453          51.250  
E09  23556205.260   123788692.535         551.414          51.250    23556207.260    94851070.121         422.180          51.750  
E24  26857977.540   141139651.293        3093.367          41.000    26857981.520   108145958.031        2369.664          45.750  
E31  23981121.400   126021655.824        1324.770          49.750    23981125.260    96562042.371        1014.430          51.750  
> 2022 12 06 11 45 25.0000000  0 23       0.000000000000
G13  20546799.480   107974155.176        1562.813          53.500                                                                  
G30  21161422.800   111204024.453       -1639.367          52.750    21161424.180    86652496.906       -1278.664          49.750  
G05  21077254.500   110761724.820        -990.527          52.750    21077255.500    86307834.984        -771.582          49.000  
G07  23482075.900   123399137.000       -2692.258          48.750    23482076.100    96155166.953       -2098.281          44.000  
G15  22363609.460   117521555.691        3061.977          49.000    22363610.960    91575261.555        2384.570          44.750  
G14  20998659.020   110348691.453        1053.039          51.250                                                                  
G20  22122867.300   116256458.820       -3050.262          49.500                                                                  
R02  19164047.860   102263072.063         148.461          57.750    19164052.860    79537939.230         115.301          53.000  
R13  21045835.560   112383615.711        3322.164          46.250    21045839.340    87409477.520        2583.441          43.750  
R12  19147511.840   102282608.289        -143.664          57.500    19147516.840    79553138.398        -111.430          53.250  
R11  21919630.620   117131889.414       -3719.297          53.250    21919637.040    91102564.391       -2893.680          51.500  
R01  21757389.060   116305729.563       -3580.750          49.500    21757399.520    90460034.469       -2784.109          47.000  
R03  21473356.460   114948588.391        3516.719          51.500    21473365.840    89404459.777        2734.746          49.750  
C37  24785351.860   129063835.375        2913.320          46.250                                                                  
C07  38966849.820   202910615.078          72.797          43.250    38966848.220   156903347.918          57.715          45.000  
C23  21903752.620   114058588.914         698.477          53.250                                                                  
C25  22910748.460   119302283.277       -2112.273          51.250                                                                  
C32  22065844.820   114902646.559         590.086          53.000                                                                  
C10  38632011.560   201167007.754         474.633          42.750    38632014.100   155555093.656         366.820          48.000  
E04  24812562.280   130390885.523       -1846.113          48.500    24812563.600    99909895.012       -1415.203          51.000  
E09  23556100.880   123788144.668         551.594          51.250    23556103.000    94850650.301         422.102          51.750  
E24  26857389.420   141136561.180        3092.715          41.000    26857393.360   108143590.289        2369.430          45.500  
E31  23980870.200   126020335.406        1324.559          50.000    23980874.020    96561030.617        1014.793          51.750  
> 2022 12 06 11 45 26.0000000  0 23       0.000000000000
G13  20546502.260   107972592.859        1562.199          53.250                                                                  
G30  21161735.000   111205664.605       -1641.117          52.750    21161736.420    86653774.945       -1278.086          50.000  
G05  21077443.180   110762715.723        -991.918          53.000    21077444.200    86308607.113        -773.813          49.000  
G07  23482588.020   123401829.645       -2692.734          48.750    23482588.560    96157265.129       -2098.855          43.750  
G15  22363026.840   117518494.344        3061.957          49.000    22363028.760    91572876.098        2384.695          45.000  
G14  20998458.640   110347638.750        1051.727          51.250                                                                  
G20  22123447.720   116259508.523       -3050.234          49.750                                                                  
R02  19164020.400   102262924.473         147.500          57.250    19164024.960    79537824.434         114.438          53.000  
R13  21045213.220   112380293.043        3324.117          45.500    21045217.660    87406893.227        2585.000          43.750  
R12  19147538.940   102282751.852        -144.133          57.000    19147543.440    79553250.059        -112.598          53.500  
R11  21920326.480   117135609.105       -3719.977          52.500    21920333.240    91105457.480       -2893.152          51.750  
R01  21758058.820   116309310.051       -3580.523          48.750    21758068.760    90462819.301       -2785.586          46.750  
R03  21472699.880   114945071.887        3516.430          51.250    21472708.720    89401724.730        2734.324          50.000  
C37  24784792.220   129060921.027        2913.270          46.750                                                                  
C07  38966835.620   202910541.605          75.004          43.750    38966834.420   156903291.090          56.867          45.250  
C23  21903618.620   114057890.949         697.645          54.000                                                                  
C25  22911154.160   119304395.262       -2112.266          52.000                                                                  
C32  22065731.580   114902056.766         589.098          53.500                                                                  
C10  38631920.640   201166534.648         474.516          43.250    38631923.140   155554727.813         365.809          48.000  
E04  24812913.600   130392731.664       -1847.598          48.500    24812914.980    99911309.578       -1415.043          51.250  
E09  23555996.140   123787593.652         550.918          51.250    23555998.220    94850228.094         422.113          51.750  
E24  26856800.360   141133467.801        3092.730          40.750    26856804.740   108141220.051        2370.586          45.750  
E31  23980618.160   126019011.992        1323.238          49.750    23980622.200    96560016.574        1014.086          51.750  
> 2022 12 06 11 45 27.0000000  0 23       0.000000000000
G13  20546205.620   107971034.633        1562.297          53.250                                                                  
G30  21162047.920   111207308.797       -1640.051          53.000    21162049.260    86655056.145       -1277.539          50.000  
G05  21077632.860   110763711.012        -992.727          53.500    21077633.580    86309382.664        -772.496          49.000  
G07  23483100.940   123404526.133       -2691.785          48.750    23483101.320    96159366.289       -2098.703          43.750  
G15  22362444.780   117515436.965        3062.848          49.250    22362446.940    91570493.730        2385.414          45.000  
G14  20998259.240   110346590.391        1052.262          51.500                                                                  
G20  22124028.800   116262562.316       -3048.969          50.000                                                                  
R02  19163993.620   102262781.391         147.059          57.500    19163997.960    79537713.152         114.633          53.000  
R13  21044591.700   112376974.656        3323.813          45.750    21044596.140    87404312.273        2585.680          44.000  
R12  19147566.580   102282899.973        -143.941          57.250    19147571.160    79553365.258        -112.355          53.250  
R11  21921023.240   117139332.852       -3720.141          52.750    21921030.020    91108353.730       -2891.172          51.750  
R01  21758729.180   116312894.719       -3579.199          48.500    21758739.860    90465607.395       -2784.336          46.750  
R03  21472043.620   114941559.473        3516.984          51.500    21472052.780    89398992.859        2734.277          49.750  
C37  24784233.120   129058010.586        2915.070          46.750                                                                  
C07  38966822.500   202910471.973          72.961          43.750    38966821.120   156903237.262          55.703          45.250  
C23  21903485.400   114057197.121         698.008          53.750                                                                  
C25  22911560.580   119306511.227       -2112.023          52.000                                                                  
C32  22065619.160   114901471.164         589.664          53.500                                                                  
C10  38631830.620   201166065.402         473.254          43.500    38631833.020   155554364.969         365.691          48.000  
E04  24813265.380   130394581.750       -1845.371          48.250    24813267.180    99912727.176       -1414.199          51.750  
E09  23555892.020   123787046.637         551.340          51.250    23555894.160    94849808.957         421.520          51.750  
E24  26856212.540   141130378.309        3094.125          41.000    26856216.760   108138852.766        2369.539          45.500  
E31  23980367.160   126017692.746        1323.488          49.750    23980371.160    96559005.730        1014.555          51.750  
> 2022 12 06 11 45 28.0000000  0 23       0.000000000000
G13  20545909.160   107969476.777        1561.750          53.750                                                                  
G30  21162360.900   111208953.332       -1640.668          53.500    21162362.160    86656337.594       -1278.996          50.000  
G05  21077822.540   110764706.992        -992.641          53.750    21077822.840    86310158.746        -774.164          49.000  
G07  23483613.520   123407222.734       -2693.426          49.000    23483614.520    96161467.512       -2098.895          43.750  
G15  22361862.880   117512379.852        3061.578          49.500    22361865.520    91568111.570        2386.727          45.000  
G14  20998059.980   110345542.691        1050.363          52.000                                                                  
G20  22124610.000   116265616.496       -3049.180          50.250                                                                  
R02  19163967.120   102262639.066         145.766          57.500    19163971.440    79537602.445         113.645          53.000  
R13  21043970.860   112373656.793        3322.926          46.000    21043975.240    87401731.691        2582.156          43.750  
R12  19147594.600   102283048.898        -145.844          57.250    19147598.780    79553481.090        -113.266          53.250  
R11  21921720.000   117143056.867       -3720.066          52.500    21921727.160    91111250.184       -2893.324          51.750  
R01  21759399.900   116316479.844       -3581.449          48.500    21759410.020    90468395.813       -2785.699          46.750  
R03  21471387.780   114938047.379        3516.473          51.500    21471396.740    89396261.215        2733.859          49.500  
C37  24783674.300   129055100.371        2914.082          46.250                                                                  
C07  38966809.420   202910402.551          73.184          43.500    38966807.760   156903183.578          57.719          45.250  
C23  21903352.260   114056503.758         697.344          53.750                                                                  
C25  22911966.780   119308627.488       -2112.406          51.750                                                                  
C32  22065506.860   114900886.090         589.176          53.250                                                                  
C10  38631740.740   201165596.320         472.586          43.250    38631742.960   155554002.246         364.926          48.250  
E04  24813617.360   130396432.102       -1846.133          48.250    24813619.340    99914144.980       -1415.238          51.750  
E09  23555787.880   123786499.922         550.355          51.250    23555790.140    94849390.039         420.234          51.750  
E24  26855624.140   141127288.926        3094.531          40.750    26855628.860   108136485.590        2370.266          45.500  
E31  23980116.040   126016373.973        1323.625          49.750    23980120.240    96557995.227        1013.398          51.750  
> 2022 12 06 11 45 29.0000000  0 23       0.000000000000
G13  20545612.780   107967919.801        1561.371          53.500                                                                  
G30  21162674.040   111210598.727       -1640.500          53.250    21162675.100    86657619.719       -1278.285          49.750  
G05  21078012.440   110765704.160        -991.766          53.750    21078012.420    86310935.773        -772.180          48.750  
G07  23484126.660   123409919.949       -2693.734          49.000    23484127.420    96163569.277       -2098.824          43.000  
G15  22361281.580   117509323.504        3061.199          49.250    22361283.840    91565730.000        2384.871          44.750  
G14  20997860.760   110344496.145        1051.680          52.000                                                                  
G20  22125191.300   116268671.570       -3050.277          50.250                                                                  
R02  19163940.640   102262498.000         145.297          57.500    19163945.020    79537492.730         112.809          53.250  
R13  21043350.000   112370339.973        3322.219          46.500    21043353.900    87399151.949        2584.410          43.750  
R12  19147622.920   102283199.129        -145.906          57.250    19147626.940    79553597.934        -113.879          53.250  
R11  21922416.700   117146781.688       -3720.059          52.250    21922424.240    91114147.270       -2892.949          52.000  
R01  21760070.080   116320065.895       -3581.262          48.000    21760080.440    90471184.953       -2787.703          46.750  
R03  21470732.020   114934536.094        3516.305          51.500    21470740.100    89393530.219        2734.551          49.750  
C37  24783115.520   129052190.883        2913.191          46.250                                                                  
C07  38966796.060   202910333.797          73.371          44.000    38966794.640   156903130.395          56.059          45.750  
C23  21903219.360   114055811.363         696.844          53.750                                                                  
C25  22912373.500   119310744.559       -2112.070          51.750                                                                  
C32  22065394.740   114900302.031         587.414          53.500                                                                  
C10  38631650.560   201165127.949         472.613          43.250    38631653.000   155553640.066         365.238          48.000  
E04  24813969.680   130398283.195       -1846.598          48.250    24813971.680    99915563.352       -1414.875          51.750  
E09  23555684.040   123785954.000         550.586          51.250    23555686.260    94848971.738         422.191          52.000  
E24  26855036.780   141124200.246        3094.172          41.000    26855041.240   108134118.941        2370.410          45.750  
E31  23979865.260   126015056.129        1322.531          49.750    23979869.440    96556985.461        1013.578          52.000  
> 2022 12 06 11 45 30.0000000  0 23       0.000000000000
G13  20545316.780   107966364.391        1561.598          53.750                                                                  
G30  21162987.540   111212245.641       -1641.605          53.750    21162988.500    86658903.031       -1279.488          49.750  
G05  21078202.680   110766703.215        -992.695          53.750    21078202.320    86311714.242        -774.434          48.500  
G07  23484639.960   123412618.492       -2692.910          48.750    23484641.100    96165672.020       -2097.215          43.250  
G15  22360700.120   117506268.613        3060.000          49.750    22360702.420    91563349.551        2385.063          44.750  
G14  20997661.980   110343451.445        1050.398          52.000                                                                  
G20  22125773.140   116271728.215       -3051.379          50.250                                                                  
R02  19163914.640   102262358.887         144.742          57.500    19163918.840    79537384.531         112.473          52.750  
R13  21042729.440   112367024.891        3322.617          46.250    21042733.060    87396573.551        2582.660          43.500  
R12  19147651.600   102283351.359        -146.406          57.500    19147655.620    79553716.332        -114.406          53.000  
R11  21923114.260   117150507.977       -3720.453          52.500    21923121.640    91117045.500       -2894.738          51.500  
R01  21760741.240   116323653.566       -3582.234          48.000    21760751.220    90473975.363       -2785.973          46.250  
R03  21470076.320   114931026.328        3515.449          51.500    21470084.460    89390800.395        2734.484          49.250  
C37  24782556.760   129049282.816        2913.633          46.000                                                                  
C07  38966783.220   202910266.395          72.637          43.500    38966782.000   156903078.297          57.992          45.750  
C23  21903086.800   114055120.617         696.066          53.500                                                                  
C25  22912780.300   119312863.102       -2112.848          51.500                                                                  
C32  22065282.920   114899719.684         587.070          53.250                                                                  
C10  38631560.800   201164660.938         472.484          43.000    38631563.300   155553278.938         365.625          48.500  
E04  24814321.840   130400135.734       -1847.672          48.000    24814324.200    99916982.816       -1414.680          51.750  
E09  23555580.500   123785409.555         550.875          51.000    23555582.620    94848554.570         422.148          51.750  
E24  26854449.240   141121112.891        3095.855          41.000    26854453.580   108131753.301        2369.969          45.750  
E31  23979614.740   126013739.945        1321.484          49.500    23979618.980    96555976.953        1013.086          51.750  
> 2022 12 06 11 45 31.0000000  0 23       0.000000000000
G13  20545020.280   107964807.953        1560.355          53.000                                                                  
G30  21163300.800   111213891.492       -1641.004          53.250    21163301.740    86660185.516       -1279.031          49.750  
G05  21078392.560   110767701.555        -994.320          53.750    21078392.020    86312492.172        -774.602          48.500  
G07  23485152.920   123415315.723       -2694.445          48.500    23485154.620    96167773.754       -2098.445          42.500  
G15  22360118.560   117503212.555        3060.461          49.500    22360121.000    91560968.219        2384.465          45.000  
G14  20997463.060   110342405.988        1048.902          52.000                                                                  
G20  22126354.540   116274783.848       -3051.695          50.250                                                                  
R02  19163888.300   102262219.086         143.504          57.500    19163892.640    79537275.801         111.551          52.750  
R13  21042108.300   112363708.895        3321.398          46.250    21042112.620    87393994.434        2582.730          43.500  
R12  19147680.320   102283502.938        -148.105          57.500    19147684.120    79553834.230        -115.063          53.000  
R11  21923811.520   117154233.152       -3720.164          52.750    21923818.580    91119942.848       -2894.527          51.500  
R01  21761411.500   116327240.238       -3582.293          48.000    21761421.800    90476764.988       -2785.367          46.000  
R03  21469420.780   114927515.410        3514.590          51.750    21469428.080    89388069.699        2733.363          48.750  
C37  24781998.200   129046373.578        2913.512          46.000                                                                  
C07  38966769.900   202910197.801          73.488          43.250    38966768.920   156903025.258          57.063          46.500  
C23  21902953.900   114054428.949         694.887          53.250                                                                  
C25  22913186.980   119314980.559       -2114.703          51.500                                                                  
C32  22065170.980   114899136.445         587.047          53.250                                                                  
C10  38631470.780   201164192.680         472.246          43.000    38631473.300   155552916.855         366.652          48.750  
E04  24814674.100   130401987.105       -1846.867          48.000    24814676.580    99918401.414       -1415.238          51.500  
E09  23555476.620   123784864.008         549.215          51.250    23555478.860    94848136.547         420.867          51.750  
E24  26853861.180   141118024.293        3093.250          41.000    26853865.800   108129386.727        2370.215          45.500  
E31  23979364.240   126012422.789        1320.184          49.750    23979368.340    96554967.707        1012.387          52.000  
> 2022 12 06 11 45 32.0000000  0 23       0.000000000000
G13  20544724.240   107963252.121        1560.371          53.250                                                                  
G30  21163614.000   111215537.922       -1641.824          53.250    21163615.160    86661468.441       -1279.414          50.000  
G05  21078582.960   110768700.828        -994.605          53.750    21078582.140    86313270.832        -776.207          48.500  
G07  23485666.060   123418013.324       -2693.402          48.250    23485667.680    96169875.777       -2098.492          42.750  
G15  22359537.280   117500157.012        3059.559          49.250    22359539.380    91558587.293        2384.793          45.250  
G14  20997264.400   110341361.434        1048.750          52.000                                                                  
G20  22126936.260   116277840.102       -3051.605          50.000                                                                  
R02  19163862.220   102262080.285         143.395          57.500    19163867.040    79537167.840         111.152          52.750  
R13  21041487.940   112360393.641        3319.445          46.250    21041492.220    87391415.914        2582.008          44.000  
R12  19147708.740   102283655.574        -148.695          57.500    19147712.620    79553952.941        -116.570          53.250  
R11  21924508.760   117157958.840       -3720.914          52.500    21924515.820    91122840.613       -2894.363          51.750  
R01  21762082.560   116330827.605       -3584.012          47.750    21762092.780    90479555.145       -2785.547          46.000  
R03  21468765.720   114924005.039        3514.359          52.000    21468772.420    89385339.402        2733.918          49.250  
C37  24781439.640   129043464.828        2914.789          46.250                                                                  
C07  38966756.300   202910129.609          72.531          43.500    38966755.940   156902972.551          56.727          46.750  
C23  21902821.220   114053737.984         695.527          53.750                                                                  
C25  22913593.760   119317098.559       -2113.387          52.000                                                                  
C32  22065059.140   114898553.984         586.699          53.750                                                                  
C10  38631381.220   201163724.852         472.926          43.750    38631383.460   155552555.129         364.480          48.250  
E04  24815026.600   130403838.988       -1847.961          48.000    24815029.020    99919820.398       -1414.973          51.750  
E09  23555373.000   123784318.977         549.504          51.250    23555375.140    94847718.949         420.438          51.750  
E24  26853273.740   141114936.098        3092.914          40.500    26853278.140   108127020.449        2370.289          45.750  
E31  23979113.840   126011106.344        1321.785          49.750    23979117.820    96553959.016        1012.633          52.000  
> 2022 12 06 11 45 33.0000000  0 23       0.000000000000
G13  20544428.100   107961696.539        1559.918          53.250                                                                  
G30  21163927.520   111217184.566       -1642.629          53.250    21163928.540    86662751.543       -1280.270          50.000  
G05  21078773.200   110769700.664        -995.258          53.500    21078772.260    86314049.922        -775.887          48.250  
G07  23486179.300   123420710.906       -2692.090          48.250    23486180.840    96171977.813       -2099.625          42.750  
G15  22358956.000   117497101.602        3059.289          49.500    22358957.640    91556206.445        2384.109          45.250  
G14  20997065.960   110340317.391        1048.063          52.250                                                                  
G20  22127517.960   116280896.633       -3050.691          50.000                                                                  
R02  19163836.440   102261942.117         142.625          57.500    19163841.040    79537060.371         111.180          53.000  
R13  21040867.340   112357078.789        3319.348          46.000    21040871.220    87388837.680        2581.992          43.750  
R12  19147737.480   102283808.883        -148.891          57.500    19147741.600    79554072.180        -115.641          53.250  
R11  21925205.900   117161684.680       -3721.340          52.500    21925213.000    91125738.484       -2894.512          52.000  
R01  21762753.120   116334415.219       -3582.961          47.500    21762764.000    90482345.531       -2787.641          46.000  
R03  21468110.040   114920494.840        3514.938          52.000    21468116.260    89382609.238        2734.727          49.250  
C37  24780880.700   129040556.160        2913.676          46.000                                                                  
C07  38966743.520   202910061.492          72.961          44.000    38966742.820   156902919.852          54.484          46.500  
C23  21902688.640   114053047.359         694.695          54.000                                                                  
C25  22914000.520   119319216.738       -2113.465          52.000                                                                  
C32  22064947.340   114897971.902         587.117          53.750                                                                  
C10  38631291.300   201163257.047         472.820          44.000    38631293.560   155552193.383         366.098          48.000  
E04  24815378.860   130405690.988       -1848.477          47.750    24815381.320    99921239.434       -1415.820          51.500  
E09  23555269.540   123783774.125         549.234          51.500    23555271.380    94847301.449         420.500          51.750  
E24  26852686.160   141111847.926        3091.727          40.750    26852690.460   108124654.184        2369.223          46.000  
E31  23978863.480   126009790.203        1320.809          49.750    23978867.280    96552950.543        1012.520          52.000  
> 2022 12 06 11 45 34.0000000  0 23       0.000000000000
G13  20544132.160   107960141.324        1560.445          53.250                                                                  
G30  21164240.920   111218831.539       -1642.172          53.250    21164241.960    86664034.895       -1279.684          50.000  
G05  21078963.500   110770701.168        -995.973          53.500    21078962.640    86314829.531        -775.285          48.250  
G07  23486692.660   123423408.602       -2692.211          48.250    23486694.040    96174079.883       -2099.098          42.750  
G15  22358374.800   117494046.441        3059.297          49.750    22358376.360    91553825.801        2385.824          45.000  
G14  20996867.300   110339273.992        1049.625          52.000                                                                  
G20  22128099.460   116283953.527       -3050.320          50.000                                                                  
R02  19163810.780   102261804.660         142.121          57.750    19163815.640    79536953.457         110.129          52.750  
R13  21040246.300   112353764.398        3320.965          45.500    21040250.880    87386259.848        2582.184          43.500  
R12  19147766.320   102283962.961        -148.348          57.500    19147770.180    79554192.016        -115.363          53.250  
R11  21925903.300   117165410.770       -3722.047          52.750    21925910.360    91128636.555       -2894.512          51.750  
R01  21763424.080   116338003.254       -3582.730          47.500    21763435.140    90485136.211       -2787.320          46.000  
R03  21467454.600   114916984.938        3515.098          52.000    21467460.480    89379879.313        2733.578          49.250  
C37  24780322.340   129037647.723        2913.258          46.250                                                                  
C07  38966730.680   202909993.527          72.348          44.250    38966730.060   156902867.316          55.543          46.250  
C23  21902556.100   114052357.180         694.227          54.000                                                                  
C25  22914407.400   119321335.195       -2114.660          52.000                                                                  
C32  22064835.760   114897390.320         585.867          53.750                                                                  
C10  38631201.560   201162789.414         473.668          44.000    38631203.940   155551831.785         366.336          48.000  
E04  24815731.180   130407543.207       -1847.180          47.500    24815733.840    99922658.672       -1415.520          51.500  
E09  23555165.840   123783229.547         548.797          51.250    23555167.840    94846884.176         420.801          51.750  
E24  26852098.500   141108759.902        3092.801          41.250    26852102.880   108122288.047        2369.961          46.000  
E31  23978613.260   126008474.512        1319.352          49.750    23978616.960    96551942.398        1011.809          52.000  
> 2022 12 06 11 45 35.0000000  0 23       0.000000000000
G13  20543836.000   107958585.336        1560.238          53.250                                                                  
G30  21164554.260   111220477.715       -1642.574          53.500    21164555.260    86665317.617       -1278.672          50.000  
G05  21079153.780   110771701.215        -996.215          53.500    21079152.840    86315608.797        -775.453          48.250  
G07  23487205.660   123426105.266       -2691.934          48.250    23487207.500    96176181.184       -2097.773          42.750  
G15  22357793.440   117490990.414        3062.391          50.000    22357794.800    91551444.461        2384.203          45.250  
G14  20996668.600   110338230.098        1047.184          52.250                                                                  
G20  22128681.080   116287009.668       -3051.949          50.000                                                                  
R02  19163784.900   102261666.777         141.699          57.750    19163789.540    79536846.215         110.766          52.750  
R13  21039624.180   112350449.375        3320.020          45.500    21039629.580    87383681.488        2580.438          43.750  
R12  19147794.860   102284116.645        -149.570          57.500    19147799.240    79554311.543        -116.285          53.250  
R11  21926600.400   117169135.984       -3721.652          53.000    21926607.460    91131533.938       -2893.953          51.500  
R01  21764095.060   116341590.527       -3583.074          47.750    21764105.940    90487926.316       -2787.938          46.000  
R03  21466798.780   114913474.172        3514.895          52.250    21466804.700    89377148.719        2734.047          49.250  
C37  24779763.400   129034738.383        2912.008          46.250                                                                  
C07  38966717.460   202909924.648          73.133          44.250    38966716.740   156902814.027          56.789          46.500  
C23  21902423.400   114051666.340         694.828          54.000                                                                  
C25  22914814.020   119323452.820       -2113.203          52.000                                                                  
C32  22064724.000   114896808.137         586.375          54.000                                                                  
C10  38631111.360   201162320.809         473.195          44.250    38631113.940   155551469.422         365.516          48.000  
E04  24816083.480   130409394.539       -1847.438          47.500    24816086.160    99924077.215       -1415.699          51.500  
E09  23555062.020   123782684.113         550.063          51.250    23555064.080    94846466.242         421.234          52.000  
E24  26851510.660   141105670.891        3094.461          41.250    26851515.240   108119921.148        2369.133          46.000  
E31  23978362.720   126007158.109        1320.523          49.750    23978366.460    96550933.738        1011.027          52.000  
> 2022 12 06 11 45 36.0000000  0 23       0.000000000000
G13  20543539.920   107957030.113        1559.742          53.250                                                                  
G30  21164867.500   111222124.594       -1641.555          53.250    21164868.740    86666600.902       -1278.574          50.250  
G05  21079344.060   110772702.340        -997.523          53.500    21079343.200    86316388.875        -776.191          48.250  
G07  23487718.920   123428802.414       -2692.020          48.500    23487720.900    96178282.844       -2098.043          42.500  
G15  22357212.000   117487935.000        3061.148          50.000    22357213.600    91549063.648        2385.336          45.250  
G14  20996470.360   110337187.238        1048.816          52.250                                                                  
G20  22129262.480   116290066.566       -3051.324          50.000                                                                  
R02  19163759.020   102261530.063         141.699          57.500    19163763.880    79536739.883         110.426          52.500  
R13  21039003.360   112347135.273        3318.113          45.500    21039008.740    87381103.855        2581.547          43.500  
R12  19147823.400   102284271.508        -149.902          57.250    19147828.400    79554431.992        -116.656          53.250  
R11  21927297.300   117172861.863       -3720.426          52.750    21927304.520    91134431.848       -2893.145          51.250  
R01  21764766.300   116345178.609       -3582.340          47.500    21764777.800    90490717.020       -2786.434          46.000  
R03  21466142.780   114909964.063        3515.047          52.000    21466148.920    89374418.641        2733.809          49.000  
C37  24779205.000   129031829.645        2913.527          46.250                                                                  
C07  38966704.440   202909856.301          74.305          44.000    38966703.740   156902761.195          58.055          46.500  
C23  21902290.940   114050976.340         695.055          53.750                                                                  
C25  22915220.720   119325571.113       -2114.063          52.000                                                                  
C32  22064612.260   114896226.848         586.320          53.750                                                                  
C10  38631021.440   201161852.781         473.316          43.750    38631024.140   155551107.512         366.016          48.000  
E04  24816435.920   130411246.504       -1846.711          47.500    24816438.580    99925496.246       -1414.707          51.500  
E09  23554958.360   123782139.352         550.023          51.250    23554960.380    94846048.828         420.629          51.750  
E24  26850923.300   141102582.418        3094.984          41.000    26850927.540   108117554.656        2370.195          46.000  
E31  23978112.560   126005842.563        1320.992          50.000    23978116.120    96549925.711        1011.621          52.000  
> 2022 12 06 11 45 37.0000000  0 23       0.000000000000
G13  20543243.040   107955469.602        1560.316          53.250                                                                  
G30  21165179.680   111223766.164       -1641.609          53.250    21165181.220    86667880.055       -1279.758          50.000  
G05  21079533.320   110773698.508        -996.301          53.250    21079532.920    86317165.117        -776.152          48.500  
G07  23488231.240   123431494.059       -2691.668          48.500    23488232.780    96180380.199       -2097.848          41.750  
G15  22356629.420   117484874.207        3059.762          50.000    22356631.320    91546678.613        2385.535          45.250  
G14  20996270.800   110336139.379        1047.754          52.250                                                                  
G20  22129843.160   116293118.203       -3052.598          50.250                                                                  
R02  19163732.460   102261388.375         141.418          57.500    19163737.040    79536629.684         110.129          52.500  
R13  21038381.480   112343815.953        3321.121          45.250    21038387.740    87378522.160        2581.086          43.750  
R12  19147851.340   102284421.453        -151.293          57.000    19147856.560    79554548.617        -116.680          53.250  
R11  21927993.240   117176582.273       -3719.621          52.500    21928000.420    91137325.512       -2893.590          51.250  
R01  21765436.080   116348761.352       -3583.949          46.750    21765447.460    90493503.586       -2785.941          46.000  
R03  21465486.060   114906448.492        3515.625          51.750    21465492.420    89371684.305        2735.922          49.250  
C37  24778645.400   129028915.555        2912.328          46.000                                                                  
C07  38966690.160   202909782.527          72.977          44.000    38966689.900   156902704.168          55.738          47.000  
C23  21902157.460   114050281.215         694.516          53.750                                                                  
C25  22915626.540   119327684.125       -2112.582          51.750                                                                  
C32  22064499.660   114895640.480         586.047          53.500                                                                  
C10  38630930.440   201161379.324         472.082          43.500    38630933.240   155550741.402         366.875          48.250  
E04  24816787.360   130413093.063       -1847.035          47.500    24816790.020    99926911.141       -1414.895          51.500  
E09  23554853.640   123781589.234         549.547          51.250    23554855.700    94845627.316         421.008          51.750  
E24  26850334.380   141099488.449        3093.250          41.250    26850338.720   108115183.965        2371.363          46.000  
E31  23977861.440   126004521.797        1320.809          50.250    23977864.780    96548913.707        1011.980          52.000  
> 2022 12 06 11 45 38.0000000  0 23       0.000000000000
G13  20542947.180   107953914.461        1560.969          53.000                                                                  
G30  21165493.020   111225413.055       -1642.000          53.250    21165494.760    86669163.348       -1279.281          50.250  
G05  21079723.840   110774700.344        -996.660          53.250    21079723.720    86317945.762        -777.313          48.500  
G07  23488744.400   123434190.758       -2691.906          48.500    23488745.440    96182481.555       -2097.273          42.250  
G15  22356048.140   117481818.656        3060.527          49.750    22356049.840    91544297.676        2386.617          45.250  
G14  20996072.380   110335097.160        1047.609          52.000                                                                  
G20  22130425.080   116296175.223       -3051.383          49.750                                                                  
R02  19163707.040   102261252.465         140.566          57.250    19163711.720    79536523.973         109.199          52.500  
R13  21037760.000   112340502.207        3319.512          44.750    21037766.480    87375944.820        2582.219          43.750  
R12  19147880.380   102284577.246        -150.801          56.750    19147886.120    79554669.785        -117.223          53.500  
R11  21928690.060   117180308.023       -3720.930          52.250    21928697.660    91140223.301       -2893.750          51.250  
R01  21766107.080   116352349.570       -3582.316          46.750    21766118.180    90496294.430       -2787.684          46.000  
R03  21464829.660   114902938.277        3516.031          51.500    21464837.140    89368954.145        2735.418          49.250  
C37  24778086.960   129026006.625        2914.984          46.500                                                                  
C07  38966676.980   202909713.883          74.762          44.000    38966676.720   156902651.070          57.863          46.500  
C23  21902024.940   114049591.480         695.133          54.000                                                                  
C25  22916033.280   119329802.363       -2113.547          52.000                                                                  
C32  22064388.040   114895059.563         586.047          54.000                                                                  
C10  38630840.500   201160911.012         472.957          44.250    38630843.240   155550379.258         365.094          48.000  
E04  24817139.700   130414944.844       -1846.191          47.750    24817142.380    99928330.047       -1415.043          51.500  
E09  23554749.880   123781044.402         550.391          51.250    23554752.020    94845209.832         421.164          51.750  
E24  26849746.740   141096399.621        3093.879          41.250    26849750.940   108112817.195        2370.793          46.000  
E31  23977611.280   126003206.480        1319.441          50.250    23977614.460    96547905.859        1012.246          52.000  
> 2022 12 06 11 45 39.0000000  0 23       0.000000000000
G13  20542651.500   107952359.832        1559.895          53.250                                                                  
G30  21165806.360   111227060.414       -1642.090          53.250    21165808.320    86670447.004       -1278.816          50.000  
G05  21079914.580   110775702.996        -996.453          53.250    21079914.500    86318727.047        -776.973          48.500  
G07  23489258.020   123436887.734       -2691.223          48.500    23489259.040    96184583.117       -2096.109          42.250  
G15  22355466.480   117478763.500        3060.297          49.750    22355468.380    91541917.031        2385.863          45.250  
G14  20995874.040   110334055.703        1047.293          52.000                                                                  
G20  22131006.860   116299232.742       -3051.332          49.750                                                                  
R02  19163682.100   102261117.391         140.363          57.500    19163686.600    79536418.914         108.238          52.750  
R13  21037139.500   112337189.113        3318.359          45.000    21037146.940    87373367.965        2581.090          43.750  
R12  19147909.620   102284733.949        -151.598          57.000    19147915.460    79554791.664        -118.219          53.500  
R11  21929387.440   117184034.180       -3720.832          52.500    21929394.960    91143121.426       -2895.539          51.000  
R01  21766778.780   116355938.348       -3582.734          46.750    21766789.980    90499085.688       -2786.785          46.000  
R03  21464173.520   114899428.516        3515.242          51.000    21464181.720    89366224.324        2733.652          49.500  
C37  24777528.460   129023098.051        2914.625          47.000                                                                  
C07  38966663.920   202909645.539          74.281          44.500    38966663.300   156902598.207          57.676          45.500  
C23  21901892.460   114048902.348         693.883          54.000                                                                  
C25  22916440.160   119331921.035       -2113.625          52.250                                                                  
C32  22064276.660   114894479.297         585.434          54.000                                                                  
C10  38630750.920   201160442.965         473.090          44.250    38630753.360   155550017.336         364.758          48.250  
E04  24817491.860   130416797.004       -1846.020          47.750    24817494.980    99929749.230       -1414.242          51.750  
E09  23554646.280   123780499.980         549.750          51.250    23554648.380    94844792.684         422.078          51.750  
E24  26849158.900   141093311.082        3096.328          41.250    26849163.220   108110450.648        2369.168          46.000  
E31  23977361.000   126001891.738        1320.605          50.000    23977364.280    96546898.449        1011.445          52.000  
> 2022 12 06 11 45 40.0000000  0 23       0.000000000000
G13  20542355.960   107950805.383        1560.238          52.500                                                                  
G30  21166119.840   111228707.930       -1641.895          53.000    21166122.020    86671730.773       -1278.113          50.500  
G05  21080105.420   110776706.164        -997.559          52.750    21080105.540    86319508.742        -777.652          48.750  
G07  23489771.320   123439584.637       -2689.543          48.000    23489772.080    96186684.590       -2096.688          42.750  
G15  22354885.180   117475708.414        3060.941          48.750    22354886.860    91539536.441        2385.777          45.500  
G14  20995675.780   110333014.723        1045.840          51.250                                                                  
G20  22131588.680   116302290.461       -3053.305          49.250                                                                  
R02  19163656.920   102260982.891         140.453          57.750    19163661.400    79536314.305         109.434          52.750  
R13  21036519.540   112333876.352        3318.609          45.500    21036525.200    87370791.363        2580.520          43.500  
R12  19147939.160   102284891.250        -151.086          57.000    19147945.140    79554914.016        -118.199          53.500  
R11  21930085.200   117187760.441       -3719.734          52.750    21930092.200    91146019.633       -2892.895          51.000  
R01  21767450.940   116359527.355       -3582.949          47.000    21767461.080    90501877.141       -2786.953          45.750  
R03  21463518.040   114895918.891        3516.094          51.000    21463526.680    89363494.613        2735.293          49.500  
C37  24776970.220   129020189.527        2913.750          47.000                                                                  
