% program   : RTKPOST ver.2.4.3 b34
% inp file  : C:\Users\franc\Desktop\Università\Satellite_Navigation\GNSS_SPP\Acquisizione_SwiftNav_20240410\swift-gnss-20240410-130031.sbp.obs
% inp file  : C:\Users\franc\Desktop\Università\Satellite_Navigation\GNSS_SPP\Acquisizione_SwiftNav_20240410\swift-gnss-20240410-130031.sbp.nav
% obs start : 2024/04/10 11:00:48.0 GPST (week2309 298848.0s)
% obs end   : 2024/04/10 11:06:42.0 GPST (week2309 299202.0s)
% pos mode  : Single
% elev mask : 15.0 deg
% ionos opt : Broadcast
% tropo opt : Saastamoinen
% ephemeris : Broadcast
% navi sys  : GPS GLONASS Galileo BDS
%
% (lat/lon/height=WGS84/ellipsoidal,Q=1:fix,2:float,3:sbas,4:dgps,5:single,6:ppp,ns=# of satellites)
%  GPST                  latitude(deg) longitude(deg)  height(m)   Q  ns   sdn(m)   sde(m)   sdu(m)  sdne(m)  sdeu(m)  sdun(m) age(s)  ratio
2024/04/10 11:00:48.000   45.410624767   11.892412214    61.7041   5  20   2.2578   2.3471   5.4014  -1.5347   2.4490  -1.6114   0.00    0.0
2024/04/10 11:00:49.000   45.410629349   11.892407078    62.5117   5  20   2.2580   2.3473   5.4012  -1.5350   2.4491  -1.6117   0.00    0.0
2024/04/10 11:00:50.000   45.410639022   11.892398322    62.5879   5  20   2.2582   2.3475   5.4010  -1.5354   2.4493  -1.6120   0.00    0.0
2024/04/10 11:00:51.000   45.410643645   11.892394130    62.6023   5  20   2.2583   2.3478   5.4008  -1.5357   2.4494  -1.6123   0.00    0.0
2024/04/10 11:00:52.000   45.410645561   11.892393049    63.3588   5  20   2.2585   2.3480   5.4005  -1.5361   2.4496  -1.6126   0.00    0.0
2024/04/10 11:00:53.000   45.410644989   11.892394448    62.9688   5  20   2.2587   2.3483   5.4003  -1.5364   2.4497  -1.6129   0.00    0.0
2024/04/10 11:00:54.000   45.410644776   11.892402821    64.1570   5  20   2.2588   2.3485   5.4001  -1.5368   2.4498  -1.6131   0.00    0.0
2024/04/10 11:00:55.000   45.410645099   11.892400664    64.3299   5  20   2.2590   2.3488   5.3999  -1.5371   2.4500  -1.6134   0.00    0.0
2024/04/10 11:00:56.000   45.410637873   11.892412467    65.4338   5  20   2.2591   2.3490   5.3997  -1.5375   2.4501  -1.6137   0.00    0.0
2024/04/10 11:00:57.000   45.410637105   11.892415551    65.7373   5  20   2.2593   2.3493   5.3995  -1.5379   2.4503  -1.6140   0.00    0.0
2024/04/10 11:00:58.000   45.410639198   11.892410476    65.0656   5  20   2.2595   2.3495   5.3992  -1.5382   2.4504  -1.6143   0.00    0.0
2024/04/10 11:00:59.000   45.410636104   11.892411209    65.0221   5  20   2.2596   2.3497   5.3990  -1.5386   2.4505  -1.6146   0.00    0.0
2024/04/10 11:01:00.000   45.410633791   11.892406216    63.8330   5  20   2.2598   2.3500   5.3988  -1.5389   2.4507  -1.6149   0.00    0.0
2024/04/10 11:01:01.000   45.410630188   11.892410657    63.7623   5  20   2.2600   2.3502   5.3986  -1.5393   2.4508  -1.6152   0.00    0.0
2024/04/10 11:01:02.000   45.410622118   11.892418450    64.3158   5  20   2.2601   2.3505   5.3984  -1.5396   2.4509  -1.6155   0.00    0.0
2024/04/10 11:01:03.000   45.410618505   11.892424225    64.7580   5  20   2.2603   2.3507   5.3981  -1.5400   2.4511  -1.6158   0.00    0.0
2024/04/10 11:01:04.000   45.410621114   11.892433675    64.7972   5  20   2.2605   2.3510   5.3979  -1.5403   2.4512  -1.6160   0.00    0.0
2024/04/10 11:01:05.000   45.410623717   11.892437507    64.7240   5  20   2.2606   2.3512   5.3977  -1.5407   2.4514  -1.6163   0.00    0.0
2024/04/10 11:01:06.000   45.410624644   11.892441679    64.9722   5  20   2.2608   2.3514   5.3975  -1.5410   2.4515  -1.6166   0.00    0.0
2024/04/10 11:01:07.000   45.410623511   11.892441609    64.7478   5  20   2.2609   2.3517   5.3973  -1.5414   2.4516  -1.6169   0.00    0.0
2024/04/10 11:01:08.000   45.410620046   11.892443047    65.5021   5  20   2.2611   2.3519   5.3970  -1.5417   2.4518  -1.6172   0.00    0.0
2024/04/10 11:01:09.000   45.410624384   11.892434448    64.7104   5  20   2.2613   2.3522   5.3968  -1.5421   2.4519  -1.6175   0.00    0.0
2024/04/10 11:01:10.000   45.410628690   11.892433593    63.0786   5  19   2.3267   2.4031   5.4266  -1.6272   2.5084  -1.7114   0.00    0.0
2024/04/10 11:01:11.000   45.410618021   11.892443891    62.9157   5  18   2.4211   2.4573   5.6512  -1.5602   2.4995  -1.1077   0.00    0.0
2024/04/10 11:01:12.000   45.410630114   11.892431048    63.0753   5  18   2.4127   2.4763   5.4736  -1.7406   2.4216  -1.5720   0.00    0.0
2024/04/10 11:01:13.000   45.410628708   11.892426975    60.6592   5  18   2.4129   2.4765   5.4733  -1.7409   2.4216  -1.5722   0.00    0.0
2024/04/10 11:01:14.000   45.410635368   11.892427697    61.3041   5  16   2.8785   3.0070   5.6455  -2.3629   2.8347  -2.0297   0.00    0.0
2024/04/10 11:01:15.000   45.410654052   11.892422525    65.7482   5  17   2.6314   2.7233   5.6416  -2.0238   2.8778  -2.0846   0.00    0.0
2024/04/10 11:01:16.000   45.410649158   11.892415255    63.4507   5  19   2.1885   2.2826   5.5191  -1.3920   2.3660  -1.6212   0.00    0.0
2024/04/10 11:01:17.000   45.410635844   11.892432949    61.4504   5  17   2.4163   2.5551   5.5793  -1.7623   2.2773  -1.5334   0.00    0.0
2024/04/10 11:01:18.000   45.410656023   11.892411293    63.2472   5  17   2.8757   2.9340   5.5552  -2.3436   2.7146  -1.9924   0.00    0.0
2024/04/10 11:01:19.000   45.410638033   11.892428869    64.9751   5  21   2.1422   2.2054   5.3827  -1.3369   2.5127  -1.6990   0.00    0.0
2024/04/10 11:01:20.000   45.410656357   11.892412380    63.1006   5  19   2.5297   2.5771   5.5009  -1.8921   2.6841  -1.9326   0.00    0.0
2024/04/10 11:01:21.000   45.410659429   11.892391975    63.5233   5  18   2.5318   2.6451   5.5748  -1.9077   2.5816  -1.9096   0.00    0.0
2024/04/10 11:01:22.000   45.410663016   11.892370244    62.0444   5  17   2.7176   2.8944   5.7958  -2.0817   3.0364  -1.9860   0.00    0.0
2024/04/10 11:01:23.000   45.410654902   11.892366239    60.7511   5  15   3.0758   3.1528   6.7815  -2.0927   3.4139   0.4580   0.00    0.0
2024/04/10 11:01:24.000   45.410662674   11.892343274    60.5725   5  18   2.7027   2.7787   5.5319  -2.1373   2.7959  -2.1066   0.00    0.0
2024/04/10 11:01:25.000   45.410665069   11.892335941    61.7876   5  17   3.2328   2.9169   5.6342  -2.4782   2.6205  -1.5930   0.00    0.0
2024/04/10 11:01:26.000   45.410671166   11.892310157    61.6672   5  18   2.8892   2.6257   5.6149  -2.0734   2.7301  -1.7907   0.00    0.0
2024/04/10 11:01:27.000   45.410658578   11.892317223    61.2081   5  17   2.8777   2.9364   5.5516  -2.3466   2.7125  -1.9899   0.00    0.0
2024/04/10 11:01:28.000   45.410658037   11.892302558    59.9775   5  17   2.8779   2.9367   5.5512  -2.3470   2.7123  -1.9896   0.00    0.0
2024/04/10 11:01:29.000   45.410655786   11.892304854    61.4343   5  16   3.0089   2.9835   6.1685  -2.2470   2.9612  -1.2633   0.00    0.0
2024/04/10 11:01:30.000   45.410647902   11.892292591    60.4431   5  17   2.6930   2.7933   5.9775  -2.1323   3.0936  -2.3510   0.00    0.0
2024/04/10 11:01:31.000   45.410633805   11.892301158    61.2786   5  18   2.5330   2.3969   6.1932  -1.2418   2.9329   0.3945   0.00    0.0
2024/04/10 11:01:32.000   45.410637422   11.892292747    64.1285   5  17   2.4324   2.5446   5.9242  -1.4799   2.8751  -1.2367   0.00    0.0
2024/04/10 11:01:33.000   45.410634195   11.892281174    62.6767   5  18   2.5199   2.2800   5.8263  -1.5465   2.7214  -2.3660   0.00    0.0
2024/04/10 11:01:34.000   45.410626335   11.892273762    62.7333   5  19   2.4698   2.2790   5.8260  -1.5590   2.7210  -2.3719   0.00    0.0
2024/04/10 11:01:35.000   45.410622643   11.892263979    61.6228   5  20   2.1678   2.2558   5.5233  -1.2876   2.3993  -1.8179   0.00    0.0
2024/04/10 11:01:36.000   45.410612244   11.892255353    61.9379   5  20   2.1680   2.2560   5.5230  -1.2879   2.3995  -1.8182   0.00    0.0
2024/04/10 11:01:37.000   45.410608127   11.892247919    61.9635   5  20   2.1681   2.2563   5.5226  -1.2883   2.3997  -1.8186   0.00    0.0
2024/04/10 11:01:38.000   45.410594722   11.892247745    61.7323   5  19   2.2082   2.2997   5.5830  -1.3587   2.3228  -1.7220   0.00    0.0
2024/04/10 11:01:39.000   45.410589706   11.892240280    61.8894   5  20   2.1895   2.2970   5.5477  -1.2376   2.6801  -1.5200   0.00    0.0
2024/04/10 11:01:40.000   45.410582622   11.892231646    61.8108   5  19   2.4393   2.2974   5.7686  -1.2463   2.6748  -0.7820   0.00    0.0
2024/04/10 11:01:41.000   45.410579853   11.892228215    61.7481   5  21   2.1451   2.2109   5.3773  -1.3449   2.5166  -1.7065   0.00    0.0
2024/04/10 11:01:42.000   45.410560826   11.892227148    61.3741   5  20   2.1688   2.2575   5.5211  -1.2901   2.4008  -1.8202   0.00    0.0
2024/04/10 11:01:43.000   45.410556770   11.892230453    61.1540   5  20   2.1952   2.3632   5.8479  -1.1930   2.8725  -1.3585   0.00    0.0
2024/04/10 11:01:44.000   45.410545870   11.892226534    62.1714   5  18   2.4073   2.4257   6.1716  -1.0279   2.7106  -1.9340   0.00    0.0
2024/04/10 11:01:45.000   45.410530791   11.892227112    62.7831   5  17   2.6369   2.5632   6.3501  -0.4088   2.4713  -2.3141   0.00    0.0
2024/04/10 11:01:46.000   45.410523837   11.892237340    62.6291   5  19   2.2228   2.4172   5.9518  -1.1185   2.7723  -1.4967   0.00    0.0
2024/04/10 11:01:47.000   45.410517440   11.892245240    61.6879   5  16   3.0021   2.4655   7.6433  -1.2949   3.0219  -2.7050   0.00    0.0
2024/04/10 11:01:48.000   45.410512226   11.892251119    61.0819   5  16   3.0024   2.4658   7.6428  -1.2956   3.0221  -2.7058   0.00    0.0
2024/04/10 11:01:49.000   45.410512595   11.892259594    61.9056   5  17   2.5389   2.6163   7.0406  -1.1345   3.3290  -2.0838   0.00    0.0
2024/04/10 11:01:50.000   45.410500024   11.892265043    62.5141   5  19   2.4573   2.3202   5.8964  -1.3714   2.7942  -2.1326   0.00    0.0
2024/04/10 11:01:51.000   45.410497287   11.892282980    62.5683   5  19   2.2234   2.4182   5.9481  -1.1210   2.7721  -1.5001   0.00    0.0
2024/04/10 11:01:52.000   45.410495873   11.892290449    61.4689   5  17   2.6622   2.5919   6.8877  -0.5534   3.2366   1.6288   0.00    0.0
2024/04/10 11:01:53.000   45.410484818   11.892301075    62.4854   5  20   2.1962   2.3651   5.8411  -1.1978   2.8719  -1.3660   0.00    0.0
2024/04/10 11:01:54.000   45.410485319   11.892307228    60.8712   5  19   2.2749   2.5296   6.2056  -0.9509   3.1824  -0.7901   0.00    0.0
2024/04/10 11:01:55.000   45.410479130   11.892322979    61.5976   5  17   2.5032   2.5888   6.4778  -0.6763   3.0233  -1.5506   0.00    0.0
2024/04/10 11:01:56.000   45.410473851   11.892340511    62.5349   5  15   2.9736   2.6885   7.5789  -0.8974   3.3604  -2.7899   0.00    0.0
2024/04/10 11:01:57.000   45.410466788   11.892352587    63.4545   5  18   2.4778   2.4673   6.6847  -1.3386   3.0272  -2.3672   0.00    0.0
2024/04/10 11:01:58.000   45.410466322   11.892358781    62.2822   5  17   2.5407   2.6188   7.0374  -1.1410   3.3310  -2.0913   0.00    0.0
2024/04/10 11:01:59.000   45.410452224   11.892370100    64.2349   5  14   3.8029   2.9118   8.1786   1.3543   2.8037  -3.8846   0.00    0.0
2024/04/10 11:02:00.000   45.410446057   11.892379098    64.2877   5  14   3.8030   2.9119   8.1781   1.3531   2.8042  -3.8851   0.00    0.0
2024/04/10 11:02:01.000   45.410445905   11.892397229    64.9043   5  15   3.5185   2.6298   8.1128   0.1504   2.5658  -4.0718   0.00    0.0
2024/04/10 11:02:02.000   45.410438639   11.892402923    63.4998   5  17   2.8455   2.4688   7.2745  -1.3213   3.0095  -3.1044   0.00    0.0
2024/04/10 11:02:03.000   45.410423767   11.892402520    65.9817   5  18   2.7492   2.3244   6.2497  -1.3815   2.8024  -2.6670   0.00    0.0
2024/04/10 11:02:04.000   45.410436539   11.892432228    62.9794   5  16   2.8703   2.7843   7.5290  -1.4926   3.4003  -3.2199   0.00    0.0
2024/04/10 11:02:05.000   45.410430133   11.892439354    62.8258   5  17   2.8682   2.5179   6.8050  -1.5397   2.7810  -3.2793   0.00    0.0
2024/04/10 11:02:06.000   45.410419647   11.892442474    63.3780   5  16   2.9157   2.7077   6.8894  -1.7007   2.5823  -3.1932   0.00    0.0
2024/04/10 11:02:07.000   45.410408398   11.892457729    64.3132   5  17   2.8886   2.4896   6.7579  -1.5711   2.2900  -3.1087   0.00    0.0
2024/04/10 11:02:08.000   45.410413540   11.892459173    63.7184   5  18   2.9570   2.2775   6.5683  -1.3570   2.5392  -3.2588   0.00    0.0
2024/04/10 11:02:09.000   45.410406410   11.892481422    63.9236   5  16   3.0394   2.7086   6.6478  -1.6350   2.6611  -3.2374   0.00    0.0
2024/04/10 11:02:10.000   45.410401558   11.892490990    63.2587   5  13   3.5223   3.2974  10.5310   0.2446   0.7422  -4.5853   0.00    0.0
2024/04/10 11:02:11.000   45.410397238   11.892506069    63.0743   5  16   2.6936   2.6142   6.3131  -1.3113   2.5484  -1.4283   0.00    0.0
2024/04/10 11:02:12.000   45.410393065   11.892515730    62.4529   5  15   3.0525   2.6340   7.9340  -1.4770   2.8345  -2.9905   0.00    0.0
2024/04/10 11:02:13.000   45.410390677   11.892531612    62.3637   5  16   2.6939   2.6146   6.3116  -1.3126   2.5483  -1.4294   0.00    0.0
2024/04/10 11:02:14.000   45.410391220   11.892545033    63.0923   5  16   2.6941   2.6147   6.3108  -1.3132   2.5482  -1.4300   0.00    0.0
2024/04/10 11:02:15.000   45.410391726   11.892555842    63.0455   5  17   2.4535   2.5400   5.6700  -1.5291   2.4575  -1.1726   0.00    0.0
2024/04/10 11:02:16.000   45.410371349   11.892564050    63.0815   5  14   3.7229   2.9027   7.1294  -1.6430   3.2672  -2.1438   0.00    0.0
2024/04/10 11:02:17.000   45.410381028   11.892581145    65.1651   5  14   4.1745   2.8935   7.8379  -2.6227   3.6516  -4.3666   0.00    0.0
2024/04/10 11:02:18.000   45.410373864   11.892584456    64.4369   5  16   2.5057   2.6725   6.2645  -1.2465   2.6006  -1.7326   0.00    0.0
2024/04/10 11:02:19.000   45.410378963   11.892573364    65.9926   5  16   2.9402   2.6280   7.5110  -1.0676   3.2823  -2.8883   0.00    0.0
2024/04/10 11:02:20.000   45.410365676   11.892594325    61.9958   5  15   3.0240   2.7480   7.6782  -1.3070   3.0816  -2.6872   0.00    0.0
2024/04/10 11:02:21.000   45.410353525   11.892605621    64.5148   5  16   2.9916   2.5248   6.8788  -1.4804   2.4076  -2.9558   0.00    0.0
2024/04/10 11:02:22.000   45.410344748   11.892607304    62.3129   5  14   2.6819   3.2657   6.9734  -1.5989   3.1117  -2.0442   0.00    0.0
2024/04/10 11:02:23.000   45.410341192   11.892619263    64.1821   5  15   2.5300   2.6892   5.9829  -1.5216   2.4595  -1.3930   0.00    0.0
2024/04/10 11:02:24.000   45.410329073   11.892629550    60.7658   5  15   2.8617   2.8622   6.1211  -2.0502   1.5477  -0.1715   0.00    0.0
2024/04/10 11:02:25.000   45.410322926   11.892621181    62.6101   5  17   2.2722   2.7683   6.0538  -1.4094   2.9815  -1.6724   0.00    0.0
2024/04/10 11:02:26.000   45.410313279   11.892610427    60.8914   5  17   2.6140   2.4704   6.1702  -0.7150   2.2726  -2.4522   0.00    0.0
2024/04/10 11:02:27.000   45.410289061   11.892597097    69.8073   5  12   4.9177   7.0619  18.4386   4.5179 -10.0524  -7.8807   0.00    0.0
2024/04/10 11:02:28.000   45.410279084   11.892599861    68.3700   5  13   4.4403   4.3980   9.8051   2.9542  -3.8434  -5.3942   0.00    0.0
2024/04/10 11:02:29.000   45.410324835   11.892606414    68.4250   5  15   3.0976   2.3982   7.4008  -1.3161   2.4179  -2.7423   0.00    0.0
2024/04/10 11:02:30.000   45.410290006   11.892641214    62.2198   5  15   2.9540   3.0929   7.2058  -1.2468   2.2374  -3.0367   0.00    0.0
2024/04/10 11:02:31.000   45.410269817   11.892634558    66.0472   5  17   3.4416   2.3644   7.6908  -0.9024   2.0153  -4.2056   0.00    0.0
2024/04/10 11:02:32.000   45.410261419   11.892622053    64.6056   5  18   2.5495   2.3261   6.0813  -1.5129   2.6145  -2.6025   0.00    0.0
2024/04/10 11:02:33.000   45.410252884   11.892632073    63.7140   5  17   2.6442   2.3693   6.2221  -1.4056   2.4992  -2.7745   0.00    0.0
2024/04/10 11:02:34.000   45.410244216   11.892639653    64.5412   5  15   4.5524   2.7204   8.8553  -2.1945   3.1525  -5.5464   0.00    0.0
2024/04/10 11:02:35.000   45.410224586   11.892647242    66.5371   5  16   4.2244   2.6335   8.4478  -1.9129   2.8511  -5.1244   0.00    0.0
2024/04/10 11:02:36.000   45.410224691   11.892639934    64.0992   5  17   2.8921   3.2979   6.0797  -2.2462   3.2905  -2.8727   0.00    0.0
2024/04/10 11:02:37.000   45.410210963   11.892649724    65.2347   5  19   2.6783   2.2561   6.1743  -1.5368   2.7102  -2.8023   0.00    0.0
2024/04/10 11:02:38.000   45.410208313   11.892657782    63.8288   5  19   2.6786   2.2564   6.1743  -1.5374   2.7106  -2.8028   0.00    0.0
2024/04/10 11:02:39.000   45.410203744   11.892665408    63.6561   5  19   2.6789   2.2567   6.1743  -1.5379   2.7110  -2.8033   0.00    0.0
2024/04/10 11:02:40.000   45.410198528   11.892674518    63.7573   5  19   2.6792   2.2570   6.1743  -1.5385   2.7114  -2.8038   0.00    0.0
2024/04/10 11:02:41.000   45.410194850   11.892680303    63.3293   5  20   2.2935   2.2261   5.5628  -1.3605   2.5204  -2.0378   0.00    0.0
2024/04/10 11:02:42.000   45.410187518   11.892688807    63.2104   5  21   2.1533   2.2263   5.3613  -1.3669   2.5268  -1.7271   0.00    0.0
2024/04/10 11:02:43.000   45.410184830   11.892693761    63.2342   5  21   2.1535   2.2265   5.3610  -1.3673   2.5269  -1.7274   0.00    0.0
2024/04/10 11:02:44.000   45.410178992   11.892698657    63.0725   5  21   2.1536   2.2268   5.3607  -1.3676   2.5271  -1.7277   0.00    0.0
2024/04/10 11:02:45.000   45.410172199   11.892702869    63.4486   5  21   2.1537   2.2271   5.3605  -1.3680   2.5273  -1.7281   0.00    0.0
2024/04/10 11:02:46.000   45.410164165   11.892708336    63.0594   5  21   2.1539   2.2273   5.3602  -1.3684   2.5274  -1.7284   0.00    0.0
2024/04/10 11:02:47.000   45.410152834   11.892714224    62.9706   5  21   2.1540   2.2276   5.3599  -1.3687   2.5276  -1.7287   0.00    0.0
2024/04/10 11:02:48.000   45.410144070   11.892722949    63.3006   5  21   2.1542   2.2278   5.3596  -1.3691   2.5277  -1.7290   0.00    0.0
2024/04/10 11:02:49.000   45.410136680   11.892730845    62.7553   5  21   2.1543   2.2281   5.3594  -1.3695   2.5279  -1.7294   0.00    0.0
2024/04/10 11:02:50.000   45.410125565   11.892738211    63.3857   5  21   2.1544   2.2283   5.3591  -1.3698   2.5281  -1.7297   0.00    0.0
2024/04/10 11:02:51.000   45.410116437   11.892743632    63.1065   5  21   2.1546   2.2286   5.3588  -1.3702   2.5282  -1.7300   0.00    0.0
2024/04/10 11:02:52.000   45.410107965   11.892740687    63.0788   5  21   2.1547   2.2288   5.3585  -1.3705   2.5284  -1.7304   0.00    0.0
2024/04/10 11:02:53.000   45.410099176   11.892739820    63.0120   5  21   2.1548   2.2291   5.3583  -1.3709   2.5285  -1.7307   0.00    0.0
2024/04/10 11:02:54.000   45.410089764   11.892741371    63.0268   5  21   2.1550   2.2293   5.3580  -1.3713   2.5287  -1.7310   0.00    0.0
2024/04/10 11:02:55.000   45.410079992   11.892741485    63.0101   5  21   2.1551   2.2296   5.3577  -1.3716   2.5289  -1.7314   0.00    0.0
2024/04/10 11:02:56.000   45.410068711   11.892742397    63.1407   5  21   2.1552   2.2298   5.3574  -1.3720   2.5290  -1.7317   0.00    0.0
2024/04/10 11:02:57.000   45.410059437   11.892741358    63.1507   5  21   2.1554   2.2301   5.3572  -1.3723   2.5292  -1.7320   0.00    0.0
2024/04/10 11:02:58.000   45.410049326   11.892740782    63.1566   5  21   2.1555   2.2304   5.3569  -1.3727   2.5294  -1.7324   0.00    0.0
2024/04/10 11:02:59.000   45.410041965   11.892737165    62.9038   5  21   2.1557   2.2306   5.3566  -1.3731   2.5295  -1.7327   0.00    0.0
2024/04/10 11:03:00.000   45.410029982   11.892736706    63.3517   5  21   2.1558   2.2309   5.3563  -1.3734   2.5297  -1.7330   0.00    0.0
2024/04/10 11:03:01.000   45.410021192   11.892734685    64.1176   5  21   2.1559   2.2311   5.3561  -1.3738   2.5298  -1.7334   0.00    0.0
2024/04/10 11:03:02.000   45.410011744   11.892731745    63.5451   5  21   2.1561   2.2314   5.3558  -1.3742   2.5300  -1.7337   0.00    0.0
2024/04/10 11:03:03.000   45.410005256   11.892730100    63.8631   5  22   2.1533   1.9464   4.7198  -1.3294   1.9076  -1.6505   0.00    0.0
2024/04/10 11:03:04.000   45.409995451   11.892728476    63.9798   5  22   2.1534   1.9466   4.7198  -1.3297   1.9078  -1.6507   0.00    0.0
2024/04/10 11:03:05.000   45.409987175   11.892727916    63.8463   5  22   2.1536   1.9468   4.7197  -1.3300   1.9081  -1.6509   0.00    0.0
2024/04/10 11:03:06.000   45.409977596   11.892726361    63.9748   5  22   2.1537   1.9470   4.7196  -1.3303   1.9083  -1.6512   0.00    0.0
2024/04/10 11:03:07.000   45.409970380   11.892721968    63.6789   5  22   2.1538   1.9472   4.7196  -1.3306   1.9086  -1.6514   0.00    0.0
2024/04/10 11:03:08.000   45.409961486   11.892719720    63.8030   5  22   2.1539   1.9474   4.7195  -1.3309   1.9088  -1.6516   0.00    0.0
2024/04/10 11:03:09.000   45.409950947   11.892718704    63.9877   5  22   2.1541   1.9476   4.7194  -1.3311   1.9091  -1.6518   0.00    0.0
2024/04/10 11:03:10.000   45.409943733   11.892716057    64.1820   5  22   2.1542   1.9478   4.7193  -1.3314   1.9093  -1.6520   0.00    0.0
2024/04/10 11:03:11.000   45.409936366   11.892713675    63.8142   5  22   2.1543   1.9481   4.7193  -1.3317   1.9096  -1.6522   0.00    0.0
2024/04/10 11:03:12.000   45.409925435   11.892712008    63.8693   5  22   2.1545   1.9483   4.7192  -1.3320   1.9098  -1.6524   0.00    0.0
2024/04/10 11:03:13.000   45.409914706   11.892710672    64.0778   5  22   2.1546   1.9485   4.7191  -1.3323   1.9101  -1.6526   0.00    0.0
2024/04/10 11:03:15.000   45.409896934   11.892705021    63.4478   5  22   2.1548   1.9489   4.7190  -1.3329   1.9106  -1.6530   0.00    0.0
2024/04/10 11:03:16.000   45.409887885   11.892701383    63.4108   5  22   2.1550   1.9491   4.7189  -1.3331   1.9108  -1.6532   0.00    0.0
2024/04/10 11:03:17.000   45.409878198   11.892700449    63.5544   5  22   2.1551   1.9493   4.7189  -1.3334   1.9111  -1.6534   0.00    0.0
2024/04/10 11:03:18.000   45.409868297   11.892697054    63.7735   5  22   2.1552   1.9495   4.7188  -1.3337   1.9113  -1.6536   0.00    0.0
2024/04/10 11:03:19.000   45.409863452   11.892689683    63.8223   5  21   2.2048   2.0034   4.9069  -1.2513   2.0673  -1.4527   0.00    0.0
2024/04/10 11:03:20.000   45.409849788   11.892691419    63.7367   5  20   2.4436   2.0366   4.9714  -1.3968   1.9956  -1.1264   0.00    0.0
2024/04/10 11:03:21.000   45.409839931   11.892688464    63.8354   5  20   2.4437   2.0368   4.9712  -1.3971   1.9957  -1.1267   0.00    0.0
2024/04/10 11:03:22.000   45.409829466   11.892684177    63.2040   5  19   2.5491   2.0800   5.1223  -1.2836   2.1221  -0.6119   0.00    0.0
2024/04/10 11:03:23.000   45.409819698   11.892681113    62.3132   5  18   2.6524   2.5724   6.7077  -0.7348   3.3253   1.6728   0.00    0.0
2024/04/10 11:03:24.000   45.409806941   11.892682284    63.0043   5  16   3.6454   2.8445   7.1287  -1.8803   3.3945   1.6787   0.00    0.0
2024/04/10 11:03:25.000   45.409780276   11.892686984    60.5263   5  15   4.7105   2.8881   8.1845  -2.2412   3.0859   3.8485   0.00    0.0
2024/04/10 11:03:26.000   45.409787645   11.892685108    62.8700   5  14   4.9561   2.9160   8.6504  -2.1001   3.2623   4.3730   0.00    0.0
2024/04/10 11:03:27.000   45.409792400   11.892680335    64.4726   5  12   6.4218   3.6927  11.4397   2.1976   5.2262   6.9951   0.00    0.0
2024/04/10 11:03:28.000   45.409789160   11.892682704    65.3199   5  11   8.9189   3.6944  13.0233   2.3147   5.2777   9.3513   0.00    0.0
2024/04/10 11:03:29.000   45.409758251   11.892681529    65.1675   5   8  24.1373   3.9866  13.5005   4.5579   5.3387   7.8434   0.00    0.0
2024/04/10 11:03:44.000   45.409618816   11.892636609    60.3121   5   8  12.1608   4.3910  14.0827  -2.2221   4.9198 -11.2394   0.00    0.0
2024/04/10 11:03:45.000   45.409606809   11.892642936    62.6941   5  12   7.0246   2.6448   8.5626   1.8081  -0.8793  -6.3685   0.00    0.0
2024/04/10 11:03:46.000   45.409597637   11.892652606    63.2220   5  11   7.8558   3.6341  10.5948   3.4680  -4.0401  -7.9055   0.00    0.0
2024/04/10 11:03:47.000   45.409578034   11.892653278    65.6288   5  13   5.5984   2.5800   7.9385   0.8901   1.0492  -5.1917   0.00    0.0
2024/04/10 11:03:48.000   45.409594257   11.892681414    63.0519   5  11   7.8579   3.6336  10.5938   3.4673  -4.0384  -7.9066   0.00    0.0
2024/04/10 11:03:49.000   45.409587885   11.892690098    64.6493   5  11   7.8590   3.6334  10.5933   3.4670  -4.0376  -7.9071   0.00    0.0
2024/04/10 11:03:50.000   45.409607325   11.892711207    61.0246   5  12   5.8691   3.3376   9.2107   2.1246  -2.9643  -5.9310   0.00    0.0
2024/04/10 11:03:51.000   45.409598840   11.892717109    61.4249   5  12   4.3386   2.6882   6.4459  -2.0010   2.0617  -2.7273   0.00    0.0
2024/04/10 11:03:52.000   45.409599865   11.892730108    61.1166   5  13   3.9255   2.5883   6.2886  -2.3127   2.2976  -2.1968   0.00    0.0
2024/04/10 11:03:53.000   45.409591745   11.892749910    61.4687   5  16   3.4368   2.6333   5.6605  -2.3790   2.1088  -2.8387   0.00    0.0
2024/04/10 11:03:54.000   45.409586677   11.892760625    61.6610   5  17   3.1658   2.6334   5.3271  -2.3720   2.0969  -2.3444   0.00    0.0
2024/04/10 11:03:55.000   45.409587605   11.892774818    61.9526   5  17   3.1660   2.6337   5.3271  -2.3723   2.0969  -2.3442   0.00    0.0
2024/04/10 11:03:56.000   45.409589466   11.892780896    61.1586   5  16   3.8019   3.3352   4.9647  -3.1375   0.9790   0.4196   0.00    0.0
2024/04/10 11:03:57.000   45.409582381   11.892793218    61.1374   5  16   3.8025   3.3358   4.9649  -3.1382   0.9772   0.4256   0.00    0.0
2024/04/10 11:03:58.000   45.409574529   11.892814641    61.1741   5  16   3.7532   3.2241   5.2620  -3.0434   0.0358   0.5556   0.00    0.0
2024/04/10 11:03:59.000   45.409579486   11.892820081    62.3865   5  18   2.4348   2.3509   5.1040  -1.7248   1.2865  -1.4242   0.00    0.0
2024/04/10 11:04:00.000   45.409572588   11.892839025    61.4288   5  16   2.8759   2.8290   5.4050  -2.1957  -1.0655   0.4257   0.00    0.0
2024/04/10 11:04:01.000   45.409567466   11.892848572    62.0357   5  18   2.7470   2.4657   4.9573  -1.9857   1.2175  -0.6495   0.00    0.0
2024/04/10 11:04:02.000   45.409560144   11.892856731    62.5953   5  18   2.7527   2.4901   5.2594  -2.0093   0.5846  -0.3336   0.00    0.0
2024/04/10 11:04:03.000   45.409559171   11.892868909    62.2886   5  18   2.7530   2.4904   5.2595  -2.0097   0.5847  -0.3323   0.00    0.0
2024/04/10 11:04:04.000   45.409565505   11.892881781    61.6818   5  18   2.7533   2.4906   5.2596  -2.0101   0.5847  -0.3310   0.00    0.0
2024/04/10 11:04:05.000   45.409571860   11.892882068    63.7058   5  19   2.7462   2.3239   4.9145  -1.9647   1.4220  -0.6989   0.00    0.0
2024/04/10 11:04:06.000   45.409575905   11.892895232    63.3352   5  19   2.7465   2.3242   4.9146  -1.9651   1.4220  -0.6982   0.00    0.0
2024/04/10 11:04:07.000   45.409580461   11.892909965    63.3109   5  19   2.7468   2.3244   4.9147  -1.9655   1.4220  -0.6976   0.00    0.0
2024/04/10 11:04:08.000   45.409584749   11.892929230    61.5824   5  18   2.7546   2.4915   5.2599  -2.0116   0.5850  -0.3258   0.00    0.0
2024/04/10 11:04:09.000   45.409592686   11.892941028    61.8321   5  18   2.7549   2.4918   5.2599  -2.0119   0.5851  -0.3245   0.00    0.0
2024/04/10 11:04:10.000   45.409597013   11.892934990    62.5683   5  17   2.6859   2.7722   5.7723  -1.5064  -1.5421  -1.8310   0.00    0.0
2024/04/10 11:04:11.000   45.409601354   11.892954652    62.5994   5  17   2.5960   2.7944   5.2010  -1.6794   1.2112  -1.1309   0.00    0.0
2024/04/10 11:04:12.000   45.409601466   11.892964157    62.1815   5  18   2.6815   2.3402   5.2857  -1.7136   1.4432  -0.6042   0.00    0.0
2024/04/10 11:04:13.000   45.409600459   11.892972899    64.8417   5  20   2.4501   2.0478   4.9613  -1.4136   2.0023  -1.1437   0.00    0.0
2024/04/10 11:04:14.000   45.409607251   11.892993012    62.8607   5  19   2.4720   2.0957   5.1215  -1.3616   1.8560  -1.3131   0.00    0.0
2024/04/10 11:04:15.000   45.409604432   11.893001116    63.0626   5  17   3.0596   2.2381   5.8374  -1.2384   1.8739  -2.6279   0.00    0.0
2024/04/10 11:04:16.000   45.409606572   11.893015469    62.6083   5  19   2.4605   2.1438   4.9678  -1.3643   1.9603  -1.1700   0.00    0.0
2024/04/10 11:04:17.000   45.409611753   11.893029338    62.2856   5  16   2.5156   2.2511   6.3214  -1.2683   1.4344  -1.7233   0.00    0.0
2024/04/10 11:04:18.000   45.409610519   11.893044932    62.1416   5  17   2.5135   2.2226   5.3589  -1.2765   1.7327  -1.5480   0.00    0.0
2024/04/10 11:04:19.000   45.409613620   11.893040199    64.9842   5  16   3.1523   2.8934   5.4389   1.6896   2.0752  -1.7089   0.00    0.0
2024/04/10 11:04:20.000   45.409588874   11.893058121    64.3812   5  12   4.7109   3.2085   7.0950   2.3813  -1.3090  -3.8850   0.00    0.0
2024/04/10 11:04:21.000   45.409603941   11.893088594    63.3903   5  14   3.3549   2.4791   6.0961  -1.0174   2.1195  -2.3911   0.00    0.0
2024/04/10 11:04:22.000   45.409611513   11.893096925    62.0734   5  14   3.4296   2.5465   5.8025  -1.8363   2.1926   0.8871   0.00    0.0
2024/04/10 11:04:23.000   45.409607727   11.893112291    62.1491   5  15   3.1020   2.5008   5.8783  -1.9597   2.2777  -1.5876   0.00    0.0
2024/04/10 11:04:24.000   45.409606881   11.893125145    62.9388   5  15   2.6715   2.4503   5.8536  -1.7771   2.6054  -1.8422   0.00    0.0
2024/04/10 11:04:25.000   45.409601385   11.893144738    63.7091   5  18   2.5875   2.3857   5.0778  -1.6721   2.3992  -1.5864   0.00    0.0
2024/04/10 11:04:26.000   45.409605001   11.893154494    63.1027   5  16   2.5908   3.0214   6.6376  -1.7400   3.5641  -1.7067   0.00    0.0
2024/04/10 11:04:27.000   45.409596262   11.893162240    63.2479   5  16   2.6203   3.1193   6.3455  -1.6495   3.5986  -1.7062   0.00    0.0
2024/04/10 11:04:28.000   45.409596376   11.893171391    61.9827   5  15   2.8691   2.8268   6.8952   0.7136   2.9497  -2.3173   0.00    0.0
2024/04/10 11:04:29.000   45.409589328   11.893196719    63.6255   5  14   3.2360   3.1532   8.0358  -2.0979   4.0601  -2.9960   0.00    0.0
2024/04/10 11:04:30.000   45.409593085   11.893202131    63.1291   5  19   2.2118   2.3460   5.8109  -1.3014   2.7028  -1.6146   0.00    0.0
2024/04/10 11:04:31.000   45.409595323   11.893208456    60.9500   5  19   2.2119   2.3463   5.8108  -1.3018   2.7030  -1.6148   0.00    0.0
2024/04/10 11:04:32.000   45.409596087   11.893229372    61.7014   5  17   2.2723   2.8231   6.2976  -1.4802   3.3405  -1.6969   0.00    0.0
2024/04/10 11:04:33.000   45.409600197   11.893244006    62.8239   5  19   2.2173   2.2932   5.7071  -1.4657   2.6325  -1.7777   0.00    0.0
2024/04/10 11:04:34.000   45.409601291   11.893258579    62.3872   5  19   2.4628   2.5973   5.4603  -1.8298   2.6649  -2.0388   0.00    0.0
2024/04/10 11:04:35.000   45.409613718   11.893258210    62.1773   5  19   2.2172   2.2916   5.6315  -1.4680   2.5564  -1.8694   0.00    0.0
2024/04/10 11:04:36.000   45.409603974   11.893292736    64.3594   5  18   2.5163   2.2839   5.1900  -1.8050   2.1463  -1.9234   0.00    0.0
2024/04/10 11:04:37.000   45.409602892   11.893304657    64.2125   5  20   2.2158   1.9995   4.9290  -1.4004   1.9066  -1.7808   0.00    0.0
2024/04/10 11:04:38.000   45.409597675   11.893320035    63.4072   5  20   2.1956   2.5165   5.4660  -1.5368   2.7997  -1.8783   0.00    0.0
2024/04/10 11:04:39.000   45.409598710   11.893329140    63.1434   5  20   2.1958   2.5169   5.4657  -1.5371   2.7999  -1.8786   0.00    0.0
2024/04/10 11:04:40.000   45.409598545   11.893339461    62.6922   5  22   2.1658   1.9671   4.7121  -1.3571   1.9312  -1.6706   0.00    0.0
2024/04/10 11:04:41.000   45.409599800   11.893350232    62.9314   5  22   2.1659   1.9673   4.7120  -1.3574   1.9315  -1.6708   0.00    0.0
2024/04/10 11:04:42.000   45.409599403   11.893362064    62.8895   5  22   2.1660   1.9675   4.7119  -1.3577   1.9317  -1.6710   0.00    0.0
2024/04/10 11:04:43.000   45.409597301   11.893374708    62.7251   5  22   2.1662   1.9677   4.7118  -1.3580   1.9320  -1.6712   0.00    0.0
2024/04/10 11:04:44.000   45.409595801   11.893387639    62.8044   5  22   2.1663   1.9679   4.7117  -1.3583   1.9322  -1.6714   0.00    0.0
2024/04/10 11:04:45.000   45.409592736   11.893401934    63.1377   5  22   2.1664   1.9681   4.7116  -1.3585   1.9324  -1.6716   0.00    0.0
2024/04/10 11:04:46.000   45.409587408   11.893416157    63.0346   5  22   2.1666   1.9684   4.7115  -1.3588   1.9327  -1.6718   0.00    0.0
2024/04/10 11:04:47.000   45.409581283   11.893429987    62.9162   5  22   2.1667   1.9686   4.7114  -1.3591   1.9329  -1.6720   0.00    0.0
2024/04/10 11:04:48.000   45.409577583   11.893442326    62.7402   5  22   2.1668   1.9688   4.7113  -1.3594   1.9332  -1.6722   0.00    0.0
2024/04/10 11:04:49.000   45.409573264   11.893454971    62.9604   5  22   2.1670   1.9690   4.7112  -1.3597   1.9334  -1.6724   0.00    0.0
2024/04/10 11:04:50.000   45.409569846   11.893467828    62.9065   5  22   2.1671   1.9692   4.7111  -1.3600   1.9336  -1.6726   0.00    0.0
2024/04/10 11:04:51.000   45.409565516   11.893480104    63.0338   5  22   2.1672   1.9694   4.7110  -1.3603   1.9339  -1.6728   0.00    0.0
2024/04/10 11:04:52.000   45.409564628   11.893491743    62.7005   5  22   2.1673   1.9696   4.7109  -1.3605   1.9341  -1.6730   0.00    0.0
2024/04/10 11:04:53.000   45.409560365   11.893508266    63.3789   5  22   2.1675   1.9699   4.7108  -1.3608   1.9343  -1.6732   0.00    0.0
2024/04/10 11:04:54.000   45.409562304   11.893518613    62.8354   5  22   2.1676   1.9701   4.7107  -1.3611   1.9346  -1.6735   0.00    0.0
2024/04/10 11:04:55.000   45.409561943   11.893531111    62.8494   5  22   2.1677   1.9703   4.7106  -1.3614   1.9348  -1.6737   0.00    0.0
2024/04/10 11:04:56.000   45.409561308   11.893545635    62.9576   5  22   2.1679   1.9705   4.7106  -1.3617   1.9351  -1.6739   0.00    0.0
2024/04/10 11:04:57.000   45.409558515   11.893560099    63.0184   5  22   2.1680   1.9707   4.7105  -1.3620   1.9353  -1.6741   0.00    0.0
2024/04/10 11:04:58.000   45.409558885   11.893572136    62.8643   5  22   2.1681   1.9709   4.7104  -1.3623   1.9355  -1.6743   0.00    0.0
2024/04/10 11:04:59.000   45.409556535   11.893585774    63.0745   5  22   2.1683   1.9712   4.7103  -1.3625   1.9358  -1.6745   0.00    0.0
2024/04/10 11:05:00.000   45.409556023   11.893599524    63.0909   5  22   2.1684   1.9714   4.7102  -1.3628   1.9360  -1.6747   0.00    0.0
2024/04/10 11:05:01.000   45.409554620   11.893610808    62.8003   5  22   2.1685   1.9716   4.7101  -1.3631   1.9362  -1.6749   0.00    0.0
2024/04/10 11:05:02.000   45.409553573   11.893625993    62.9963   5  22   2.1687   1.9718   4.7100  -1.3634   1.9365  -1.6751   0.00    0.0
2024/04/10 11:05:03.000   45.409553144   11.893638719    62.6048   5  22   2.1688   1.9720   4.7099  -1.3637   1.9367  -1.6753   0.00    0.0
2024/04/10 11:05:04.000   45.409550114   11.893651926    62.7833   5  22   2.1689   1.9722   4.7098  -1.3640   1.9370  -1.6755   0.00    0.0
2024/04/10 11:05:05.000   45.409546883   11.893665121    62.9884   5  22   2.1690   1.9725   4.7097  -1.3643   1.9372  -1.6757   0.00    0.0
2024/04/10 11:05:06.000   45.409545818   11.893680795    63.0762   5  22   2.1692   1.9727   4.7096  -1.3645   1.9374  -1.6759   0.00    0.0
2024/04/10 11:05:07.000   45.409546594   11.893693325    62.6426   5  22   2.1693   1.9729   4.7095  -1.3648   1.9377  -1.6761   0.00    0.0
2024/04/10 11:05:08.000   45.409543234   11.893710442    63.4807   5  23   1.9310   1.6967   4.0589  -0.9314   1.1620  -0.6697   0.00    0.0
2024/04/10 11:05:09.000   45.409540762   11.893724725    63.1649   5  23   1.9310   1.6968   4.0589  -0.9316   1.1622  -0.6700   0.00    0.0
2024/04/10 11:05:10.000   45.409538076   11.893738384    62.9711   5  23   1.9311   1.6969   4.0590  -0.9318   1.1625  -0.6704   0.00    0.0
2024/04/10 11:05:11.000   45.409537444   11.893751708    63.2837   5  23   1.9311   1.6971   4.0590  -0.9320   1.1628  -0.6707   0.00    0.0
2024/04/10 11:05:12.000   45.409537523   11.893764557    63.2023   5  23   1.9311   1.6972   4.0590  -0.9322   1.1631  -0.6710   0.00    0.0
2024/04/10 11:05:13.000   45.409535369   11.893779435    63.2098   5  23   1.9312   1.6973   4.0590  -0.9324   1.1633  -0.6713   0.00    0.0
2024/04/10 11:05:14.000   45.409532571   11.893793754    63.0282   5  23   1.9312   1.6974   4.0591  -0.9326   1.1636  -0.6717   0.00    0.0
2024/04/10 11:05:15.000   45.409531903   11.893807195    62.9802   5  23   1.9313   1.6976   4.0591  -0.9328   1.1639  -0.6720   0.00    0.0
2024/04/10 11:05:16.000   45.409529932   11.893821007    63.3275   5  23   1.9313   1.6977   4.0591  -0.9330   1.1641  -0.6723   0.00    0.0
2024/04/10 11:05:17.000   45.409530072   11.893834441    63.2103   5  23   1.9314   1.6978   4.0591  -0.9332   1.1644  -0.6727   0.00    0.0
2024/04/10 11:05:18.000   45.409528321   11.893848199    63.2379   5  23   1.9314   1.6979   4.0592  -0.9334   1.1647  -0.6730   0.00    0.0
2024/04/10 11:05:19.000   45.409528177   11.893860705    63.1471   5  23   1.9314   1.6980   4.0592  -0.9336   1.1650  -0.6733   0.00    0.0
2024/04/10 11:05:20.000   45.409528883   11.893874766    62.9973   5  23   1.9315   1.6982   4.0592  -0.9338   1.1652  -0.6736   0.00    0.0
2024/04/10 11:05:21.000   45.409526705   11.893887948    62.8502   5  23   1.9315   1.6983   4.0592  -0.9340   1.1655  -0.6740   0.00    0.0
2024/04/10 11:05:22.000   45.409527372   11.893904422    63.1142   5  23   1.9316   1.6984   4.0593  -0.9342   1.1658  -0.6743   0.00    0.0
2024/04/10 11:05:23.000   45.409526753   11.893917043    63.0598   5  23   1.9316   1.6985   4.0593  -0.9344   1.1661  -0.6746   0.00    0.0
2024/04/10 11:05:24.000   45.409523179   11.893928882    63.0194   5  23   1.9317   1.6987   4.0593  -0.9345   1.1663  -0.6750   0.00    0.0
2024/04/10 11:05:25.000   45.409521818   11.893941893    63.1208   5  23   1.9317   1.6988   4.0593  -0.9347   1.1666  -0.6753   0.00    0.0
2024/04/10 11:05:26.000   45.409520620   11.893955029    63.1776   5  23   1.9317   1.6989   4.0594  -0.9349   1.1669  -0.6756   0.00    0.0
2024/04/10 11:05:27.000   45.409522165   11.893965699    63.2409   5  23   1.9318   1.6990   4.0594  -0.9351   1.1672  -0.6759   0.00    0.0
2024/04/10 11:05:28.000   45.409524083   11.893975700    63.3462   5  23   1.9318   1.6992   4.0594  -0.9353   1.1674  -0.6763   0.00    0.0
2024/04/10 11:05:29.000   45.409525748   11.893980962    63.0315   5  23   1.9319   1.6993   4.0594  -0.9355   1.1677  -0.6766   0.00    0.0
2024/04/10 11:05:30.000   45.409526850   11.893984533    62.8556   5  23   1.9319   1.6994   4.0594  -0.9357   1.1680  -0.6769   0.00    0.0
2024/04/10 11:05:31.000   45.409527299   11.893983254    62.9713   5  23   1.9320   1.6995   4.0595  -0.9359   1.1682  -0.6772   0.00    0.0
2024/04/10 11:05:32.000   45.409529061   11.893984870    63.1350   5  23   1.9320   1.6997   4.0595  -0.9361   1.1685  -0.6776   0.00    0.0
2024/04/10 11:05:33.000   45.409529627   11.893988549    63.0071   5  23   1.9320   1.6998   4.0595  -0.9363   1.1688  -0.6779   0.00    0.0
2024/04/10 11:05:34.000   45.409530097   11.893986736    62.3663   5  22   2.0492   1.8363   4.1230  -1.1624   0.9307   0.1790   0.00    0.0
2024/04/10 11:05:35.000   45.409529262   11.893984529    62.2739   5  22   2.0492   1.8364   4.1231  -1.1625   0.9310   0.1783   0.00    0.0
2024/04/10 11:05:36.000   45.409526209   11.893986590    62.2415   5  23   1.9322   1.7002   4.0596  -0.9369   1.1696  -0.6789   0.00    0.0
2024/04/10 11:05:37.000   45.409528464   11.893986827    61.9472   5  23   1.9322   1.7003   4.0596  -0.9371   1.1699  -0.6792   0.00    0.0
2024/04/10 11:05:38.000   45.409527982   11.893986028    62.1331   5  22   2.0805   1.7004   4.2276  -0.9350   1.1674  -1.1713   0.00    0.0
2024/04/10 11:05:39.000   45.409531736   11.893980868    61.4292   5  23   1.9323   1.7005   4.0596  -0.9375   1.1704  -0.6799   0.00    0.0
2024/04/10 11:05:40.000   45.409531990   11.893982338    62.1650   5  23   1.9324   1.7007   4.0596  -0.9377   1.1707  -0.6802   0.00    0.0
2024/04/10 11:05:41.000   45.409531049   11.893984283    62.3013   5  23   1.9324   1.7008   4.0597  -0.9378   1.1710  -0.6805   0.00    0.0
2024/04/10 11:05:42.000   45.409529911   11.893986438    62.6179   5  23   1.9324   1.7009   4.0597  -0.9380   1.1712  -0.6809   0.00    0.0
2024/04/10 11:05:43.000   45.409530799   11.893987945    62.5554   5  23   1.9325   1.7010   4.0597  -0.9382   1.1715  -0.6812   0.00    0.0
2024/04/10 11:05:44.000   45.409531073   11.893987927    62.5476   5  23   1.9325   1.7011   4.0597  -0.9384   1.1718  -0.6815   0.00    0.0
2024/04/10 11:05:45.000   45.409531312   11.893986995    62.1696   5  23   1.9326   1.7013   4.0597  -0.9386   1.1721  -0.6818   0.00    0.0
2024/04/10 11:05:46.000   45.409531678   11.893985928    62.2359   5  23   1.9326   1.7014   4.0598  -0.9388   1.1723  -0.6822   0.00    0.0
2024/04/10 11:05:47.000   45.409530972   11.893986660    62.6540   5  23   1.9327   1.7015   4.0598  -0.9390   1.1726  -0.6825   0.00    0.0
2024/04/10 11:05:48.000   45.409530142   11.893985596    62.9389   5  23   1.9327   1.7016   4.0598  -0.9392   1.1729  -0.6828   0.00    0.0
2024/04/10 11:05:49.000   45.409530719   11.893984565    62.6728   5  23   1.9327   1.7018   4.0598  -0.9394   1.1732  -0.6832   0.00    0.0
2024/04/10 11:05:50.000   45.409530678   11.893984560    62.8728   5  23   1.9328   1.7019   4.0598  -0.9396   1.1734  -0.6835   0.00    0.0
2024/04/10 11:05:51.000   45.409530407   11.893986483    62.7441   5  23   1.9328   1.7020   4.0599  -0.9398   1.1737  -0.6838   0.00    0.0
2024/04/10 11:05:52.000   45.409530457   11.893986332    62.7960   5  23   1.9329   1.7021   4.0599  -0.9400   1.1740  -0.6841   0.00    0.0
2024/04/10 11:05:53.000   45.409529757   11.893986564    62.8586   5  23   1.9329   1.7023   4.0599  -0.9402   1.1742  -0.6845   0.00    0.0
2024/04/10 11:05:54.000   45.409530310   11.893988148    62.7612   5  23   1.9330   1.7024   4.0599  -0.9404   1.1745  -0.6848   0.00    0.0
2024/04/10 11:05:55.000   45.409530675   11.893987478    62.8555   5  23   1.9330   1.7025   4.0599  -0.9406   1.1748  -0.6851   0.00    0.0
2024/04/10 11:05:56.000   45.409531893   11.893986299    62.4860   5  23   1.9330   1.7026   4.0599  -0.9408   1.1751  -0.6855   0.00    0.0
2024/04/10 11:05:57.000   45.409533788   11.893986523    62.5880   5  23   1.9331   1.7028   4.0600  -0.9410   1.1753  -0.6858   0.00    0.0
2024/04/10 11:05:58.000   45.409531806   11.893988416    62.9041   5  23   1.9331   1.7029   4.0600  -0.9411   1.1756  -0.6861   0.00    0.0
2024/04/10 11:05:59.000   45.409532556   11.893988065    62.9850   5  23   1.9332   1.7030   4.0600  -0.9413   1.1759  -0.6864   0.00    0.0
2024/04/10 11:06:00.000   45.409532442   11.893986110    63.0062   5  23   1.9332   1.7031   4.0600  -0.9415   1.1761  -0.6868   0.00    0.0
2024/04/10 11:06:01.000   45.409532872   11.893984273    62.7592   5  23   1.9333   1.7033   4.0600  -0.9417   1.1764  -0.6871   0.00    0.0
2024/04/10 11:06:02.000   45.409532921   11.893983932    63.1010   5  23   1.9333   1.7034   4.0600  -0.9419   1.1767  -0.6874   0.00    0.0
2024/04/10 11:06:03.000   45.409533813   11.893984424    62.9971   5  23   1.9334   1.7035   4.0600  -0.9421   1.1770  -0.6878   0.00    0.0
2024/04/10 11:06:04.000   45.409532743   11.893983947    63.1728   5  23   1.9334   1.7036   4.0601  -0.9423   1.1772  -0.6881   0.00    0.0
2024/04/10 11:06:05.000   45.409531809   11.893984028    63.1311   5  23   1.9334   1.7038   4.0601  -0.9425   1.1775  -0.6884   0.00    0.0
2024/04/10 11:06:06.000   45.409531969   11.893982524    62.9113   5  23   1.9335   1.7039   4.0601  -0.9427   1.1778  -0.6887   0.00    0.0
2024/04/10 11:06:07.000   45.409533266   11.893982619    62.7165   5  23   1.9335   1.7040   4.0601  -0.9429   1.1780  -0.6891   0.00    0.0
2024/04/10 11:06:08.000   45.409534706   11.893981675    62.5612   5  23   1.9336   1.7041   4.0601  -0.9431   1.1783  -0.6894   0.00    0.0
2024/04/10 11:06:09.000   45.409534589   11.893982446    62.5051   5  23   1.9336   1.7043   4.0601  -0.9433   1.1786  -0.6897   0.00    0.0
2024/04/10 11:06:10.000   45.409535494   11.893983139    62.5721   5  23   1.9337   1.7044   4.0602  -0.9435   1.1789  -0.6901   0.00    0.0
2024/04/10 11:06:11.000   45.409535912   11.893983488    62.5892   5  23   1.9337   1.7045   4.0602  -0.9437   1.1791  -0.6904   0.00    0.0
2024/04/10 11:06:12.000   45.409534843   11.893983603    62.4559   5  23   1.9337   1.7047   4.0602  -0.9439   1.1794  -0.6907   0.00    0.0
2024/04/10 11:06:13.000   45.409534942   11.893984567    62.5941   5  23   1.9338   1.7048   4.0602  -0.9441   1.1797  -0.6910   0.00    0.0
2024/04/10 11:06:14.000   45.409534357   11.893984991    62.6602   5  23   1.9338   1.7049   4.0602  -0.9443   1.1799  -0.6914   0.00    0.0
2024/04/10 11:06:15.000   45.409533817   11.893986392    62.6297   5  23   1.9339   1.7050   4.0602  -0.9444   1.1802  -0.6917   0.00    0.0
2024/04/10 11:06:16.000   45.409534333   11.893987108    62.5723   5  23   1.9339   1.7052   4.0602  -0.9446   1.1805  -0.6920   0.00    0.0
2024/04/10 11:06:17.000   45.409535020   11.893985359    62.3134   5  23   1.9340   1.7053   4.0602  -0.9448   1.1808  -0.6924   0.00    0.0
2024/04/10 11:06:18.000   45.409533689   11.893984989    62.3345   5  23   1.9340   1.7054   4.0603  -0.9450   1.1810  -0.6927   0.00    0.0
2024/04/10 11:06:19.000   45.409533582   11.893983399    61.9853   5  23   1.9341   1.7055   4.0603  -0.9452   1.1813  -0.6930   0.00    0.0
2024/04/10 11:06:20.000   45.409532268   11.893984571    62.2083   5  23   1.9341   1.7057   4.0603  -0.9454   1.1816  -0.6933   0.00    0.0
2024/04/10 11:06:21.000   45.409532762   11.893984461    62.2445   5  23   1.9341   1.7058   4.0603  -0.9456   1.1818  -0.6937   0.00    0.0
2024/04/10 11:06:22.000   45.409532731   11.893984002    62.3147   5  23   1.9342   1.7059   4.0603  -0.9458   1.1821  -0.6940   0.00    0.0
2024/04/10 11:06:23.000   45.409532658   11.893983987    62.4205   5  23   1.9342   1.7060   4.0603  -0.9460   1.1824  -0.6943   0.00    0.0
2024/04/10 11:06:24.000   45.409533337   11.893982656    62.2037   5  23   1.9343   1.7062   4.0603  -0.9462   1.1826  -0.6947   0.00    0.0
2024/04/10 11:06:25.000   45.409533027   11.893982130    62.1004   5  23   1.9343   1.7063   4.0603  -0.9464   1.1829  -0.6950   0.00    0.0
2024/04/10 11:06:26.000   45.409533506   11.893981030    62.0886   5  23   1.9344   1.7064   4.0604  -0.9466   1.1832  -0.6953   0.00    0.0
2024/04/10 11:06:27.000   45.409534312   11.893981570    62.0199   5  23   1.9344   1.7065   4.0604  -0.9468   1.1835  -0.6956   0.00    0.0
2024/04/10 11:06:28.000   45.409534731   11.893982175    62.0028   5  23   1.9345   1.7067   4.0604  -0.9470   1.1837  -0.6960   0.00    0.0
2024/04/10 11:06:29.000   45.409535690   11.893983958    62.3536   5  23   1.9345   1.7068   4.0604  -0.9472   1.1840  -0.6963   0.00    0.0
2024/04/10 11:06:30.000   45.409536684   11.893983613    61.9856   5  23   1.9345   1.7069   4.0604  -0.9474   1.1843  -0.6966   0.00    0.0
2024/04/10 11:06:31.000   45.409538055   11.893983398    61.9710   5  23   1.9346   1.7070   4.0604  -0.9476   1.1845  -0.6970   0.00    0.0
2024/04/10 11:06:32.000   45.409537303   11.893984408    62.1950   5  23   1.9346   1.7072   4.0604  -0.9478   1.1848  -0.6973   0.00    0.0
2024/04/10 11:06:33.000   45.409535936   11.893985812    62.4332   5  23   1.9347   1.7073   4.0604  -0.9479   1.1851  -0.6976   0.00    0.0
2024/04/10 11:06:34.000   45.409536442   11.893985436    62.1516   5  23   1.9347   1.7074   4.0604  -0.9481   1.1853  -0.6979   0.00    0.0
2024/04/10 11:06:35.000   45.409536773   11.893986305    61.8598   5  23   1.9348   1.7076   4.0604  -0.9483   1.1856  -0.6983   0.00    0.0
2024/04/10 11:06:36.000   45.409537414   11.893986389    61.6370   5  23   1.9348   1.7077   4.0605  -0.9485   1.1859  -0.6986   0.00    0.0
2024/04/10 11:06:37.000   45.409536627   11.893986202    61.3868   5  23   1.9348   1.7078   4.0605  -0.9487   1.1861  -0.6989   0.00    0.0
2024/04/10 11:06:38.000   45.409535483   11.893986528    61.3185   5  23   1.9349   1.7079   4.0605  -0.9489   1.1864  -0.6993   0.00    0.0
2024/04/10 11:06:39.000   45.409535309   11.893985867    61.2723   5  23   1.9349   1.7081   4.0605  -0.9491   1.1867  -0.6996   0.00    0.0
2024/04/10 11:06:40.000   45.409534075   11.893986224    61.3487   5  23   1.9350   1.7082   4.0605  -0.9493   1.1870  -0.6999   0.00    0.0
2024/04/10 11:06:41.000   45.409534688   11.893986546    61.4568   5  23   1.9350   1.7083   4.0605  -0.9495   1.1872  -0.7003   0.00    0.0
2024/04/10 11:06:42.000   45.409533292   11.893987230    61.4417   5  23   1.9351   1.7084   4.0605  -0.9497   1.1875  -0.7006   0.00    0.0
