     3.04           OBSERVATION DATA    M: Mixed            RINEX VERSION / TYPE
sbp2rinex v2.3 (RTKL                    20240410 141434 UTC PGM / RUN BY / DATE 
format: Swift Navigation SBP-JSON, option:                  COMMENT             
log: .\swift-gnss-20240410-130031.sbp.json                  COMMENT             
                                                            MARKER NAME         
                                                            MARKER NUMBER       
                                                            MARKER TYPE         
                                                            OBSERVER / AGENCY   
                                                            REC # / TYPE / VERS 
                                                            ANT # / TYPE        
  4388883.3571   924301.8656  4519457.8017                  APPROX POSITION XYZ 
        0.0000        0.0000        0.0000                  ANTENNA: DELTA H/E/N
G    8 C1C L1C D1C S1C C2S L2S D2S S2S                      SYS / # / OBS TYPES 
R    8 C1C L1C D1C S1C C2C L2C D2C S2C                      SYS / # / OBS TYPES 
E    8 C1B L1B D1B S1B C7I L7I D7I S7I                      SYS / # / OBS TYPES 
C    8 C2I L2I D2I S2I C7I L7I D7I S7I                      SYS / # / OBS TYPES 
  2024    04    10    11    00   48.0000000     GPS         TIME OF FIRST OBS   
  2024    04    10    11    06   42.0000000     GPS         TIME OF LAST OBS    
G L1C                                                       SYS / PHASE SHIFT   
G L2S  0.00000                                              SYS / PHASE SHIFT   
R L1C                                                       SYS / PHASE SHIFT   
R L2C                                                       SYS / PHASE SHIFT   
E L1B                                                       SYS / PHASE SHIFT   
E L7I                                                       SYS / PHASE SHIFT   
C L2I                                                       SYS / PHASE SHIFT   
C L7I                                                       SYS / PHASE SHIFT   
  5 R12 -1 R13 -2 R21  4 R22 -3 R23  3                      GLONASS SLOT / FRQ #
 C1C    0.000 C1P    0.000 C2C    0.000 C2P    0.000        GLONASS COD/PHS/BIS 
                                                            END OF HEADER       
> 2024 04 10 11 00 48.0000000  0 21       0.000000000000
G28  22164210.180   116473708.195       -2649.152          41.000    22164220.160    90758761.387       -2065.148          47.000  
G18  21186116.140   111333799.570        2022.734          49.500    21186121.540    86753635.273        1575.465          50.000  
G29  21087820.760   110817237.332       -1658.621          55.500    21087821.360    86351102.387       -1293.828          48.500  
G31  21625330.520   113641896.547       -1026.637          45.250    21625335.040    88552157.6561       -801.484          38.750  
G05  23314201.480   122516957.0471        714.133          44.000    23314205.340    95467789.8791        556.711          46.000  
G26  21141615.360   111099928.629        2019.371          46.250    21141620.120    86571375.820        1575.461          44.750  
G25                                                                  22905046.580    93792334.6951      -2542.309          34.000  
R22  19516982.140   104183014.496       -1687.141          53.000    19516989.780    81031233.215       -1312.090          54.500  
R13  19765568.760   105547127.434        1977.887          37.250                                                                  
R12  19544304.460   104402203.203       -1757.195          52.000    19544313.300    81201717.840       -1365.266          52.250  
R23  20072930.200   107376689.914        2251.699          47.250                                                                  
C23  24198778.740   126009355.9771      -3025.680          45.250                                                                  
C28  21600114.640   112477464.383         697.227          51.500                                                                  
C37  22178361.160   115488553.082        -410.395          48.000                                                                  
C08  38336465.440   199628040.770         198.660          45.250    38336465.660   154365050.672         154.176          45.250  
C13  37993137.120   197840237.758         619.313          46.000    37993146.940   152982658.711         479.934          45.750  
E15  25862968.740   135910837.738       -2303.762          46.250    25862979.240   104139472.957       -1764.691          50.250  
E13  23494414.160   123463990.027         382.512          52.750    23494418.880    94602273.281         293.039          50.000  
E21  23408821.960   123014171.676         -49.113          51.000    23408826.520    94257620.152         -37.512          51.000  
E27  25786294.820   135507925.3831      -2272.672          39.500    25786304.900   103830750.941       -1741.641          40.000  
E26  25519714.860   134107018.320        2825.207          45.250    25519719.680   102757346.613        2163.301          47.000  
> 2024 04 10 11 00 49.0000000  0 21       0.000000000000
G28  22164717.400   116476369.930       -2651.633          43.000    22164726.440    90760835.430       -2066.754          47.250  
G18  21185733.480   111331788.504        2020.984          49.500    21185738.700    86752068.219        1574.629          49.750  
G29  21088138.280   110818906.922       -1659.453          55.500    21088139.060    86352403.367       -1294.320          48.250  
G31  21625528.200   113642932.723       -1026.816          46.250    21625532.720    88552965.023        -798.801          40.250  
G05  23314068.460   122516253.973         712.699          44.000    23314071.180    95467242.027         555.734          46.000  
G26  21141231.380   111097918.590        2020.473          44.250    21141237.540    86569809.508        1572.086          44.500  
G25                                                                  22905670.100    93794885.938       -2543.484          35.000  
R22  19517299.740   104184712.422       -1686.992          52.500    19517308.400    81032553.836       -1312.246          54.750  
R13  19765202.420   105545162.637        1978.574          37.250    19765212.000    82090660.0943       1535.461          34.750  
R12  19544635.420   104403970.270       -1756.270          51.750    19544644.180    81203092.223       -1366.020          52.000  
R23  20072511.160   107374448.441        2251.863          47.000                                                                  
C23  24199361.620   126012392.125       -3026.766          45.000                                                                  
C28  21599982.780   112476777.492         697.605          51.750                                                                  
C37  22178441.880   115488974.637        -411.863          48.000                                                                  
C08  38336429.160   199627851.402         199.664          45.500    38336428.740   154364904.277         154.820          43.750  
C13  37993020.660   197839628.344         620.082          46.250    37993029.520   152982187.488         479.230          45.500  
E15  25863409.140   135913152.465       -2304.500          45.250    25863419.420   104141246.609       -1764.020          49.500  
E13  23494343.600   123463618.508         381.938          52.750    23494348.060    94601988.605         291.988          50.000  
E21  23408833.040   123014230.816         -47.633          50.750    23408837.820    94257665.480         -37.887          51.000  
E27  25786730.480   135510207.500       -2270.820          41.500    25786739.280   103832499.570       -1739.242          39.500  
E26  25519179.400   134104204.086        2826.070          45.750    25519184.220   102755190.277        2164.758          47.500  
> 2024 04 10 11 00 50.0000000  0 21       0.000000000000
G28  22165224.440   116479031.063       -2651.727          43.500    22165232.740    90762909.027       -2065.914          47.250  
G18  21185350.820   111329777.016        2021.164          49.750    21185355.820    86750500.809        1574.828          49.500  
G29  21088455.900   110820575.855       -1659.422          55.750    21088456.880    86353703.820       -1292.680          48.250  
G31  21625725.760   113643968.500       -1027.172          47.000    21625729.980    88553772.129        -800.543          39.750  
G05  23313934.960   122515550.590         713.867          44.000    23313937.020    95466693.926         557.035          45.750  
G26  21140846.700   111095907.840        2022.969          43.250    21140855.120    86568242.711        1574.422          44.250  
G25                                                                  22906292.160    93797436.629       -2543.027          35.250  
R22  19517617.240   104186409.957       -1687.930          52.000    19517626.420    81033874.164       -1312.375          54.750  
R13  19764834.760   105543197.500        1975.027          37.500    19764843.220    82089131.590        1534.125          35.000  
R12  19544966.340   104405737.105       -1757.035          51.500    19544974.840    81204466.414       -1366.293          52.000  
R23  20072093.120   107372206.574        2253.199          47.500                                                                  
C23  24199944.520   126015427.578       -3024.617          45.250                                                                  
C28  21599850.700   112476090.004         696.875          51.750                                                                  
C37  22178522.680   115489395.711        -412.031          48.500                                                                  
C08  38336392.200   199627661.355         200.258          45.750    38336391.200   154364757.301         154.504          42.750  
C13  37992904.300   197839018.207         620.555          47.000    37992911.560   152981715.691         478.359          45.250  
E15  25863848.860   135915466.492       -2301.375          44.750    25863859.480   104143019.695       -1765.984          49.000  
E13  23494272.800   123463246.477         381.566          53.000    23494277.140    94601703.535         291.789          50.000  
E21  23408844.280   123014289.289         -48.422          51.000    23408848.960    94257710.281         -37.223          51.000  
E27  25787166.000   135512488.816       -2272.289          42.000    25787173.000   103834247.609       -1742.199          38.000  
E26  25518644.040   134101389.086        2824.164          46.750    25518648.500   102753033.340        2163.492          47.500  
> 2024 04 10 11 00 51.0000000  0 21       0.000000000000
G28  22165729.520   116481682.227       -2649.371          44.000    22165736.900    90764974.871       -2066.648          46.500  
G18  21184966.460   111327755.629        2021.375          49.500    21184971.360    86748925.711        1574.715          49.750  
G29  21088771.480   110822234.703       -1658.633          55.500    21088772.480    86354996.426       -1293.926          48.000  
G31  21625921.380   113644994.512       -1025.730          46.750    21625925.080    88554571.617        -801.973          39.250  
G05  23313799.420   122514837.434         712.473          44.750    23313801.120    95466138.219         555.938          45.750  
G26  21140460.940   111093887.129        2020.070          43.250    21140470.420    86566668.105        1575.285          44.250  
G25                                                                  22906913.000    93799979.430       -2542.578          34.250  
R22  19517932.920   104188097.574       -1688.750          52.250    19517942.660    81035186.758       -1312.988          54.500  
R13  19764464.580   105541222.477        1973.535          37.750    19764472.700    82087595.465        1533.707          34.500  
R12  19545295.280   104407494.109       -1757.891          51.750    19545303.660    81205832.965       -1366.336          52.000  
R23  20071672.940   107369954.746        2249.793          48.000                                                                  
C23  24200525.780   126018452.969       -3025.523          45.750                                                                  
C28  21599716.680   112475392.621         696.680          52.000                                                                  
C37  22178601.720   115489807.020        -412.168          48.500                                                                  
C08  38336353.780   199627461.254         201.625          46.250    38336352.900   154364602.551         155.238          43.250  
C13  37992785.780   197838398.012         619.703          47.750    37992791.940   152981236.090         479.184          44.750  
E15  25864287.340   135917770.418       -2302.617          45.000    25864297.700   104144785.039       -1765.074          49.500  
E13  23494200.080   123462864.508         381.879          53.000    23494204.440    94601410.859         292.516          50.000  
E21  23408853.600   123014337.672         -49.012          51.250    23408858.140    94257747.352         -38.008          51.000  
E27  25787597.800   135514759.984       -2270.578          42.250    25787604.900   103835987.852       -1742.020          38.000  
E26  25518106.160   134098563.914        2824.574          46.500    25518110.720   102750868.594        2165.324          47.250  
> 2024 04 10 11 00 52.0000000  0 21       0.000000000000
G28  22166236.340   116484344.129       -2651.008          43.250    22166243.160    90767049.082       -2065.191          46.250  
G18  21184584.020   111325745.117        2021.184          49.500    21184588.780    86747359.086        1574.762          49.500  
G29  21089089.200   110823904.230       -1659.047          55.000    21089090.060    86356297.367       -1293.152          48.000  
G31  21626119.160   113646031.480       -1024.414          47.000    21626121.740    88555379.637        -801.508          38.750  
G05  23313666.320   122514135.328         712.688          44.750    23313666.960    95465591.117         555.613          45.250  
G26  21140077.900   111091877.172        2023.102          42.250    21140087.880    86565101.910        1575.523          43.500  
G25                                                                  22907535.100    93802530.504       -2542.664          34.250  
R22  19518251.280   104189796.348       -1687.516          52.500    19518261.140    81036508.031       -1312.645          54.500  
R13  19764096.240   105539258.711        1975.172          37.250    19764107.660    82086068.066        1534.320          34.750  
R12  19545626.200   104409262.328       -1758.137          51.750    19545635.180    81207208.242       -1368.039          52.000  
R23  20071254.560   107367714.043        2252.383          48.250                                                                  
C23  24201108.920   126021488.816       -3025.098          45.750                                                                  
C28  21599584.900   112474705.887         698.168          51.750                                                                  
C37  22178682.660   115490229.070        -411.969          48.000                                                                  
C08  38336317.240   199627271.645         200.195          46.250    38336316.460   154364455.926         154.523          43.250  
C13  37992668.840   197837788.305         620.941          47.750    37992674.760   152980764.629         479.215          44.750  
E15  25864728.400   135920085.020       -2305.098          45.000    25864738.080   104146558.551       -1765.531          49.750  
E13  23494129.280   123462493.355         382.297          52.750    23494133.940    94601126.469         292.605          49.750  
E21  23408864.520   123014396.723         -49.359          50.750    23408869.380    94257792.609         -36.738          51.000  
E27  25788032.060   135517041.676       -2272.684          42.500    25788039.020   103837736.176       -1739.359          37.750  
E26  25517570.860   134095749.266        2825.176          46.250    25517575.260   102748711.934        2164.313          47.500  
> 2024 04 10 11 00 53.0000000  0 21       0.000000000000
G28  22166742.480   116487005.777       -2652.023          42.750    22166749.760    90769123.055       -2065.195          46.000  
G18  21184201.500   111323734.406        2019.629          49.500    21184205.940    86745792.309        1574.223          49.250  
G29  21089406.580   110825573.250       -1658.895          54.500    21089407.640    86357597.895       -1292.270          48.250  
G31  21626316.620   113647068.363       -1027.254          47.000    21626318.920    88556187.602        -801.781          39.250  
G05  23313532.220   122513433.055         714.703          43.250    23313532.820    95465043.863         554.223          45.250  
G26  21139695.480   111089866.887        2020.445          42.250    21139705.340    86563535.414        1574.168          44.000  
G25                                                                  22908156.860    93805081.059       -2543.395          34.500  
R22  19518569.820   104191494.871       -1688.664          53.250    19518579.460    81037829.117       -1313.816          54.250  
R13  19763729.020   105537294.754        1973.551          37.250    19763740.980    82084540.629        1534.992          35.000  
R12  19545957.040   104411030.477       -1757.023          52.000    19545966.020    81208583.477       -1367.301          52.250  
R23  20070835.800   107365473.234        2251.477          48.500                                                                  
C23  24201691.900   126024524.219       -3024.777          45.500                                                                  
C28  21599453.100   112474018.813         696.531          51.750                                                                  
C37  22178763.720   115490650.930        -412.398          48.250                                                                  
C08  38336280.820   199627081.445         200.535          46.250    38336280.340   154364308.840         155.391          43.500  
C13  37992551.340   197837177.980         620.789          47.500    37992557.800   152980292.672         481.453          45.500  
E15  25865168.520   135922399.023       -2302.797          45.750    25865178.300   104148331.617       -1765.215          49.750  
E13  23494058.540   123462121.891         382.375          52.750    23494063.240    94600841.840         292.305          49.750  
E21  23408875.780   123014455.305         -48.211          51.250    23408880.460    94257837.500         -36.422          51.000  
E27  25788466.540   135519322.844       -2270.953          43.500    25788473.340   103839484.039       -1740.527          38.000  
E26  25517034.640   134092934.164        2825.996          46.250    25517039.480   102746554.918        2164.234          47.250  
> 2024 04 10 11 00 54.0000000  0 21       0.000000000000
G28  22167249.260   116489667.324       -2652.539          43.500    22167256.180    90771196.988       -2066.695          45.250  
G18  21183819.200   111321723.684        2021.039          49.500    21183823.020    86744225.508        1574.594          48.750  
G29  21089724.300   110827242.031       -1659.113          54.000    21089725.480    86358898.250       -1293.012          48.500  
G31  21626514.620   113648105.383       -1027.395          48.000    21626516.320    88556995.641        -800.102          39.500  
G05  23313397.640   122512730.875         712.234          40.000    23313399.260    95464496.648         554.660          45.500  
G26  21139313.900   111087856.516        2020.066          43.750    21139322.760    86561968.840        1574.367          43.500  
G25                                                                  22908778.640    93807631.441       -2540.535          37.000  
R22  19518888.780   104193193.508       -1688.988          54.250    19518897.020    81039150.262       -1312.625          54.000  
R13  19763361.860   105535331.016        1976.020          36.750    19763373.520    82083013.230        1535.801          35.000  
R12  19546287.900   104412798.832       -1758.832          51.750    19546297.640    81209958.863       -1367.711          52.500  
R23  20070417.220   107363232.527        2251.195          49.000                                                                  
C23  24202275.280   126027559.281       -3025.875          45.250                                                                  
C28  21599320.820   112473331.641         697.059          52.000                                                                  
C37  22178845.160   115491072.836        -411.922          49.250                                                                  
C08  38336244.060   199626890.953         199.363          46.750    38336243.700   154364161.508         154.629          44.500  
C13  37992433.680   197836567.332         621.984          47.250    37992440.960   152979820.461         480.324          47.000  
E15  25865609.540   135924712.703       -2304.102          46.000    25865618.440   104150104.473       -1765.750          50.000  
E13  23493987.560   123461750.332         380.871          52.500    23493992.460    94600557.133         292.574          49.750  
E21  23408886.620   123014513.672         -47.355          51.250    23408891.740    94257882.227         -36.699          51.500  
E27  25788901.980   135521603.633       -2271.219          44.500    25788906.920   103841231.605       -1738.883          36.250  
E26  25516499.520   134090118.711        2824.504          46.750    25516503.840   102744397.660        2166.598          47.500  
> 2024 04 10 11 00 55.0000000  0 21       0.000000000000
G28  22167755.400   116492327.785       -2650.996          43.750    22167762.280    90773270.086       -2066.813          45.500  
G18  21183436.760   111319712.016        2021.844          49.250    21183439.900    86742657.980        1574.938          48.750  
G29  21090041.780   110828909.699       -1658.566          53.750    21090042.960    86360197.715       -1292.031          48.500  
G31  21626712.580   113649141.488       -1028.113          48.000    21626713.960    88557803.012        -798.820          39.750  
G05  23313265.120   122512027.910         711.566          41.250    23313265.460    95463948.887         553.883          45.250  
G26  21138931.600   111085844.941        2020.844          44.000    21138939.800    86560401.375        1574.609          42.750  
G25                                                                  22909402.200    93810180.813       -2541.473          38.250  
R22  19519207.480   104194891.273       -1687.480          54.500    19519214.620    81040470.750       -1313.566          53.500  
R13  19762992.860   105533366.402        1976.609          37.250    19763004.400    82081485.172        1536.656          35.250  
R12  19546618.600   104414566.469       -1757.898          51.750    19546628.820    81211333.691       -1367.789          52.500  
R23  20069998.560   107360990.863        2249.930          49.000                                                                  
C23  24202857.920   126030593.133       -3025.918          45.500                                                                  
C28  21599188.400   112472643.371         696.559          51.750                                                                  
C37  22178925.980   115491493.738        -412.301          49.250                                                                  
C08  38336207.360   199626699.219         201.016          47.250    38336206.860   154364013.242         153.508          43.750  
C13  37992315.980   197835955.469         620.559          47.500    37992323.760   152979347.320         480.660          46.500  
E15  25866049.200   135927025.234       -2303.590          46.250    25866058.360   104151876.418       -1764.371          49.000  
E13  23493916.780   123461377.797         381.797          52.500    23493921.520    94600271.668         291.336          49.750  
E21  23408897.460   123014570.898         -47.605          51.250    23408902.800    94257926.066         -37.184          51.500  
E27  25789336.280   135523883.164       -2270.391          45.250    25789340.460   103842978.313       -1738.195          36.250  
E26  25515963.220   134087301.996        2826.098          46.500    25515968.020   102742239.398        2165.539          48.000  
> 2024 04 10 11 00 56.0000000  0 21       0.000000000000
G28  22168262.080   116494987.871       -2648.910          44.500    22168268.640    90775342.891       -2065.164          46.000  
G18  21183053.740   111317700.090        2021.219          49.750    21183056.760    86741090.254        1574.922          48.750  
G29  21090358.740   110830576.898       -1657.520          54.000    21090360.480    86361496.832       -1292.383          48.500  
G31  21626910.040   113650177.449       -1026.000          48.750    21626910.920    88558610.203        -798.707          39.000  
G05  23313130.860   122511324.797         714.320          41.000    23313131.520    95463401.031         554.668          45.250  
G26  21138549.960   111083833.020        2020.891          45.500    21138556.780    86558833.648        1573.691          43.000  
G25                                                                  22910024.500    93812729.813       -2539.859          37.750  
R22  19519525.520   104196588.875       -1687.379          54.250    19519532.360    81041791.094       -1312.945          53.500  
R13  19762625.760   105531401.648        1975.684          36.750    19762636.540    82079957.113        1534.691          34.500  
R12  19546949.000   104416334.031       -1757.441          51.750    19546959.900    81212708.461       -1366.754          52.500  
R23  20069579.260   107358749.035        2251.289          49.000                                                                  
C23  24203439.840   126033626.477       -3024.125          45.750                                                                  
C28  21599055.920   112471954.730         697.941          51.750                                                                  
C37  22179006.920   115491914.410        -411.598          49.500                                                                  
C08  38336170.660   199626506.988         201.438          47.250    38336170.320   154363864.590         154.598          43.250  
C13  37992198.740   197835343.082         621.531          47.500    37992205.940   152978873.789         480.035          46.000  
E15  25866489.600   135929337.320       -2302.672          45.750    25866498.360   104153648.004       -1764.375          49.000  
E13  23493845.820   123461004.934         382.969          52.250    23493850.440    94599985.973         293.059          49.750  
E21  23408908.100   123014627.660         -47.418          50.500    23408913.680    94257969.559         -36.621          51.750  
E27  25789769.540   135526162.117       -2269.043          44.500    25789773.660   103844724.492       -1737.957          36.250  
E26  25515427.320   134084484.715        2825.961          46.500    25515432.060   102740080.707        2165.816          48.250  
> 2024 04 10 11 00 57.0000000  0 21       0.000000000000
G28  22168768.500   116497648.230       -2652.738          43.750    22168774.880    90777415.914       -2066.090          46.250  
G18  21182671.080   111315688.555        2020.379          49.750    21182673.920    86739522.820        1574.324          49.000  
G29  21090675.860   110832244.223       -1658.477          53.750    21090678.120    86362796.043       -1293.168          48.750  
G31  21627107.180   113651213.895       -1025.121          48.250    21627108.420    88559417.836        -802.137          39.500  
G05  23312997.460   122510622.160         712.438          40.750    23312997.820    95462853.504         553.754          45.000  
G26  21138168.000   111081821.313        2019.605          45.500    21138173.940    86557266.086        1572.965          42.750  
G25                                                                  22910646.140    93815278.785       -2543.051          37.000  
R22  19519843.600   104198286.910       -1688.336          54.250    19519850.340    81043111.789       -1314.422          53.500  
R13  19762256.680   105529437.449        1974.664          36.500    19762270.300    82078429.355        1536.270          35.000  
R12  19547280.220   104418102.176       -1759.004          52.000    19547290.660    81214083.676       -1367.098          52.250  
R23  20069160.660   107356507.668        2250.113          49.000                                                                  
C23  24204021.880   126036659.887       -3023.281          45.250                                                                  
C28  21598923.600   112471266.340         697.871          51.500                                                                  
C37  22179087.640   115492335.445        -411.984          49.250                                                                  
C08  38336133.840   199626314.813         201.367          46.750    38336133.120   154363716.004         155.516          43.250  
C13  37992080.940   197834730.703         621.910          47.000    37992088.280   152978400.254         479.848          46.250  
E15  25866929.140   135931649.453       -2301.805          45.750    25866938.380   104155419.633       -1764.500          49.000  
E13  23493774.680   123460632.371         381.867          52.000    23493779.680    94599700.516         292.598          49.750  
E21  23408918.860   123014684.566         -47.855          50.500    23408924.640    94258013.164         -36.238          51.750  
E27  25790202.980   135528441.090       -2270.242          44.000    25790207.140   103846470.707       -1740.512          36.750  
E26  25514891.560   134081667.516        2826.051          47.000    25514896.040   102737922.063        2163.789          48.000  
> 2024 04 10 11 00 58.0000000  0 21       0.000000000000
G28  22169274.220   116500308.883       -2649.633          43.500    22169281.420    90779489.145       -2066.543          46.500  
G18  21182288.460   111313677.383        2019.984          49.750    21182291.260    86737955.676        1574.965          49.500  
G29  21090993.140   110833911.691       -1657.492          53.750    21090995.520    86364095.371       -1292.398          48.750  
G31  21627304.300   113652250.785       -1027.395          48.000    21627305.260    88560225.805        -801.852          39.250  
G05  23312863.900   122509919.980         711.484          42.750    23312864.060    95462306.383         554.656          44.750  
G26  21137784.660   111079809.820        2021.125          44.750    21137791.460    86555698.707        1574.930          43.500  
G25                                                                  22911269.260    93817827.840       -2541.992          37.000  
R22  19520161.360   104199985.383       -1688.762          54.000    19520168.360    81044432.828       -1313.293          53.500  
R13  19761888.880   105527473.688        1969.750          35.750    19761905.340    82076902.004        1535.023          35.000  
R12  19547611.380   104419870.883       -1759.188          52.000    19547621.500    81215459.332       -1368.027          52.000  
R23  20068741.660   107354266.730        2251.227          49.000                                                                  
C23  24204604.380   126039693.387       -3023.188          44.750                                                                  
C28  21598791.400   112470578.184         698.113          51.250                                                                  
C37  22179168.500   115492756.836        -411.609          48.500                                                                  
C08  38336096.960   199626122.680         201.441          46.250    38336096.180   154363567.434         156.367          42.750  
C13  37991963.260   197834118.371         622.297          46.750    37991970.640   152977926.758         481.145          45.750  
E15  25867368.800   135933961.691       -2301.125          45.500    25867378.480   104157191.344       -1764.121          49.000  
E13  23493703.940   123460260.117         381.543          52.250    23493708.860    94599415.273         292.699          49.750  
E21  23408929.920   123014741.629         -47.859          50.750    23408935.400    94258056.887         -36.477          51.750  
E27  25790636.920   135530720.109       -2270.441          44.250    25790641.000   103848216.973       -1739.535          37.250  
E26  25514355.380   134078850.355        2827.352          47.000    25514359.760   102735763.469        2165.691          48.250  
> 2024 04 10 11 00 59.0000000  0 21       0.000000000000
G28  22169780.340   116502971.012       -2651.203          43.000    22169787.900    90781563.543       -2065.227          47.000  
G18  21181905.780   111311667.820        2021.152          49.500    21181909.020    86736389.781        1574.027          49.500  
G29  21091310.620   110835580.551       -1657.512          53.750    21091313.080    86365395.785       -1292.152          48.500  
G31  21627501.720   113653289.367       -1027.648          47.750    21627503.360    88561035.102        -800.918          40.000  
G05  23312731.160   122509219.520         711.098          44.500    23312730.200    95461760.578         554.000          44.500  
G26  21137402.280   111077799.801        2021.688          44.500    21137409.340    86554132.477        1575.379          43.250  
G25                                                                  22911891.620    93820377.938       -2538.945          36.250  
R22  19520480.100   104201685.578       -1688.652          54.000    19520487.040    81045755.199       -1313.441          53.500  
R13  19761520.240   105525511.766        1975.859          35.500    19761538.980    82075376.023        1536.133          35.000  
R12  19547943.420   104421641.398       -1760.188          52.250    19547952.680    81216836.398       -1368.535          52.250  
R23  20068323.300   107352027.508        2249.941          48.750                                                                  
C23  24205186.480   126042728.176       -3023.367          44.750                                                                  
C28  21598659.780   112469891.500         697.727          51.250                                                                  
C37  22179249.700   115493179.797        -412.754          48.500                                                                  
C08  38336060.400   199625931.836         200.594          46.250    38336059.360   154363419.902         157.063          43.000  
C13  37991845.940   197833507.324         621.316          46.500    37991853.460   152977454.289         480.039          45.750  
E15  25867809.500   135936275.281       -2302.984          45.500    25867818.660   104158964.082       -1764.727          49.250  
E13  23493633.560   123459889.395         381.309          52.500    23493638.240    94599131.230         292.695          50.000  
E21  23408940.880   123014800.090         -47.309          50.750    23408946.400    94258101.676         -36.727          51.750  
E27  25791069.860   135533000.434       -2269.898          43.250    25791074.800   103849964.203       -1737.699          36.250  
E26  25513820.080   134076034.484        2827.305          47.500    25513824.040   102733605.832        2165.602          48.750  
> 2024 04 10 11 01 00.0000000  0 21       0.000000000000
G28  22170286.360   116505633.430       -2653.000          42.750    22170294.480    90783638.141       -2065.645          47.750  
G18  21181523.280   111309658.605        2019.531          49.750    21181526.500    86734824.168        1575.004          49.500  
G29  21091628.460   110837249.527       -1657.988          54.000    21091630.660    86366696.293       -1292.031          48.750  
G31  21627698.900   113654328.418       -1026.391          47.250    21627701.460    88561844.750        -802.176          40.500  
G05  23312598.100   122508519.523         711.168          45.000    23312596.500    95461215.156         556.793          44.250  
G26  21137018.440   111075789.980        2020.586          43.000    21137027.000    86552566.387        1574.898          43.750  
G25                                                                  22912514.740    93822928.055       -2541.219          36.000  
R22  19520798.860   104203386.176       -1689.387          53.750    19520806.080    81047077.902       -1313.570          54.000  
R13  19761155.200   105523550.238        1973.762          35.750    19761171.280    82073850.398        1533.945          35.500  
R12  19548275.320   104423412.461       -1759.891          52.500    19548284.000    81218213.895       -1369.590          52.000  
R23  20067904.600   107349788.738        2250.316          48.500                                                                  
C23  24205768.720   126045763.055       -3022.219          44.750                                                                  
C28  21598528.180   112469205.027         697.555          52.000                                                                  
C37  22179331.140   115493603.125        -410.660          48.750                                                                  
C08  38336023.940   199625741.059         202.020          46.250    38336022.580   154363272.395         157.609          43.250  
C13  37991728.860   197832896.316         621.945          47.000    37991736.260   152976981.816         480.520          45.500  
E15  25868249.880   135938588.938       -2302.387          45.250    25868259.040   104160736.883       -1763.996          49.500  
E13  23493563.120   123459518.945         381.281          52.500    23493567.860    94598847.379         292.074          50.000  
E21  23408952.300   123014858.664         -47.324          50.750    23408957.380    94258146.559         -36.461          51.500  
E27  25791502.380   135535280.707       -2270.859          42.250    25791508.960   103851711.461       -1738.039          36.750  
E26  25513284.140   134073218.660        2828.305          47.250    25513288.220   102731448.262        2166.352          48.500  
> 2024 04 10 11 01 01.0000000  0 21       0.000000000000
G28  22170793.340   116508296.367       -2650.730          42.500    22170801.160    90785713.148       -2066.113          47.500  
G18  21181140.820   111307649.984        2020.574          49.250    21181144.220    86733259.023        1574.613          49.500  
G29  21091946.200   110838918.844       -1657.922          54.000    21091948.400    86367997.055       -1290.199          48.500  
G31  21627897.040   113655368.211       -1027.957          47.500    21627900.020    88562654.992        -800.016          40.250  
G05  23312464.240   122507820.262         710.586          43.250    23312463.440    95460670.250         553.613          44.750  
G26  21136636.480   111073780.711        2019.746          45.000    21136644.520    86551000.719        1576.176          43.750  
G25                                                                  22913136.540    93825478.363       -2542.617          35.500  
R22  19521117.580   104205087.434       -1688.988          53.750    19521124.460    81048401.094       -1313.203          53.500  
R13  19760787.020   105521589.512        1974.023          35.250    19760802.400    82072325.371        1534.602          34.750  
R12  19548606.820   104425184.320       -1759.410          52.250    19548615.640    81219592.016       -1368.973          52.250  
R23  20067486.280   107347550.668        2250.484          47.750                                                                  
C23  24206350.160   126048798.191       -3023.848          43.750                                                                  
C28  21598396.540   112468519.031         697.684          51.750                                                                  
C37  22179412.400   115494027.063        -411.582          49.000                                                                  
C08  38335987.720   199625550.516         201.453          46.250    38335985.680   154363125.066         157.449          42.750  
C13  37991611.900   197832285.516         622.066          47.250    37991618.780   152976509.535         479.492          45.750  
E15  25868689.760   135940902.887       -2302.199          44.750    25868699.300   104162509.918       -1763.500          48.750  
E13  23493492.740   123459149.012         382.426          52.250    23493497.460    94598563.914         293.219          50.000  
E21  23408963.040   123014917.613         -46.551          50.250    23408968.620    94258191.727         -35.633          52.000  
E27  25791936.340   135537561.258       -2268.711          42.000    25791943.140   103853458.883       -1734.438          35.750  
E26  25512748.480   134070403.141        2827.609          47.500    25512752.400   102729290.918        2167.281          48.500  
> 2024 04 10 11 01 02.0000000  0 21       0.000000000000
G28  22171298.000   116510947.238       -2651.691          42.500    22171305.540    90787778.762       -2065.594          47.250  
G18  21180756.300   111305629.449        2020.293          49.500    21180759.680    86731684.570        1573.941          49.500  
G29  21092261.700   110840576.012       -1657.688          53.750    21092263.760    86369288.359       -1292.398          48.500  
G31  21628093.240   113656396.184       -1027.891          48.750    21628095.500    88563455.992        -801.824          40.250  
G05  23312329.120   122507109.145         710.363          43.500    23312328.500    95460116.133         550.625          44.500  
G26  21136253.100   111071759.355        2019.453          46.250    21136259.980    86549425.629        1572.855          42.750  
G25                                                                  22913756.600    93828019.191       -2541.195          34.500  
R22  19521434.500   104206776.676       -1689.609          54.000    19521440.580    81049714.930       -1313.559          53.000  
R13  19760418.500   105519616.750        1972.891          35.000    19760432.760    82070790.992        1534.105          34.000  
R12  19548936.180   104426944.270       -1759.488          52.000    19548944.860    81220960.871       -1369.539          52.000  
R23  20067065.440   107345300.535        2249.012          48.000                                                                  
C23  24206929.460   126051821.207       -3023.875          42.500                                                                  
C28  21598262.240   112467821.102         697.535          51.500                                                                  
C37  22179491.640   115494439.195        -411.195          48.750                                                                  
C08  38335948.760   199625347.883         201.691          46.000    38335946.540   154362968.363         157.430          42.500  
C13  37991492.420   197831662.605         621.480          47.250    37991498.540   152976027.836         480.773          45.250  
E15  25869128.300   135943204.633       -2303.094          45.000    25869137.260   104164273.590       -1763.934          48.750  
E13  23493419.800   123458767.086         381.543          52.000    23493424.740    94598271.270         292.973          50.250  
E21  23408972.360   123014964.438         -47.238          50.250    23408977.520    94258227.602         -36.789          52.000  
E27  25792368.760   135539829.551       -2267.129          41.250    25792372.160   103855196.883       -1739.117          32.750  
E26  25512210.320   134067575.375        2827.270          47.250    25512214.460   102727124.203        2165.809          49.000  
> 2024 04 10 11 01 03.0000000  0 21       0.000000000000
G28  22171804.460   116513610.367       -2651.535          44.250    22171812.020    90789853.867       -2066.375          46.000  
G18  21180374.020   111303621.227        2019.129          49.500    21180377.440    86730119.707        1573.238          49.000  
G29  21092578.980   110842245.031       -1656.520          53.000    21092581.640    86370588.887       -1292.008          48.500  
G31  21628291.700   113657436.469       -1027.793          49.500    21628292.560    88564266.652        -798.563          40.000  
G05  23312195.660   122506410.055         709.613          41.000    23312195.780    95459571.445         553.754          45.000  
G26  21135872.280   111069749.965        2022.563          48.250    21135877.320    86547859.859        1574.453          42.500  
G25                                                                  22914380.600    93830569.121       -2541.008          35.250  
R22  19521754.040   104208478.242       -1689.371          55.500    19521758.940    81051038.367       -1313.406          53.000  
R13  19760052.520   105517656.359        1971.934          34.750    19760065.280    82069266.242        1535.973          35.500  
R12  19549267.920   104428716.887       -1760.656          52.250    19549276.380    81222339.543       -1369.109          51.500  
R23  20066647.020   107343062.949        2249.898          48.500                                                                  
C23  24207513.200   126054856.160       -3023.906          45.500                                                                  
C28  21598130.380   112467135.176         697.902          51.750                                                                  
C37  22179573.240   115494863.465        -410.945          49.750                                                                  
C08  38335911.940   199625156.828         203.055          46.250    38335910.180   154362820.566         156.930          42.250  
C13  37991375.060   197831051.301         623.656          47.250    37991380.820   152975555.063         481.715          44.500  
E15  25869568.560   135945518.031       -2301.395          46.000    25869577.180   104166046.176       -1762.137          48.750  
E13  23493349.060   123458397.285         381.551          52.000    23493354.300    94597987.902         292.832          50.500  
E21  23408984.140   123015023.203         -46.910          51.000    23408988.640    94258272.645         -34.688          51.750  
E27  25792804.380   135542109.672       -2265.371          40.750                                                                  
E26  25511673.280   134064759.613        2827.379          46.250    25511678.000   102724966.660        2167.191          47.000  
> 2024 04 10 11 01 04.0000000  0 21       0.000000000000
G28  22172312.220   116516272.719       -2652.184          44.750    22172317.420    90791928.430       -2065.512          42.750  
G18  21179991.560   111301612.320        2019.410          50.000    21179994.740    86728554.301        1574.621          48.500  
G29  21092895.720   110843913.277       -1656.281          52.750    21092899.420    86371888.824       -1291.523          48.750  
G31  21628490.040   113658476.277       -1028.523          50.250    21628490.100    88565076.902        -802.125          39.750  
G05  23312059.400   122505710.633         709.199          40.500    23312064.160    95459026.480         553.867          45.750  
G26  21135491.340   111067739.934        2020.703          49.750    21135494.260    86546293.641        1574.691          41.750  
G25                                                                  22915003.120    93833118.469       -2540.922          35.750  
R22  19522073.020   104210179.332       -1690.109          56.250    19522077.580    81052361.422       -1314.426          54.000  
R13  19759680.680   105515695.664        1971.816          34.250    19759697.540    82067741.270        1531.918          35.750  
R12  19549599.720   104430488.969       -1760.883          52.750    19549608.140    81223717.828       -1369.938          52.000  
R23  20066227.360   107340824.832        2250.188          49.000                                                                  
C23  24208097.640   126057890.113       -3023.203          46.750                                                                  
C28  21597998.440   112466448.488         697.691          51.750                                                                  
C37  22179655.020   115495287.109        -413.371          51.000                                                                  
C08  38335874.540   199624964.992         201.879          46.500    38335874.260   154362672.180         156.398          43.750  
C13  37991256.500   197830439.176         621.980          46.250    37991264.380   152975081.723         480.117          45.750  
E15  25870010.020   135947830.754       -2300.348          48.000    25870017.760   104167818.242       -1763.234          49.250  
E13  23493278.500   123458026.770         381.027          52.000    23493283.760    94597703.988         292.719          50.250  
E21  23408994.780   123015081.156         -46.785          51.500    23408999.680    94258317.035         -35.840          51.750  
E27  25793239.060   135544388.891       -2269.082          41.000                                                                  
E26  25511135.180   134061942.875        2828.637          44.250    25511141.180   102722808.430        2166.418          45.750  
> 2024 04 10 11 01 05.0000000  0 21       0.000000000000
G28  22172819.680   116518936.805       -2651.773          43.750    22172823.560    90794004.328       -2066.660          42.500  
G18  21179609.640   111299605.313        2019.254          50.000    21179612.720    86726990.402        1573.781          48.500  
G29  21093213.280   110845583.297       -1658.340          52.750    21093217.300    86373190.141       -1290.969          48.500  
G31  21628688.080   113659518.055       -1029.688          50.000    21628688.720    88565888.660        -802.035          40.250  
G05  23311925.240   122505013.414         710.871          40.250    23311932.240    95458483.184         553.020          45.750  
G26  21135109.580   111065731.637        2021.172          49.500    21135111.300    86544728.746        1573.578          42.000  
G25                                                                  22915626.580    93835669.082       -2539.750          36.500  
R22  19522391.980   104211882.488       -1690.984          56.500    19522396.840    81053686.094       -1315.559          54.250  
R13  19759313.160   105513737.047        1972.125          35.250    19759330.180    82066217.922        1533.988          34.750  
R12  19549931.480   104432263.234       -1761.348          53.000    19549940.040    81225097.809       -1369.637          52.000  
R23  20065808.940   107338588.715        2249.285          49.250                                                                  
C23  24208681.540   126060925.727       -3023.621          46.500                                                                  
C28  21597867.020   112465763.570         697.539          51.750                                                                  
C37  22179737.040   115495712.609        -413.488          50.500                                                                  
C08  38335838.080   199624774.844         202.945          46.250    38335837.380   154362525.168         156.758          42.250  
C13  37991138.340   197829828.684         623.836          46.000    37991147.260   152974609.688         482.008          45.750  
E15  25870450.680   135950145.211       -2303.023          48.500    25870458.420   104169591.664       -1762.453          49.250  
E13  23493208.380   123457658.156         380.891          52.500    23493213.480    94597421.555         292.758          50.250  
E21  23409005.980   123015140.824         -47.352          51.750    23409011.000    94258362.773         -35.531          51.750  
E27  25793673.760   135546669.703       -2268.129          41.500                                                                  
E26  25510598.920   134059127.703        2828.184          44.250    25510605.460   102720651.367        2166.641          46.500  
> 2024 04 10 11 01 06.0000000  0 21       0.000000000000
G28  22173326.660   116521601.117       -2652.523          44.750    22173331.020    90796080.391       -2066.875          44.000  
G18  21179227.640   111297598.594        2018.293          50.500    21179230.760    86725426.734        1572.105          48.750  
G29  21093530.960   110847253.391       -1658.094          52.750    21093535.140    86374491.508       -1291.629          48.750  
G31  21628886.440   113660560.246       -1029.633          50.250    21628887.180    88566700.754        -803.293          40.750  
G05  23311792.600   122504316.652         711.461          39.750    23311799.640    95457940.223         553.313          45.750  
G26  21134727.360   111063723.555        2020.453          49.500    21134728.980    86543164.000        1575.281          42.000  
G25                                                                  22916249.100    93838219.648       -2541.500          34.500  
R22  19522711.020   104213586.031       -1691.891          56.500    19522716.080    81055011.074       -1315.914          54.000  
R13  19758948.180   105511778.859        1971.633          35.500    19758963.500    82064694.840        1529.270          33.750  
R12  19550263.620   104434038.000       -1761.992          53.000    19550272.880    81226478.176       -1370.824          52.000  
R23  20065390.560   107336353.008        2248.262          49.500                                                                  
C23  24209264.840   126063961.348       -3023.500          46.250                                                                  
C28  21597735.660   112465078.816         696.477          52.000                                                                  
C37  22179818.600   115496138.426        -413.250          50.750                                                                  
C08  38335801.460   199624584.707         202.859          46.500    38335800.240   154362378.164         158.031          41.250  
C13  37991020.620   197829218.176         622.172          46.000    37991029.400   152974137.605         481.746          44.250  
E15  25870890.460   135952459.707       -2302.281          48.250    25870899.020   104171365.105       -1763.223          48.750  
E13  23493138.020   123457289.766         380.352          52.500    23493143.520    94597139.277         291.773          50.250  
E21  23409017.820   123015200.582         -47.109          52.000    23409022.360    94258408.555         -35.918          51.750  
E27  25794107.600   135548950.516       -2268.867          41.000                                                                  
E26  25510064.060   134056312.523        2827.242          45.250    25510069.580   102718494.254        2164.926          46.000  
> 2024 04 10 11 01 07.0000000  0 21       0.000000000000
G28  22173833.580   116524265.957       -2653.250          45.250    22173838.420    90798156.914       -2068.152          44.500  
G18  21178845.900   111295592.598        2016.887          50.250    21178849.420    86723863.621        1571.707          49.000  
G29  21093848.920   110848923.930       -1658.914          53.000    21093853.040    86375793.223       -1292.703          48.250  
G31  21629084.860   113661603.176       -1030.836          49.750    21629085.860    88567513.449        -803.684          40.750  
G05  23311660.060   122503620.609         708.758          39.000    23311667.220    95457397.844         551.203          45.250  
G26  21134345.300   111061715.957        2018.715          49.500    21134346.460    86541599.645        1573.117          41.750  
G25                                                                  22916872.420    93840770.488       -2540.895          35.500  
R22  19523030.120   104215290.301       -1691.961          56.250    19523035.540    81056336.625       -1316.000          53.750  
R13  19758583.700   105509821.445        1968.250          35.250    19758597.060    82063172.422        1531.625          33.750  
R12  19550595.840   104435813.656       -1763.402          52.750    19550605.440    81227859.230       -1371.293          52.000  
R23  20064973.520   107334118.066        2247.117          49.750                                                                  
C23  24209847.960   126066997.355       -3023.461          46.500                                                                  
C28  21597604.200   112464394.609         696.629          52.250                                                                  
C37  22179900.620   115496564.895        -414.805          51.000                                                                  
C08  38335764.940   199624394.938         202.891          46.500    38335763.740   154362231.434         156.191          40.750  
C13  37990904.040   197828608.031         623.063          46.750    37990912.100   152973665.836         480.152          44.250  
E15  25871330.520   135954774.578       -2302.719          47.750    25871339.320   104173138.844       -1764.270          48.250  
E13  23493067.980   123456921.977         378.945          52.500    23493073.540    94596857.477         291.160          50.500  
E21  23409029.680   123015260.789         -48.207          52.000    23409033.700    94258454.699         -36.895          51.500  
E27  25794541.960   135551231.652       -2267.375          41.250    25794537.300   103863897.5001      -1737.559          30.250  
E26  25509528.060   134053497.758        2826.785          45.750    25509534.000   102716337.477        2167.707          46.000  
> 2024 04 10 11 01 08.0000000  0 21       0.000000000000
G28  22174341.140   116526932.301       -2654.813          45.500    22174345.960    90800234.586       -2067.738          44.500  
G18  21178464.120   111293588.117        2015.945          49.750    21178468.180    86722301.699        1570.082          49.000  
G29  21094167.160   110850595.750       -1659.023          53.250    21094171.220    86377095.938       -1292.973          48.250  
G31  21629283.800   113662647.785       -1032.414          49.750    21629284.900    88568327.441        -804.777          40.500  
G05  23311529.100   122502926.156         707.027          41.000    23311534.580    95456856.727         551.758          45.000  
G26  21133963.700   111059709.805        2017.996          49.500    21133964.560    86540036.406        1573.457          41.500  
G25                                                                  22917495.180    93843322.344       -2542.371          34.750  
