% program   : RTKPOST ver.2.4.3 b34
% inp file  : C:\Users\franc\Desktop\Satellite_Navigation\Workbook_3\Acquisizione_SwiftNav_20240410\swift-gnss-20240410-130031.sbp.obs
% inp file  : C:\Users\franc\Desktop\Satellite_Navigation\Workbook_3\Acquisizione_SwiftNav_20240410\swift-gnss-20240410-130031.sbp.nav
% obs start : 2024/04/10 11:00:48.0 GPST (week2309 298848.0s)
% obs end   : 2024/04/10 11:06:42.0 GPST (week2309 299202.0s)
% pos mode  : Single
% elev mask : 15.0 deg
% ionos opt : Broadcast
% tropo opt : Saastamoinen
% ephemeris : Broadcast
% navi sys  : GPS
%
% (lat/lon/height=WGS84/ellipsoidal,Q=1:fix,2:float,3:sbas,4:dgps,5:single,6:ppp,ns=# of satellites)
%  GPST                  latitude(deg) longitude(deg)  height(m)   Q  ns   sdn(m)   sde(m)   sdu(m)  sdne(m)  sdeu(m)  sdun(m) age(s)  ratio
2024/04/10 11:00:48.000   45.410598315   11.892404604    64.3172   5   6   3.6224   2.8662  10.1327  -1.8667   2.5840  -1.3955   0.00    0.0
2024/04/10 11:00:49.000   45.410610181   11.892398392    66.8160   5   6   3.6228   2.8665  10.1316  -1.8675   2.5839  -1.3965   0.00    0.0
2024/04/10 11:00:50.000   45.410625717   11.892387908    68.1354   5   6   3.6232   2.8667  10.1306  -1.8683   2.5837  -1.3975   0.00    0.0
2024/04/10 11:00:51.000   45.410637529   11.892382164    68.9358   5   6   3.6236   2.8669  10.1296  -1.8691   2.5835  -1.3985   0.00    0.0
2024/04/10 11:00:52.000   45.410642164   11.892379271    69.9777   5   6   3.6239   2.8672  10.1286  -1.8699   2.5834  -1.3995   0.00    0.0
2024/04/10 11:00:53.000   45.410641414   11.892382359    69.0806   5   6   3.6243   2.8674  10.1276  -1.8707   2.5832  -1.4005   0.00    0.0
2024/04/10 11:00:54.000   45.410638567   11.892393169    67.3368   5   6   3.6247   2.8676  10.1266  -1.8714   2.5831  -1.4016   0.00    0.0
2024/04/10 11:00:55.000   45.410635106   11.892393568    68.6553   5   6   3.6251   2.8679  10.1255  -1.8722   2.5829  -1.4026   0.00    0.0
2024/04/10 11:00:56.000   45.410629528   11.892407277    69.1440   5   6   3.6255   2.8681  10.1245  -1.8730   2.5828  -1.4036   0.00    0.0
2024/04/10 11:00:57.000   45.410625900   11.892411535    69.7840   5   6   3.6259   2.8683  10.1235  -1.8738   2.5826  -1.4046   0.00    0.0
2024/04/10 11:00:58.000   45.410627615   11.892405439    69.1101   5   6   3.6262   2.8686  10.1224  -1.8746   2.5825  -1.4056   0.00    0.0
2024/04/10 11:00:59.000   45.410623033   11.892404051    69.9132   5   6   3.6266   2.8688  10.1214  -1.8753   2.5823  -1.4066   0.00    0.0
2024/04/10 11:01:00.000   45.410627578   11.892390611    69.2566   5   6   3.6270   2.8690  10.1204  -1.8761   2.5822  -1.4076   0.00    0.0
2024/04/10 11:01:01.000   45.410624981   11.892398149    68.5669   5   6   3.6274   2.8693  10.1193  -1.8769   2.5820  -1.4086   0.00    0.0
2024/04/10 11:01:02.000   45.410616740   11.892408025    69.0253   5   6   3.6278   2.8695  10.1183  -1.8777   2.5818  -1.4096   0.00    0.0
2024/04/10 11:01:03.000   45.410606177   11.892423250    68.6500   5   6   3.6282   2.8697  10.1173  -1.8785   2.5817  -1.4106   0.00    0.0
2024/04/10 11:01:04.000   45.410604918   11.892452057    66.2283   5   6   3.6285   2.8700  10.1162  -1.8793   2.5815  -1.4116   0.00    0.0
2024/04/10 11:01:05.000   45.410606730   11.892460200    64.6900   5   6   3.6289   2.8702  10.1152  -1.8800   2.5814  -1.4126   0.00    0.0
2024/04/10 11:01:06.000   45.410606648   11.892461229    65.0147   5   6   3.6293   2.8704  10.1141  -1.8808   2.5812  -1.4136   0.00    0.0
2024/04/10 11:01:07.000   45.410605880   11.892460321    64.5666   5   6   3.6297   2.8707  10.1131  -1.8816   2.5810  -1.4146   0.00    0.0
2024/04/10 11:01:08.000   45.410601991   11.892459827    67.0182   5   6   3.6301   2.8709  10.1120  -1.8824   2.5809  -1.4156   0.00    0.0
2024/04/10 11:01:09.000   45.410612256   11.892447735    68.1566   5   6   3.6305   2.8712  10.1110  -1.8832   2.5807  -1.4166   0.00    0.0
2024/04/10 11:01:10.000   45.410625977   11.892436511    65.3495   5   6   3.6309   2.8714  10.1099  -1.8839   2.5806  -1.4176   0.00    0.0
2024/04/10 11:01:11.000   45.410612560   11.892441013    62.2453   5   5   4.4986   2.9859  11.7845  -1.1745   3.4080   3.7511   0.00    0.0
2024/04/10 11:01:12.000   45.410627211   11.892435487    64.8183   5   6   3.6316   2.8719  10.1078  -1.8855   2.5803  -1.4196   0.00    0.0
2024/04/10 11:01:13.000   45.410619514   11.892431906    61.8655   5   6   3.6320   2.8721  10.1068  -1.8863   2.5801  -1.4206   0.00    0.0
2024/04/10 11:01:14.000   45.410631340   11.892425517    62.0385   5   5   5.2383   3.8571  10.1152  -3.6438   2.3514  -0.6072   0.00    0.0
2024/04/10 11:01:15.000   45.410672869   11.892418568    70.4211   5   6   4.3037   3.1788   9.4945  -2.5989   3.6247  -3.2824   0.00    0.0
2024/04/10 11:01:16.000   45.410655026   11.892422540    68.8149   5   7   3.3361   2.6340   9.4081  -1.3845   3.2984  -2.7068   0.00    0.0
2024/04/10 11:01:17.000   45.410629176   11.892439972    64.1838   5   6   3.6336   2.8731  10.1025  -1.8894   2.5795  -1.4246   0.00    0.0
2024/04/10 11:01:18.000   45.410663284   11.892404123    65.0933   5   5   5.2430   3.8601  10.1116  -3.6490   2.3422  -0.5667   0.00    0.0
2024/04/10 11:01:19.000   45.410627241   11.892437253    64.2526   5   7   3.3369   2.6346   9.4045  -1.3870   3.2983  -2.7093   0.00    0.0
2024/04/10 11:01:20.000   45.410662140   11.892411177    62.8743   5   6   4.3053   3.1800   9.4870  -2.6018   3.6219  -3.2810   0.00    0.0
2024/04/10 11:01:21.000   45.410662883   11.892387696    63.0988   5   6   4.3056   3.1803   9.4855  -2.6024   3.6213  -3.2808   0.00    0.0
2024/04/10 11:01:22.000   45.410658371   11.892378384    62.6771   5   4   6.0579   3.9065  11.8372  -3.4055   3.0026   4.2860   0.00    0.0
2024/04/10 11:01:23.000   45.410661226   11.892366612    63.5662   5   4   6.0603   3.9070  11.8385  -3.4074   2.9996   4.2908   0.00    0.0
2024/04/10 11:01:24.000   45.410663667   11.892339535    58.9731   5   5   5.2501   3.8647  10.1062  -3.6568   2.3282  -0.4998   0.00    0.0
2024/04/10 11:01:25.000   45.410659892   11.892334102    60.8872   5   5   5.2513   3.8655  10.1052  -3.6581   2.3259  -0.4877   0.00    0.0
2024/04/10 11:01:26.000   45.410682128   11.892305130    64.7282   5   6   4.3072   3.1815   9.4779  -2.6053   3.6184  -3.2794   0.00    0.0
2024/04/10 11:01:27.000   45.410660883   11.892317091    62.9222   5   5   5.2537   3.8670  10.1034  -3.6608   2.3212  -0.4626   0.00    0.0
2024/04/10 11:01:28.000   45.410666112   11.892303429    61.6166   5   5   5.2549   3.8678  10.1025  -3.6621   2.3189  -0.4496   0.00    0.0
2024/04/10 11:01:29.000   45.410653316   11.892310859    62.9185   5   5   5.2561   3.8686  10.1016  -3.6634   2.3165  -0.4361   0.00    0.0
2024/04/10 11:01:30.000   45.410657010   11.892291478    63.3461   5   6   4.3084   3.1825   9.4719  -2.6076   3.6161  -3.2784   0.00    0.0
2024/04/10 11:01:31.000   45.410626410   11.892308473    63.6901   5   7   3.3400   2.6369   9.3900  -1.3969   3.2981  -2.7192   0.00    0.0
2024/04/10 11:01:32.000   45.410633479   11.892294434    63.5701   5   6   3.6394   2.8767  10.0862  -1.9012   2.5772  -1.4396   0.00    0.0
2024/04/10 11:01:33.000   45.410630301   11.892284205    64.2862   5   7   3.3405   2.6373   9.3876  -1.3985   3.2981  -2.7208   0.00    0.0
2024/04/10 11:01:34.000   45.410626374   11.892278320    64.9773   5   7   3.3407   2.6375   9.3863  -1.3994   3.2981  -2.7217   0.00    0.0
2024/04/10 11:01:35.000   45.410619331   11.892267914    64.8541   5   6   3.9130   2.7599  12.5576  -0.5538   2.0256  -4.9403   0.00    0.0
2024/04/10 11:01:36.000   45.410612430   11.892257816    64.1125   5   6   3.9134   2.7600  12.5546  -0.5561   2.0267  -4.9404   0.00    0.0
2024/04/10 11:01:37.000   45.410605761   11.892250214    63.9477   5   6   3.9138   2.7601  12.5515  -0.5584   2.0278  -4.9405   0.00    0.0
2024/04/10 11:01:38.000   45.410597576   11.892247893    62.5978   5   6   3.9142   2.7602  12.5485  -0.5606   2.0290  -4.9406   0.00    0.0
2024/04/10 11:01:39.000   45.410588506   11.892238516    63.8678   5   6   3.7464   2.9216  10.0879   0.3929   3.9412  -1.0703   0.00    0.0
2024/04/10 11:01:40.000   45.410580582   11.892234084    64.3146   5   6   3.7466   2.9218  10.0872   0.3898   3.9414  -1.0717   0.00    0.0
2024/04/10 11:01:41.000   45.410566952   11.892228860    63.5515   5   7   3.3425   2.6389   9.3778  -1.4051   3.2979  -2.7274   0.00    0.0
2024/04/10 11:01:42.000   45.410558271   11.892229717    63.8512   5   6   3.9157   2.7607  12.5364  -0.5697   2.0335  -4.9409   0.00    0.0
2024/04/10 11:01:43.000   45.410562068   11.892231004    59.3054   5   7   3.3431   2.6393   9.3754  -1.4067   3.2979  -2.7290   0.00    0.0
2024/04/10 11:01:44.000   45.410544137   11.892226271    63.4116   5   6   3.9165   2.7609  12.5303  -0.5742   2.0357  -4.9410   0.00    0.0
2024/04/10 11:01:45.000   45.410532674   11.892230346    64.0433   5   6   3.9169   2.7610  12.5273  -0.5764   2.0368  -4.9411   0.00    0.0
2024/04/10 11:01:46.000   45.410526469   11.892235110    63.8264   5   6   3.9173   2.7611  12.5243  -0.5786   2.0380  -4.9412   0.00    0.0
2024/04/10 11:01:47.000   45.410517631   11.892244385    63.8283   5   6   3.9177   2.7612  12.5212  -0.5808   2.0391  -4.9412   0.00    0.0
2024/04/10 11:01:48.000   45.410515452   11.892249997    61.5848   5   6   3.9181   2.7614  12.5182  -0.5830   2.0402  -4.9413   0.00    0.0
2024/04/10 11:01:49.000   45.410507603   11.892256457    62.7428   5   5   4.2613   3.0303  13.0775   1.3218   2.9833  -4.2503   0.00    0.0
2024/04/10 11:01:50.000   45.410495681   11.892264661    65.3650   5   6   3.7484   2.9236  10.0796   0.3575   3.9429  -1.0860   0.00    0.0
2024/04/10 11:01:51.000   45.410500900   11.892283482    63.8786   5   6   3.9193   2.7617  12.5091  -0.5895   2.0435  -4.9415   0.00    0.0
2024/04/10 11:01:52.000   45.410497146   11.892289643    64.0902   5   5   4.2621   3.0306  13.0701   1.3185   2.9865  -4.2500   0.00    0.0
2024/04/10 11:01:53.000   45.410494383   11.892298460    61.7815   5   7   3.3457   2.6413   9.3630  -1.4149   3.2976  -2.7371   0.00    0.0
2024/04/10 11:01:54.000   45.410486930   11.892308675    62.4852   5   6   3.7492   2.9244  10.0765   0.3437   3.9435  -1.0917   0.00    0.0
2024/04/10 11:01:55.000   45.410475591   11.892321152    64.8089   5   5   4.2630   3.0309  13.0627   1.3152   2.9896  -4.2497   0.00    0.0
2024/04/10 11:01:56.000   45.410468904   11.892334105    63.7571   5   5   4.2633   3.0309  13.0602   1.3141   2.9906  -4.2496   0.00    0.0
2024/04/10 11:01:57.000   45.410468348   11.892347313    64.0414   5   6   3.9217   2.7624  12.4909  -0.6024   2.0500  -4.9420   0.00    0.0
2024/04/10 11:01:58.000   45.410463241   11.892356438    63.0152   5   5   4.2638   3.0311  13.0553   1.3119   2.9927  -4.2494   0.00    0.0
2024/04/10 11:01:59.000   45.410457242   11.892369629    63.2692   5   5   4.2641   3.0312  13.0528   1.3108   2.9937  -4.2493   0.00    0.0
2024/04/10 11:02:00.000   45.410450073   11.892378023    63.0630   5   5   4.2644   3.0313  13.0503   1.3096   2.9947  -4.2492   0.00    0.0
2024/04/10 11:02:01.000   45.410449108   11.892396628    64.3547   5   6   3.9233   2.7629  12.4788  -0.6108   2.0544  -4.9423   0.00    0.0
2024/04/10 11:02:02.000   45.410444128   11.892407802    63.7780   5   6   3.9237   2.7630  12.4758  -0.6129   2.0555  -4.9423   0.00    0.0
2024/04/10 11:02:03.000   45.410416284   11.892399826    72.4360   5   6   3.7509   2.9260  10.0694   0.3103   3.9447  -1.1045   0.00    0.0
2024/04/10 11:02:04.000   45.410440291   11.892435942    64.6500   5   5   3.9257   3.2242  12.5142  -0.7369   2.4465  -4.9529   0.00    0.0
2024/04/10 11:02:05.000   45.410437188   11.892446889    65.4027   5   5   3.9261   3.2244  12.5114  -0.7388   2.4479  -4.9530   0.00    0.0
2024/04/10 11:02:06.000   45.410428715   11.892449355    64.2716   5   4   3.9704   5.3115  24.9976   1.3908  -9.2384  -6.1045   0.00    0.0
2024/04/10 11:02:07.000   45.410420004   11.892473623    59.8364   5   5   3.9700   4.5515  24.5105   1.3229  -8.4903  -6.0754   0.00    0.0
2024/04/10 11:02:08.000   45.410424926   11.892460895    66.6027   5   7   3.3496   2.6443   9.3444  -1.4271   3.2972  -2.7492   0.00    0.0
2024/04/10 11:02:09.000   45.410411622   11.892481595    63.9968   5   5   3.6711   3.3486  10.1334  -2.0793   2.9812  -1.6285   0.00    0.0
2024/04/10 11:02:10.000   45.410409074   11.892508647    57.3552   5   4   3.9709   5.2970  24.8892   1.3719  -9.1874  -6.0866   0.00    0.0
2024/04/10 11:02:11.000   45.410403842   11.892506196    62.6093   5   6   3.6550   2.8863  10.0420  -1.9317   2.5710  -1.4785   0.00    0.0
2024/04/10 11:02:12.000   45.410400036   11.892516437    62.3961   5   6   3.6554   2.8866  10.0408  -1.9325   2.5708  -1.4795   0.00    0.0
2024/04/10 11:02:13.000   45.410398886   11.892532188    62.5625   5   6   3.6558   2.8868  10.0397  -1.9332   2.5706  -1.4805   0.00    0.0
2024/04/10 11:02:14.000   45.410396942   11.892545684    64.5485   5   6   3.6562   2.8871  10.0385  -1.9340   2.5705  -1.4815   0.00    0.0
2024/04/10 11:02:15.000   45.410385961   11.892554945    63.7546   5   5   4.5504   2.9967  11.8230  -1.2535   3.4085   3.8372   0.00    0.0
2024/04/10 11:02:16.000   45.410378916   11.892565805    62.9628   5   4   9.9955   3.9250  13.5546  -4.9123   5.3307  -6.6521   0.00    0.0
2024/04/10 11:02:17.000   45.410371919   11.892573660    64.8003   5   4   9.9958   3.9264  13.5577  -4.9144   5.3333  -6.6550   0.00    0.0
2024/04/10 11:02:18.000   45.410370778   11.892581772    63.7337   5   5   3.9718   4.5235  24.2507   1.2791  -8.3820  -6.0315   0.00    0.0
2024/04/10 11:02:19.000   45.410374643   11.892568160    77.7674   5   5   4.2698   3.0331  13.0032   1.2884   3.0138  -4.2475   0.00    0.0
2024/04/10 11:02:23.000   45.410338796   11.892615585    66.4345   5   5   3.9335   3.2286  12.4594  -0.7720   2.4741  -4.9548   0.00    0.0
2024/04/10 11:02:24.000   45.410330473   11.892631464    60.1095   5   5   3.9728   4.5085  24.1112   1.2550  -8.3239  -6.0080   0.00    0.0
2024/04/10 11:02:25.000   45.410325027   11.892627388    63.0886   5   4   4.3987   4.2073  13.6002   2.1689   4.5691  -3.7150   0.00    0.0
2024/04/10 11:02:26.000   45.410315473   11.892612669    61.8545   5   5   4.2718   3.0337  12.9858   1.2804   3.0206  -4.2469   0.00    0.0
2024/04/10 11:02:29.000   45.410315426   11.892607897    96.4080   5   5   4.2727   3.0340  12.9784   1.2770   3.0235  -4.2467   0.00    0.0
2024/04/10 11:02:30.000   45.410270481   11.892592519    71.7438   5   4   8.9430  15.1144  42.4301  10.8226 -23.9486 -17.7845   0.00    0.0
2024/04/10 11:02:31.000   45.410278621   11.892641307    65.3448   5   6   3.9355   2.7664  12.3881  -0.6709   2.0861  -4.9445   0.00    0.0
2024/04/10 11:02:32.000   45.410271791   11.892636926    64.4267   5   6   3.9359   2.7666  12.3851  -0.6728   2.0872  -4.9446   0.00    0.0
2024/04/10 11:02:33.000   45.410251321   11.892638291    65.0121   5   6   3.9363   2.7667  12.3821  -0.6747   2.0882  -4.9446   0.00    0.0
2024/04/10 11:02:34.000   45.410252918   11.892644728    65.5700   5   5   5.2177   3.2147  12.8482  -2.4623   3.1616  -6.0192   0.00    0.0
2024/04/10 11:02:35.000   45.410236967   11.892655650    66.2819   5   5   5.2180   3.2149  12.8441  -2.4630   3.1613  -6.0180   0.00    0.0
2024/04/10 11:02:36.000   45.410231204   11.892641550    64.5013   5   5   5.3730   5.2674  10.0007  -4.5074   5.2356  -4.6631   0.00    0.0
2024/04/10 11:02:37.000   45.410218134   11.892654079    63.9584   5   7   3.3575   2.6502   9.3077  -1.4505   3.2961  -2.7722   0.00    0.0
2024/04/10 11:02:38.000   45.410210566   11.892658514    63.7567   5   7   3.3577   2.6504   9.3064  -1.4513   3.2961  -2.7730   0.00    0.0
2024/04/10 11:02:39.000   45.410204194   11.892664524    63.5911   5   7   3.3580   2.6506   9.3052  -1.4521   3.2961  -2.7738   0.00    0.0
2024/04/10 11:02:40.000   45.410200621   11.892674032    64.4462   5   7   3.3583   2.6508   9.3039  -1.4529   3.2960  -2.7745   0.00    0.0
2024/04/10 11:02:41.000   45.410193747   11.892681971    65.2801   5   7   3.3586   2.6510   9.3026  -1.4537   3.2960  -2.7753   0.00    0.0
2024/04/10 11:02:42.000   45.410187251   11.892690391    64.2997   5   7   3.3588   2.6512   9.3013  -1.4545   3.2959  -2.7761   0.00    0.0
2024/04/10 11:02:43.000   45.410181908   11.892696026    64.4976   5   7   3.3591   2.6514   9.3000  -1.4553   3.2959  -2.7769   0.00    0.0
2024/04/10 11:02:44.000   45.410178220   11.892700645    63.8648   5   7   3.3594   2.6516   9.2988  -1.4561   3.2959  -2.7777   0.00    0.0
2024/04/10 11:02:45.000   45.410171055   11.892705299    64.8068   5   7   3.3597   2.6518   9.2975  -1.4569   3.2958  -2.7785   0.00    0.0
2024/04/10 11:02:46.000   45.410161534   11.892708666    64.4993   5   7   3.3599   2.6520   9.2962  -1.4577   3.2958  -2.7792   0.00    0.0
2024/04/10 11:02:47.000   45.410150640   11.892714588    64.2711   5   7   3.3602   2.6522   9.2949  -1.4585   3.2957  -2.7800   0.00    0.0
2024/04/10 11:02:48.000   45.410144180   11.892723713    64.4451   5   7   3.3605   2.6524   9.2936  -1.4593   3.2957  -2.7808   0.00    0.0
2024/04/10 11:02:49.000   45.410134685   11.892732782    63.8142   5   7   3.3608   2.6526   9.2923  -1.4601   3.2957  -2.7816   0.00    0.0
2024/04/10 11:02:50.000   45.410124173   11.892738913    64.4787   5   7   3.3611   2.6528   9.2910  -1.4609   3.2956  -2.7824   0.00    0.0
2024/04/10 11:02:51.000   45.410113863   11.892743473    64.6405   5   7   3.3613   2.6530   9.2898  -1.4617   3.2956  -2.7831   0.00    0.0
2024/04/10 11:02:52.000   45.410101952   11.892741747    65.5390   5   7   3.3616   2.6532   9.2885  -1.4626   3.2955  -2.7839   0.00    0.0
2024/04/10 11:02:53.000   45.410095040   11.892740695    64.6741   5   7   3.3619   2.6534   9.2872  -1.4634   3.2955  -2.7847   0.00    0.0
2024/04/10 11:02:54.000   45.410088191   11.892742839    64.3886   5   7   3.3622   2.6536   9.2859  -1.4642   3.2955  -2.7855   0.00    0.0
2024/04/10 11:02:55.000   45.410079582   11.892742355    64.5469   5   7   3.3624   2.6538   9.2846  -1.4650   3.2954  -2.7862   0.00    0.0
2024/04/10 11:02:56.000   45.410067041   11.892742967    64.4454   5   7   3.3627   2.6541   9.2833  -1.4657   3.2954  -2.7870   0.00    0.0
2024/04/10 11:02:57.000   45.410058058   11.892741800    64.7836   5   7   3.3630   2.6543   9.2820  -1.4665   3.2953  -2.7878   0.00    0.0
2024/04/10 11:02:58.000   45.410048678   11.892740389    64.9085   5   7   3.3633   2.6545   9.2807  -1.4673   3.2953  -2.7886   0.00    0.0
2024/04/10 11:02:59.000   45.410041019   11.892738097    64.6751   5   7   3.3636   2.6547   9.2794  -1.4681   3.2952  -2.7893   0.00    0.0
2024/04/10 11:03:00.000   45.410029974   11.892737690    65.3432   5   7   3.3638   2.6549   9.2781  -1.4689   3.2952  -2.7901   0.00    0.0
2024/04/10 11:03:01.000   45.410019849   11.892736092    66.5336   5   7   3.3641   2.6551   9.2768  -1.4697   3.2952  -2.7909   0.00    0.0
2024/04/10 11:03:02.000   45.410009623   11.892733438    66.0440   5   7   3.3644   2.6553   9.2755  -1.4705   3.2951  -2.7916   0.00    0.0
2024/04/10 11:03:03.000   45.410002904   11.892730516    65.3169   5   7   3.3647   2.6555   9.2742  -1.4713   3.2951  -2.7924   0.00    0.0
2024/04/10 11:03:04.000   45.409994482   11.892727296    64.8447   5   7   3.3649   2.6557   9.2729  -1.4721   3.2950  -2.7932   0.00    0.0
2024/04/10 11:03:05.000   45.409986162   11.892725310    64.2273   5   7   3.3652   2.6559   9.2716  -1.4729   3.2950  -2.7940   0.00    0.0
2024/04/10 11:03:06.000   45.409976546   11.892724892    64.4980   5   7   3.3655   2.6561   9.2703  -1.4737   3.2949  -2.7947   0.00    0.0
2024/04/10 11:03:07.000   45.409968631   11.892722242    64.8756   5   7   3.3658   2.6563   9.2690  -1.4745   3.2949  -2.7955   0.00    0.0
2024/04/10 11:03:08.000   45.409958700   11.892719705    64.6540   5   7   3.3661   2.6565   9.2677  -1.4753   3.2949  -2.7963   0.00    0.0
2024/04/10 11:03:09.000   45.409949747   11.892717328    64.8679   5   7   3.3664   2.6567   9.2664  -1.4761   3.2948  -2.7970   0.00    0.0
2024/04/10 11:03:10.000   45.409943158   11.892713980    65.0551   5   7   3.3666   2.6570   9.2651  -1.4769   3.2948  -2.7978   0.00    0.0
2024/04/10 11:03:11.000   45.409934713   11.892713928    65.3101   5   7   3.3669   2.6572   9.2638  -1.4777   3.2947  -2.7986   0.00    0.0
2024/04/10 11:03:12.000   45.409925893   11.892710991    65.4992   5   7   3.3672   2.6574   9.2625  -1.4785   3.2947  -2.7993   0.00    0.0
2024/04/10 11:03:13.000   45.409914587   11.892707939    64.9435   5   7   3.3675   2.6576   9.2612  -1.4793   3.2946  -2.8001   0.00    0.0
2024/04/10 11:03:15.000   45.409897216   11.892704350    64.4933   5   7   3.3680   2.6580   9.2586  -1.4809   3.2945  -2.8016   0.00    0.0
2024/04/10 11:03:16.000   45.409887805   11.892700872    64.2408   5   7   3.3683   2.6582   9.2573  -1.4817   3.2945  -2.8024   0.00    0.0
2024/04/10 11:03:17.000   45.409877616   11.892696802    64.7607   5   7   3.3686   2.6584   9.2560  -1.4825   3.2945  -2.8032   0.00    0.0
2024/04/10 11:03:18.000   45.409866983   11.892695096    64.8183   5   7   3.3689   2.6586   9.2546  -1.4833   3.2944  -2.8039   0.00    0.0
2024/04/10 11:03:19.000   45.409858519   11.892688486    64.6677   5   7   3.3692   2.6588   9.2533  -1.4841   3.2944  -2.8047   0.00    0.0
2024/04/10 11:03:20.000   45.409849738   11.892689305    65.1258   5   7   3.3695   2.6590   9.2520  -1.4849   3.2943  -2.8054   0.00    0.0
2024/04/10 11:03:21.000   45.409841518   11.892686675    65.0126   5   7   3.3697   2.6592   9.2507  -1.4857   3.2943  -2.8062   0.00    0.0
2024/04/10 11:03:22.000   45.409828936   11.892683282    64.0009   5   6   3.7665   2.9405  10.0017  -0.3153   3.9530  -1.2155   0.00    0.0
2024/04/10 11:03:23.000   45.409821480   11.892682536    63.6219   5   6   3.7667   2.9407  10.0008  -0.3193   3.9530  -1.2169   0.00    0.0
2024/04/10 11:03:24.000   45.409798339   11.892684863    64.8536   5   4  10.0217   4.0223  13.7688  -5.0546   5.5042  -6.8554   0.00    0.0
2024/04/10 11:03:25.000   45.409792249   11.892687581    64.7587   5   4  10.0222   4.0237  13.7720  -5.0567   5.5067  -6.8584   0.00    0.0
2024/04/10 11:03:26.000   45.409788254   11.892683323    64.5900   5   4  10.0226   4.0252  13.7751  -5.0588   5.5093  -6.8615   0.00    0.0
2024/04/10 11:03:45.000   45.409607863   11.892646048    61.5883   5   4  10.8924   4.0808  12.6104   4.1801   3.5441  -4.9865   0.00    0.0
2024/04/10 11:03:47.000   45.409593284   11.892652205    65.4958   5   4  10.8988   4.0799  12.6008   4.1788   3.5359  -5.0030   0.00    0.0
2024/04/10 11:03:51.000   45.409602799   11.892716776    61.9379   5   4   7.3130   4.0219  13.4578  -3.5109   2.9234   6.7632   0.00    0.0
2024/04/10 11:03:52.000   45.409600232   11.892732253    63.2449   5   4   7.3134   4.0225  13.4516  -3.5138   2.9180   6.7605   0.00    0.0
2024/04/10 11:03:53.000   45.409592963   11.892749080    62.6141   5   5   5.4383   3.9893   9.9649  -3.8620   1.9444   1.2345   0.00    0.0
2024/04/10 11:03:54.000   45.409588505   11.892759714    63.0537   5   5   5.4396   3.9902   9.9639  -3.8634   1.9415   1.2393   0.00    0.0
2024/04/10 11:03:55.000   45.409587945   11.892772897    63.8250   5   5   5.4409   3.9911   9.9630  -3.8649   1.9386   1.2440   0.00    0.0
2024/04/10 11:03:56.000   45.409588268   11.892782431    63.1990   5   5   5.4423   3.9921   9.9620  -3.8663   1.9358   1.2488   0.00    0.0
2024/04/10 11:03:57.000   45.409583515   11.892793526    63.6225   5   5   5.4436   3.9930   9.9610  -3.8678   1.9329   1.2535   0.00    0.0
2024/04/10 11:03:58.000   45.409579488   11.892805577    63.4287   5   4   5.4548   5.7749  23.2720  -3.6884  -9.1654  -2.3042   0.00    0.0
2024/04/10 11:03:59.000   45.409574442   11.892822219    64.2097   5   5   3.9949   4.3008  22.0911   0.8336  -7.4780  -5.6782   0.00    0.0
2024/04/10 11:04:00.000   45.409571341   11.892836848    62.1201   5   5   3.9952   4.2989  22.0716   0.8285  -7.4698  -5.6751   0.00    0.0
2024/04/10 11:04:01.000   45.409567455   11.892845986    63.7460   5   6   3.7012   2.9155   9.9031  -2.0180   2.5535  -1.5873   0.00    0.0
2024/04/10 11:04:02.000   45.409564021   11.892858365    61.2223   5   5   3.9957   4.2951  22.0327   0.8182  -7.4534  -5.6690   0.00    0.0
2024/04/10 11:04:03.000   45.409563405   11.892867294    62.7634   5   5   3.9960   4.2932  22.0133   0.8131  -7.4452  -5.6659   0.00    0.0
2024/04/10 11:04:04.000   45.409569133   11.892880633    61.5974   5   5   3.9963   4.2913  21.9939   0.8079  -7.4371  -5.6629   0.00    0.0
2024/04/10 11:04:05.000   45.409569126   11.892876719    68.6433   5   6   3.7029   2.9166   9.8977  -2.0212   2.5529  -1.5913   0.00    0.0
2024/04/10 11:04:06.000   45.409576776   11.892889751    67.2438   5   6   3.7034   2.9169   9.8963  -2.0220   2.5527  -1.5923   0.00    0.0
2024/04/10 11:04:07.000   45.409581391   11.892902923    66.6761   5   6   3.7038   2.9172   9.8950  -2.0228   2.5526  -1.5932   0.00    0.0
2024/04/10 11:04:08.000   45.409588679   11.892919202    62.2526   5   5   3.9975   4.2838  21.9167   0.7868  -7.4046  -5.6508   0.00    0.0
2024/04/10 11:04:09.000   45.409598466   11.892943061    59.2081   5   5   3.9978   4.2819  21.8975   0.7815  -7.3965  -5.6478   0.00    0.0
2024/04/10 11:04:10.000   45.409596432   11.892931699    63.6991   5   5   3.9981   4.2800  21.8784   0.7762  -7.3885  -5.6448   0.00    0.0
2024/04/10 11:04:11.000   45.409598184   11.892943686    62.7075   5   4   9.2774  15.3076  41.3326  11.1192 -23.8758 -18.0416   0.00    0.0
2024/04/10 11:04:12.000   45.409600987   11.892951540    63.6940   5   5   3.9987   4.2763  21.8401   0.7654  -7.3724  -5.6388   0.00    0.0
2024/04/10 11:04:13.000   45.409586176   11.892967591    69.9265   5   7   3.3849   2.6703   9.1814  -1.5266   3.2915  -2.8452   0.00    0.0
2024/04/10 11:04:14.000   45.409607770   11.892990889    62.3931   5   6   3.9795   2.7797  12.0796  -0.8477   2.1853  -4.9523   0.00    0.0
2024/04/10 11:04:15.000   45.409609355   11.893000323    61.6331   5   7   3.3855   2.6707   9.1787  -1.5282   3.2914  -2.8467   0.00    0.0
2024/04/10 11:04:16.000   45.409607465   11.893015740    63.3716   5   7   3.3858   2.6709   9.1774  -1.5290   3.2913  -2.8474   0.00    0.0
2024/04/10 11:04:17.000   45.409609450   11.893031880    63.5667   5   6   3.9809   2.7801  12.0707  -0.8524   2.1879  -4.9526   0.00    0.0
2024/04/10 11:04:18.000   45.409604475   11.893042741    64.3636   5   6   3.9813   2.7803  12.0677  -0.8539   2.1888  -4.9527   0.00    0.0
2024/04/10 11:04:19.000   45.409594695   11.893050910    63.7454   5   4   7.0243   5.8384  14.8112   5.3803   6.9048   4.9263   0.00    0.0
2024/04/10 11:04:20.000   45.409594787   11.893063242    63.1741   5   4   7.0236   5.8364  14.8015   5.3782   6.8986   4.9172   0.00    0.0
2024/04/10 11:04:21.000   45.409611721   11.893104171    66.9084   5   6   3.6903   3.3463  11.1956   0.7747   4.8753   1.1292   0.00    0.0
2024/04/10 11:04:23.000   45.409600734   11.893106485    64.5909   5   4   5.3918   3.5542  13.1625  -2.1553   4.0174  -5.4152   0.00    0.0
2024/04/10 11:04:24.000   45.409597880   11.893121588    64.0603   5   5   4.5776   3.5462  10.0252  -2.3094   4.2643  -2.2403   0.00    0.0
2024/04/10 11:04:25.000   45.409599584   11.893139143    65.3963   5   5   4.5780   3.5463  10.0238  -2.3102   4.2637  -2.2397   0.00    0.0
2024/04/10 11:04:26.000   45.409593180   11.893153859    66.6646   5   5   4.5784   3.5465  10.0225  -2.3109   4.2632  -2.2392   0.00    0.0
2024/04/10 11:04:27.000   45.409592587   11.893161616    66.2587   5   5   4.5788   3.5466  10.0212  -2.3116   4.2626  -2.2386   0.00    0.0
2024/04/10 11:04:28.000   45.409601705   11.893172183    61.8807   5   5   4.3106   3.0457  12.6783   1.1316   3.1246  -4.2436   0.00    0.0
2024/04/10 11:04:29.000   45.409596319   11.893195127    63.5421   5   5   4.5796   3.5469  10.0185  -2.3131   4.2615  -2.2375   0.00    0.0
2024/04/10 11:04:30.000   45.409594307   11.893194102    61.7712   5   6   3.7811   2.9527   9.9360  -0.5233   3.9564  -1.3090   0.00    0.0
2024/04/10 11:04:31.000   45.409592442   11.893210091    63.0163   5   6   3.7813   2.9529   9.9349  -0.5258   3.9565  -1.3104   0.00    0.0
2024/04/10 11:04:32.000   45.409592544   11.893236509    64.3720   5   5   3.8941   4.1877  11.1150   1.5750   5.5188   1.7068   0.00    0.0
2024/04/10 11:04:33.000   45.409600230   11.893249175    65.6655   5   7   3.3909   2.6746   9.1543  -1.5423   3.2903  -2.8599   0.00    0.0
2024/04/10 11:04:34.000   45.409601077   11.893261823    64.5027   5   6   4.3700   3.2319   9.1902  -2.7168   3.5106  -3.2343   0.00    0.0
2024/04/10 11:04:35.000   45.409616782   11.893259136    63.2934   5   7   3.3915   2.6750   9.1516  -1.5438   3.2902  -2.8614   0.00    0.0
2024/04/10 11:04:36.000   45.409604118   11.893285248    64.4225   5   6   4.3707   3.2325   9.1871  -2.7180   3.5095  -3.2339   0.00    0.0
2024/04/10 11:04:37.000   45.409599951   11.893302550    64.1755   5   7   3.3921   2.6754   9.1489  -1.5454   3.2900  -2.8628   0.00    0.0
2024/04/10 11:04:38.000   45.409595412   11.893319952    64.3860   5   6   3.4011   3.1448   9.3113  -1.6711   3.7010  -2.9364   0.00    0.0
2024/04/10 11:04:39.000   45.409594356   11.893329756    64.6103   5   6   3.4014   3.1452   9.3101  -1.6718   3.7012  -2.9372   0.00    0.0
2024/04/10 11:04:40.000   45.409595608   11.893344170    64.7309   5   7   3.3930   2.6761   9.1448  -1.5477   3.2898  -2.8650   0.00    0.0
2024/04/10 11:04:41.000   45.409599669   11.893349143    64.3804   5   7   3.3933   2.6763   9.1434  -1.5485   3.2898  -2.8657   0.00    0.0
2024/04/10 11:04:42.000   45.409599983   11.893360365    63.9342   5   7   3.3936   2.6765   9.1420  -1.5493   3.2897  -2.8664   0.00    0.0
2024/04/10 11:04:43.000   45.409596811   11.893371103    63.3213   5   7   3.3939   2.6767   9.1407  -1.5500   3.2897  -2.8672   0.00    0.0
2024/04/10 11:04:44.000   45.409594732   11.893386944    63.6217   5   7   3.3943   2.6770   9.1393  -1.5508   3.2896  -2.8679   0.00    0.0
2024/04/10 11:04:45.000   45.409590883   11.893400294    63.9131   5   7   3.3946   2.6772   9.1379  -1.5516   3.2895  -2.8686   0.00    0.0
2024/04/10 11:04:46.000   45.409587167   11.893414737    63.7793   5   7   3.3949   2.6774   9.1366  -1.5524   3.2895  -2.8693   0.00    0.0
2024/04/10 11:04:47.000   45.409580964   11.893428987    64.1774   5   7   3.3952   2.6776   9.1352  -1.5532   3.2894  -2.8700   0.00    0.0
2024/04/10 11:04:48.000   45.409575533   11.893442321    63.8783   5   7   3.3955   2.6778   9.1338  -1.5539   3.2893  -2.8708   0.00    0.0
2024/04/10 11:04:49.000   45.409572292   11.893454256    64.1349   5   7   3.3958   2.6780   9.1325  -1.5547   3.2893  -2.8715   0.00    0.0
2024/04/10 11:04:50.000   45.409567545   11.893467212    64.1134   5   7   3.3961   2.6783   9.1311  -1.5555   3.2892  -2.8722   0.00    0.0
2024/04/10 11:04:51.000   45.409563186   11.893479981    64.1743   5   7   3.3964   2.6785   9.1297  -1.5563   3.2891  -2.8729   0.00    0.0
2024/04/10 11:04:52.000   45.409563214   11.893490451    63.3025   5   7   3.3967   2.6787   9.1283  -1.5570   3.2891  -2.8736   0.00    0.0
2024/04/10 11:04:53.000   45.409560051   11.893506009    63.6796   5   7   3.3970   2.6789   9.1270  -1.5578   3.2890  -2.8744   0.00    0.0
2024/04/10 11:04:54.000   45.409557889   11.893516956    64.1799   5   7   3.3973   2.6791   9.1256  -1.5586   3.2890  -2.8751   0.00    0.0
2024/04/10 11:04:55.000   45.409559545   11.893530242    63.8775   5   7   3.3976   2.6794   9.1242  -1.5594   3.2889  -2.8758   0.00    0.0
2024/04/10 11:04:56.000   45.409558474   11.893545454    64.1954   5   7   3.3979   2.6796   9.1228  -1.5601   3.2888  -2.8765   0.00    0.0
2024/04/10 11:04:57.000   45.409557107   11.893559294    64.2596   5   7   3.3982   2.6798   9.1215  -1.5609   3.2888  -2.8772   0.00    0.0
2024/04/10 11:04:58.000   45.409556644   11.893570926    64.1750   5   7   3.3986   2.6800   9.1201  -1.5617   3.2887  -2.8780   0.00    0.0
2024/04/10 11:04:59.000   45.409556051   11.893584179    63.8358   5   7   3.3989   2.6802   9.1187  -1.5625   3.2886  -2.8787   0.00    0.0
2024/04/10 11:05:00.000   45.409554872   11.893598259    64.2346   5   7   3.3992   2.6805   9.1173  -1.5632   3.2886  -2.8794   0.00    0.0
2024/04/10 11:05:01.000   45.409553029   11.893609947    64.1534   5   7   3.3995   2.6807   9.1160  -1.5640   3.2885  -2.8801   0.00    0.0
2024/04/10 11:05:02.000   45.409551843   11.893625204    63.6981   5   7   3.3998   2.6809   9.1146  -1.5648   3.2884  -2.8808   0.00    0.0
2024/04/10 11:05:03.000   45.409549356   11.893637426    63.9604   5   7   3.4001   2.6811   9.1132  -1.5655   3.2884  -2.8815   0.00    0.0
2024/04/10 11:05:04.000   45.409548164   11.893650897    64.4012   5   7   3.4004   2.6813   9.1118  -1.5663   3.2883  -2.8822   0.00    0.0
2024/04/10 11:05:05.000   45.409544845   11.893663037    63.8066   5   7   3.4007   2.6816   9.1104  -1.5671   3.2882  -2.8830   0.00    0.0
2024/04/10 11:05:06.000   45.409542566   11.893680565    64.3087   5   7   3.4010   2.6818   9.1091  -1.5679   3.2882  -2.8837   0.00    0.0
2024/04/10 11:05:07.000   45.409542743   11.893693322    63.9171   5   7   3.4013   2.6820   9.1077  -1.5686   3.2881  -2.8844   0.00    0.0
2024/04/10 11:05:08.000   45.409541726   11.893709293    64.1813   5   8   2.9328   2.1865   6.5415   0.4630   0.9844   1.6106   0.00    0.0
2024/04/10 11:05:09.000   45.409540018   11.893721420    64.1938   5   8   2.9327   2.1866   6.5413   0.4621   0.9847   1.6098   0.00    0.0
2024/04/10 11:05:10.000   45.409537458   11.893736286    63.9367   5   8   2.9327   2.1866   6.5410   0.4612   0.9850   1.6090   0.00    0.0
2024/04/10 11:05:11.000   45.409536180   11.893748606    64.3188   5   8   2.9326   2.1867   6.5408   0.4603   0.9853   1.6082   0.00    0.0
2024/04/10 11:05:12.000   45.409535834   11.893762267    64.0302   5   8   2.9325   2.1868   6.5406   0.4594   0.9855   1.6074   0.00    0.0
2024/04/10 11:05:13.000   45.409534237   11.893777380    63.8058   5   8   2.9325   2.1869   6.5404   0.4584   0.9858   1.6066   0.00    0.0
2024/04/10 11:05:14.000   45.409531038   11.893791373    63.6959   5   8   2.9324   2.1870   6.5401   0.4575   0.9861   1.6058   0.00    0.0
2024/04/10 11:05:15.000   45.409530036   11.893804341    63.3691   5   8   2.9324   2.1870   6.5399   0.4566   0.9864   1.6050   0.00    0.0
2024/04/10 11:05:16.000   45.409529292   11.893818961    63.8079   5   8   2.9323   2.1871   6.5397   0.4557   0.9867   1.6041   0.00    0.0
2024/04/10 11:05:17.000   45.409529056   11.893830807    64.2070   5   8   2.9322   2.1872   6.5395   0.4547   0.9869   1.6033   0.00    0.0
2024/04/10 11:05:18.000   45.409527387   11.893846062    63.8261   5   8   2.9322   2.1873   6.5392   0.4538   0.9872   1.6025   0.00    0.0
2024/04/10 11:05:19.000   45.409527762   11.893859285    63.9696   5   8   2.9321   2.1873   6.5390   0.4529   0.9875   1.6017   0.00    0.0
2024/04/10 11:05:20.000   45.409528137   11.893872861    63.6627   5   8   2.9321   2.1874   6.5388   0.4520   0.9878   1.6009   0.00    0.0
2024/04/10 11:05:21.000   45.409525089   11.893885805    63.4356   5   8   2.9320   2.1875   6.5385   0.4510   0.9881   1.6001   0.00    0.0
2024/04/10 11:05:22.000   45.409526741   11.893902007    63.3193   5   8   2.9320   2.1876   6.5383   0.4501   0.9884   1.5992   0.00    0.0
2024/04/10 11:05:23.000   45.409525279   11.893912828    63.4446   5   8   2.9319   2.1877   6.5381   0.4492   0.9886   1.5984   0.00    0.0
2024/04/10 11:05:24.000   45.409521570   11.893925246    63.5534   5   8   2.9318   2.1877   6.5379   0.4482   0.9889   1.5976   0.00    0.0
2024/04/10 11:05:25.000   45.409519693   11.893939020    63.8399   5   8   2.9318   2.1878   6.5376   0.4473   0.9892   1.5968   0.00    0.0
2024/04/10 11:05:26.000   45.409519495   11.893951970    63.8371   5   8   2.9317   2.1879   6.5374   0.4463   0.9895   1.5960   0.00    0.0
2024/04/10 11:05:27.000   45.409521970   11.893964644    63.6477   5   8   2.9317   2.1880   6.5372   0.4454   0.9898   1.5951   0.00    0.0
2024/04/10 11:05:28.000   45.409523755   11.893974002    64.0101   5   8   2.9316   2.1880   6.5369   0.4444   0.9900   1.5943   0.00    0.0
2024/04/10 11:05:29.000   45.409525001   11.893979837    64.1734   5   8   2.9316   2.1881   6.5367   0.4435   0.9903   1.5935   0.00    0.0
2024/04/10 11:05:30.000   45.409525322   11.893982978    63.8095   5   8   2.9315   2.1882   6.5364   0.4425   0.9906   1.5927   0.00    0.0
2024/04/10 11:05:31.000   45.409524980   11.893983252    64.1071   5   8   2.9315   2.1883   6.5362   0.4416   0.9909   1.5918   0.00    0.0
2024/04/10 11:05:32.000   45.409528016   11.893985409    63.9234   5   8   2.9314   2.1884   6.5360   0.4406   0.9912   1.5910   0.00    0.0
2024/04/10 11:05:33.000   45.409528581   11.893984985    64.0970   5   8   2.9313   2.1884   6.5357   0.4397   0.9915   1.5902   0.00    0.0
2024/04/10 11:05:34.000   45.409527398   11.893984393    62.5051   5   7   3.3222   2.5029   7.4442  -1.3064  -1.8290   2.8459   0.00    0.0
2024/04/10 11:05:35.000   45.409526701   11.893981589    61.9690   5   7   3.3223   2.5030   7.4442  -1.3068  -1.8290   2.8457   0.00    0.0
2024/04/10 11:05:36.000   45.409523595   11.893984120    61.6684   5   8   2.9312   2.1887   6.5350   0.4368   0.9923   1.5877   0.00    0.0
2024/04/10 11:05:37.000   45.409527151   11.893986165    60.8108   5   8   2.9311   2.1888   6.5348   0.4358   0.9926   1.5869   0.00    0.0
2024/04/10 11:05:38.000   45.409528796   11.893985479    60.9546   5   8   2.9311   2.1888   6.5345   0.4349   0.9929   1.5860   0.00    0.0
2024/04/10 11:05:39.000   45.409531992   11.893979703    59.8590   5   8   2.9310   2.1889   6.5343   0.4339   0.9932   1.5852   0.00    0.0
2024/04/10 11:05:40.000   45.409533786   11.893982202    60.9951   5   8   2.9310   2.1890   6.5341   0.4329   0.9934   1.5844   0.00    0.0
2024/04/10 11:05:41.000   45.409532778   11.893984260    60.9859   5   8   2.9309   2.1891   6.5338   0.4319   0.9937   1.5835   0.00    0.0
2024/04/10 11:05:42.000   45.409532899   11.893986700    61.3620   5   8   2.9308   2.1892   6.5336   0.4310   0.9940   1.5827   0.00    0.0
2024/04/10 11:05:43.000   45.409535636   11.893989486    61.3724   5   8   2.9308   2.1892   6.5333   0.4300   0.9943   1.5819   0.00    0.0
2024/04/10 11:05:44.000   45.409535459   11.893988367    61.7038   5   8   2.9307   2.1893   6.5331   0.4290   0.9946   1.5810   0.00    0.0
2024/04/10 11:05:45.000   45.409534468   11.893987245    61.2887   5   8   2.9307   2.1894   6.5328   0.4280   0.9948   1.5802   0.00    0.0
2024/04/10 11:05:46.000   45.409534678   11.893985870    61.0977   5   8   2.9306   2.1895   6.5326   0.4270   0.9951   1.5794   0.00    0.0
2024/04/10 11:05:47.000   45.409533396   11.893985989    62.0756   5   8   2.9306   2.1895   6.5324   0.4260   0.9954   1.5785   0.00    0.0
2024/04/10 11:05:48.000   45.409532764   11.893984868    62.4321   5   8   2.9305   2.1896   6.5321   0.4251   0.9957   1.5777   0.00    0.0
2024/04/10 11:05:49.000   45.409534453   11.893982948    62.1830   5   8   2.9305   2.1897   6.5319   0.4241   0.9960   1.5768   0.00    0.0
2024/04/10 11:05:50.000   45.409534967   11.893982894    62.6593   5   8   2.9304   2.1898   6.5316   0.4231   0.9963   1.5760   0.00    0.0
2024/04/10 11:05:51.000   45.409534970   11.893984386    62.6138   5   8   2.9304   2.1899   6.5314   0.4221   0.9965   1.5752   0.00    0.0
2024/04/10 11:05:52.000   45.409534863   11.893984683    62.5749   5   8   2.9303   2.1899   6.5311   0.4211   0.9968   1.5743   0.00    0.0
2024/04/10 11:05:53.000   45.409534932   11.893986291    63.0412   5   8   2.9302   2.1900   6.5309   0.4201   0.9971   1.5735   0.00    0.0
2024/04/10 11:05:54.000   45.409535609   11.893989153    62.8454   5   8   2.9302   2.1901   6.5306   0.4191   0.9974   1.5726   0.00    0.0
2024/04/10 11:05:55.000   45.409536029   11.893988177    62.9246   5   8   2.9301   2.1902   6.5304   0.4181   0.9977   1.5718   0.00    0.0
2024/04/10 11:05:56.000   45.409537253   11.893985871    62.5385   5   8   2.9301   2.1903   6.5301   0.4170   0.9979   1.5709   0.00    0.0
2024/04/10 11:05:57.000   45.409540028   11.893986292    62.5858   5   8   2.9300   2.1903   6.5299   0.4160   0.9982   1.5701   0.00    0.0
2024/04/10 11:05:58.000   45.409536876   11.893989155    63.3268   5   8   2.9300   2.1904   6.5296   0.4150   0.9985   1.5693   0.00    0.0
2024/04/10 11:05:59.000   45.409537088   11.893988159    63.5738   5   8   2.9299   2.1905   6.5294   0.4140   0.9988   1.5684   0.00    0.0
2024/04/10 11:06:00.000   45.409537794   11.893985922    63.5407   5   8   2.9299   2.1906   6.5291   0.4130   0.9991   1.5676   0.00    0.0
2024/04/10 11:06:01.000   45.409537595   11.893983913    63.2827   5   8   2.9298   2.1907   6.5289   0.4120   0.9994   1.5667   0.00    0.0
2024/04/10 11:06:02.000   45.409537895   11.893983668    63.6835   5   8   2.9298   2.1908   6.5286   0.4109   0.9996   1.5659   0.00    0.0
2024/04/10 11:06:03.000   45.409537888   11.893983733    63.6781   5   8   2.9297   2.1908   6.5284   0.4099   0.9999   1.5650   0.00    0.0
2024/04/10 11:06:04.000   45.409537285   11.893983480    63.7500   5   8   2.9297   2.1909   6.5281   0.4089   1.0002   1.5642   0.00    0.0
2024/04/10 11:06:05.000   45.409534792   11.893983571    63.5281   5   8   2.9296   2.1910   6.5278   0.4078   1.0005   1.5633   0.00    0.0
2024/04/10 11:06:06.000   45.409534745   11.893982501    62.8242   5   8   2.9296   2.1911   6.5276   0.4068   1.0008   1.5625   0.00    0.0
2024/04/10 11:06:07.000   45.409534937   11.893983160    62.7673   5   8   2.9295   2.1912   6.5273   0.4058   1.0010   1.5616   0.00    0.0
2024/04/10 11:06:08.000   45.409536921   11.893982891    62.7116   5   8   2.9295   2.1912   6.5271   0.4047   1.0013   1.5607   0.00    0.0
2024/04/10 11:06:09.000   45.409536808   11.893984127    62.5369   5   8   2.9294   2.1913   6.5268   0.4037   1.0016   1.5599   0.00    0.0
2024/04/10 11:06:10.000   45.409538366   11.893985739    62.5084   5   8   2.9294   2.1914   6.5266   0.4026   1.0019   1.5590   0.00    0.0
2024/04/10 11:06:11.000   45.409538747   11.893985983    62.5021   5   8   2.9293   2.1915   6.5263   0.4016   1.0022   1.5582   0.00    0.0
2024/04/10 11:06:12.000   45.409538284   11.893985895    62.3416   5   8   2.9293   2.1916   6.5260   0.4005   1.0025   1.5573   0.00    0.0
2024/04/10 11:06:13.000   45.409538837   11.893987269    62.4747   5   8   2.9292   2.1916   6.5258   0.3995   1.0027   1.5565   0.00    0.0
2024/04/10 11:06:14.000   45.409539118   11.893987682    62.7228   5   8   2.9292   2.1917   6.5255   0.3984   1.0030   1.5556   0.00    0.0
2024/04/10 11:06:15.000   45.409538021   11.893988397    63.0932   5   8   2.9291   2.1918   6.5253   0.3974   1.0033   1.5547   0.00    0.0
2024/04/10 11:06:16.000   45.409537209   11.893988458    63.1764   5   8   2.9290   2.1919   6.5250   0.3963   1.0036   1.5539   0.00    0.0
2024/04/10 11:06:17.000   45.409536210   11.893986056    62.5550   5   8   2.9290   2.1920   6.5247   0.3952   1.0039   1.5530   0.00    0.0
2024/04/10 11:06:18.000   45.409534718   11.893985570    62.5160   5   8   2.9289   2.1921   6.5245   0.3942   1.0041   1.5522   0.00    0.0
2024/04/10 11:06:19.000   45.409534189   11.893981747    62.4587   5   8   2.9289   2.1921   6.5242   0.3931   1.0044   1.5513   0.00    0.0
2024/04/10 11:06:20.000   45.409532274   11.893982097    62.7695   5   8   2.9288   2.1922   6.5239   0.3920   1.0047   1.5504   0.00    0.0
2024/04/10 11:06:21.000   45.409531764   11.893980358    63.1962   5   8   2.9288   2.1923   6.5237   0.3909   1.0050   1.5496   0.00    0.0
2024/04/10 11:06:22.000   45.409531665   11.893979956    63.4321   5   8   2.9287   2.1924   6.5234   0.3899   1.0053   1.5487   0.00    0.0
2024/04/10 11:06:23.000   45.409530987   11.893979464    63.2896   5   8   2.9287   2.1925   6.5232   0.3888   1.0055   1.5478   0.00    0.0
2024/04/10 11:06:24.000   45.409530064   11.893977303    62.9760   5   8   2.9286   2.1926   6.5229   0.3877   1.0058   1.5470   0.00    0.0
2024/04/10 11:06:25.000   45.409529804   11.893977133    62.4588   5   8   2.9286   2.1926   6.5226   0.3866   1.0061   1.5461   0.00    0.0
2024/04/10 11:06:26.000   45.409529940   11.893976644    62.2535   5   8   2.9285   2.1927   6.5224   0.3855   1.0064   1.5452   0.00    0.0
2024/04/10 11:06:27.000   45.409530083   11.893975949    62.1684   5   8   2.9285   2.1928   6.5221   0.3844   1.0067   1.5444   0.00    0.0
2024/04/10 11:06:28.000   45.409530299   11.893976673    61.8447   5   8   2.9284   2.1929   6.5218   0.3833   1.0069   1.5435   0.00    0.0
2024/04/10 11:06:29.000   45.409531582   11.893979223    62.1766   5   8   2.9284   2.1930   6.5215   0.3822   1.0072   1.5426   0.00    0.0
2024/04/10 11:06:30.000   45.409533670   11.893980077    61.5728   5   8   2.9284   2.1930   6.5213   0.3811   1.0075   1.5418   0.00    0.0
2024/04/10 11:06:31.000   45.409536119   11.893979505    61.7534   5   8   2.9283   2.1931   6.5210   0.3800   1.0078   1.5409   0.00    0.0
2024/04/10 11:06:32.000   45.409535530   11.893982021    61.6668   5   8   2.9283   2.1932   6.5207   0.3789   1.0081   1.5400   0.00    0.0
2024/04/10 11:06:33.000   45.409535415   11.893984428    62.3313   5   8   2.9282   2.1933   6.5205   0.3778   1.0083   1.5391   0.00    0.0
2024/04/10 11:06:34.000   45.409537414   11.893983715    62.1509   5   8   2.9282   2.1934   6.5202   0.3767   1.0086   1.5383   0.00    0.0
2024/04/10 11:06:35.000   45.409537125   11.893984861    61.4641   5   8   2.9281   2.1935   6.5199   0.3755   1.0089   1.5374   0.00    0.0
2024/04/10 11:06:36.000   45.409537658   11.893986164    61.2093   5   8   2.9281   2.1935   6.5196   0.3744   1.0092   1.5365   0.00    0.0
2024/04/10 11:06:37.000   45.409536609   11.893986672    60.6366   5   8   2.9280   2.1936   6.5194   0.3733   1.0095   1.5356   0.00    0.0
2024/04/10 11:06:38.000   45.409535816   11.893988080    61.0427   5   8   2.9280   2.1937   6.5191   0.3721   1.0097   1.5348   0.00    0.0
2024/04/10 11:06:39.000   45.409536626   11.893987352    60.6848   5   8   2.9279   2.1938   6.5188   0.3710   1.0100   1.5339   0.00    0.0
2024/04/10 11:06:40.000   45.409534897   11.893988129    61.0472   5   8   2.9279   2.1939   6.5186   0.3699   1.0103   1.5330   0.00    0.0
2024/04/10 11:06:41.000   45.409535496   11.893988128    61.3081   5   8   2.9278   2.1940   6.5183   0.3687   1.0106   1.5321   0.00    0.0
2024/04/10 11:06:42.000   45.409533932   11.893987981    61.4352   5   8   2.9278   2.1940   6.5180   0.3676   1.0109   1.5312   0.00    0.0
