% program   : RTKPOST ver.2.4.3 b34
% inp file  : C:\Users\franc\Desktop\Università\Satellite_Navigation\GNSS_SPP\Acquisizione_SwiftNav_20240410\swift-gnss-20240410-123737.sbp.obs
% inp file  : C:\Users\franc\Desktop\Università\Satellite_Navigation\GNSS_SPP\Acquisizione_SwiftNav_20240410\swift-gnss-20240410-123737.sbp.nav
% obs start : 2024/04/10 10:37:55.0 GPST (week2309 297475.0s)
% obs end   : 2024/04/10 10:59:25.0 GPST (week2309 298765.0s)
% pos mode  : Single
% elev mask : 15.0 deg
% ionos opt : Broadcast
% tropo opt : Saastamoinen
% ephemeris : Broadcast
% navi sys  : GPS GLONASS Galileo BDS
%
% (lat/lon/height=WGS84/ellipsoidal,Q=1:fix,2:float,3:sbas,4:dgps,5:single,6:ppp,ns=# of satellites)
%  GPST                  latitude(deg) longitude(deg)  height(m)   Q  ns   sdn(m)   sde(m)   sdu(m)  sdne(m)  sdeu(m)  sdun(m) age(s)  ratio
2024/04/10 10:37:55.000   45.410590177   11.892417322    69.5914   5  16   2.5686   2.9554   6.9789  -0.7966   2.6007  -2.0694   0.00    0.0
2024/04/10 10:37:56.000   45.410591461   11.892414797    69.3112   5  16   2.5687   2.9555   6.9780  -0.7974   2.6009  -2.0691   0.00    0.0
2024/04/10 10:37:57.000   45.410589893   11.892417045    69.5495   5  16   2.5689   2.9556   6.9771  -0.7982   2.6012  -2.0689   0.00    0.0
2024/04/10 10:37:58.000   45.410594542   11.892412786    69.4252   5  16   2.5690   2.9558   6.9762  -0.7990   2.6014  -2.0686   0.00    0.0
2024/04/10 10:37:59.000   45.410594007   11.892413673    70.2602   5  16   2.5691   2.9559   6.9754  -0.7998   2.6016  -2.0684   0.00    0.0
2024/04/10 10:38:00.000   45.410594203   11.892413490    70.2147   5  16   2.5693   2.9560   6.9745  -0.8006   2.6019  -2.0681   0.00    0.0
2024/04/10 10:38:01.000   45.410592850   11.892414049    69.6197   5  16   2.5694   2.9561   6.9736  -0.8014   2.6021  -2.0678   0.00    0.0
2024/04/10 10:38:02.000   45.410595413   11.892417333    69.1235   5  16   2.5695   2.9562   6.9727  -0.8022   2.6024  -2.0676   0.00    0.0
2024/04/10 10:38:03.000   45.410595243   11.892418968    68.8412   5  16   2.5696   2.9563   6.9719  -0.8030   2.6026  -2.0673   0.00    0.0
2024/04/10 10:38:04.000   45.410600120   11.892421653    68.2087   5  16   2.5698   2.9564   6.9710  -0.8038   2.6028  -2.0671   0.00    0.0
2024/04/10 10:38:05.000   45.410600354   11.892421534    68.3083   5  16   2.5699   2.9566   6.9701  -0.8046   2.6031  -2.0668   0.00    0.0
2024/04/10 10:38:06.000   45.410600812   11.892422154    67.4998   5  16   2.5700   2.9567   6.9692  -0.8054   2.6033  -2.0665   0.00    0.0
2024/04/10 10:38:07.000   45.410595068   11.892424892    69.2250   5  16   2.5702   2.9568   6.9683  -0.8062   2.6035  -2.0663   0.00    0.0
2024/04/10 10:38:08.000   45.410596080   11.892416437    69.5711   5  16   2.5703   2.9569   6.9675  -0.8070   2.6037  -2.0660   0.00    0.0
2024/04/10 10:38:09.000   45.410593534   11.892417671    69.8722   5  16   2.5704   2.9570   6.9666  -0.8078   2.6040  -2.0657   0.00    0.0
2024/04/10 10:38:10.000   45.410589329   11.892420199    69.6619   5  16   2.5705   2.9571   6.9657  -0.8086   2.6042  -2.0655   0.00    0.0
2024/04/10 10:38:11.000   45.410588796   11.892412658    68.2922   5  16   2.5707   2.9573   6.9648  -0.8094   2.6044  -2.0652   0.00    0.0
2024/04/10 10:38:12.000   45.410586742   11.892411919    67.8127   5  16   2.5708   2.9574   6.9639  -0.8102   2.6047  -2.0650   0.00    0.0
2024/04/10 10:38:13.000   45.410587731   11.892405587    67.2193   5  16   2.5709   2.9575   6.9631  -0.8110   2.6049  -2.0647   0.00    0.0
2024/04/10 10:38:14.000   45.410588599   11.892410324    65.5205   5  16   2.5711   2.9576   6.9622  -0.8118   2.6051  -2.0644   0.00    0.0
2024/04/10 10:38:15.000   45.410585300   11.892409331    64.9686   5  16   2.5712   2.9577   6.9613  -0.8126   2.6053  -2.0642   0.00    0.0
2024/04/10 10:38:16.000   45.410581964   11.892407240    65.7326   5  16   2.5713   2.9578   6.9604  -0.8134   2.6056  -2.0639   0.00    0.0
2024/04/10 10:38:17.000   45.410584781   11.892404743    64.6767   5  16   2.5715   2.9580   6.9595  -0.8141   2.6058  -2.0637   0.00    0.0
2024/04/10 10:38:18.000   45.410579902   11.892401038    65.6576   5  16   2.5716   2.9581   6.9586  -0.8149   2.6060  -2.0634   0.00    0.0
2024/04/10 10:38:19.000   45.410585919   11.892401978    65.1847   5  16   2.5717   2.9582   6.9578  -0.8157   2.6062  -2.0632   0.00    0.0
2024/04/10 10:38:20.000   45.410582295   11.892382587    69.5632   5  18   2.4713   2.5138   6.4760  -0.8389   2.9960  -1.6468   0.00    0.0
2024/04/10 10:38:21.000   45.410591129   11.892397620    67.4684   5  17   2.5599   2.5832   6.9390  -0.5555   2.7379  -2.0918   0.00    0.0
2024/04/10 10:38:22.000   45.410588012   11.892402633    67.7460   5  17   2.5600   2.5833   6.9381  -0.5563   2.7382  -2.0916   0.00    0.0
2024/04/10 10:38:23.000   45.410571827   11.892380798    74.5701   5  18   2.4716   2.5144   6.4746  -0.8406   2.9963  -1.6468   0.00    0.0
2024/04/10 10:38:24.000   45.410573538   11.892378532    75.1588   5  18   2.4717   2.5145   6.4742  -0.8411   2.9964  -1.6468   0.00    0.0
2024/04/10 10:38:25.000   45.410590762   11.892398251    69.3152   5  17   2.5603   2.5839   6.9353  -0.5586   2.7389  -2.0910   0.00    0.0
2024/04/10 10:38:26.000   45.410590097   11.892398264    69.3714   5  17   2.5604   2.5841   6.9344  -0.5594   2.7391  -2.0908   0.00    0.0
2024/04/10 10:38:27.000   45.410573197   11.892370960    78.3808   5  18   2.4720   2.5151   6.4729  -0.8428   2.9968  -1.6468   0.00    0.0
2024/04/10 10:38:28.000   45.410597967   11.892404648    71.1789   5  18   2.4724   2.3812   6.0695  -0.9919   2.0347  -2.5693   0.00    0.0
2024/04/10 10:38:29.000   45.410587825   11.892385702    75.7822   5  19   2.3750   2.2981   5.5811  -1.1892   2.3729  -2.2274   0.00    0.0
2024/04/10 10:38:30.000   45.410597686   11.892390012    74.0641   5  19   2.3751   2.2983   5.5809  -1.1896   2.3733  -2.2273   0.00    0.0
2024/04/10 10:38:31.000   45.410595293   11.892392172    74.5395   5  19   2.3752   2.2985   5.5808  -1.1900   2.3736  -2.2273   0.00    0.0
2024/04/10 10:38:32.000   45.410592122   11.892391636    75.4916   5  19   2.3753   2.2988   5.5807  -1.1904   2.3739  -2.2272   0.00    0.0
2024/04/10 10:38:33.000   45.410586278   11.892397659    76.9560   5  18   2.5778   2.2990   5.9510  -1.1973   2.3809  -2.6514   0.00    0.0
2024/04/10 10:38:34.000   45.410593449   11.892399271    75.5065   5  19   2.3754   2.2992   5.5804  -1.1912   2.3745  -2.2271   0.00    0.0
2024/04/10 10:38:35.000   45.410589064   11.892404018    75.7087   5  19   2.3755   2.2994   5.5803  -1.1916   2.3748  -2.2271   0.00    0.0
2024/04/10 10:38:36.000   45.410589005   11.892406049    74.8092   5  19   2.3756   2.2996   5.5802  -1.1921   2.3752  -2.2270   0.00    0.0
2024/04/10 10:38:37.000   45.410587885   11.892407481    74.4764   5  18   2.5782   2.2999   5.9511  -1.1994   2.3826  -2.6517   0.00    0.0
2024/04/10 10:38:38.000   45.410588218   11.892411508    72.9212   5  18   2.5784   2.3001   5.9511  -1.1999   2.3831  -2.6518   0.00    0.0
2024/04/10 10:38:39.000   45.410588093   11.892412161    71.5621   5  18   2.5785   2.3003   5.9512  -1.2004   2.3835  -2.6519   0.00    0.0
2024/04/10 10:38:40.000   45.410589132   11.892418129    70.4316   5  18   2.5786   2.3005   5.9512  -1.2009   2.3839  -2.6519   0.00    0.0
2024/04/10 10:38:41.000   45.410594509   11.892418108    70.7339   5  17   2.6030   2.3200   6.1491  -1.2448   2.2853  -2.5464   0.00    0.0
2024/04/10 10:38:42.000   45.410598135   11.892413504    70.5981   5  17   2.6031   2.3202   6.1492  -1.2453   2.2857  -2.5464   0.00    0.0
2024/04/10 10:38:43.000   45.410595436   11.892415842    70.8581   5  17   2.6032   2.3204   6.1494  -1.2457   2.2862  -2.5465   0.00    0.0
2024/04/10 10:38:44.000   45.410595366   11.892417507    71.0361   5  17   2.6033   2.3206   6.1496  -1.2462   2.2866  -2.5465   0.00    0.0
2024/04/10 10:38:45.000   45.410596573   11.892419665    70.0597   5  17   2.6034   2.3208   6.1498  -1.2467   2.2871  -2.5465   0.00    0.0
2024/04/10 10:38:46.000   45.410596907   11.892420932    70.2762   5  17   2.6035   2.3210   6.1499  -1.2472   2.2875  -2.5465   0.00    0.0
2024/04/10 10:38:47.000   45.410598823   11.892422330    70.4287   5  17   2.6036   2.3212   6.1501  -1.2477   2.2879  -2.5465   0.00    0.0
2024/04/10 10:38:48.000   45.410599937   11.892419316    71.1260   5  17   2.6037   2.3214   6.1503  -1.2482   2.2884  -2.5465   0.00    0.0
2024/04/10 10:38:49.000   45.410603079   11.892419283    70.2647   5  17   2.6038   2.3216   6.1504  -1.2486   2.2888  -2.5465   0.00    0.0
2024/04/10 10:38:50.000   45.410605669   11.892420402    69.3881   5  17   2.6040   2.3218   6.1506  -1.2491   2.2893  -2.5466   0.00    0.0
2024/04/10 10:38:51.000   45.410601893   11.892418071    70.5636   5  17   2.6041   2.3220   6.1508  -1.2496   2.2897  -2.5466   0.00    0.0
2024/04/10 10:38:52.000   45.410606113   11.892416077    69.8388   5  17   2.6042   2.3222   6.1510  -1.2501   2.2901  -2.5466   0.00    0.0
2024/04/10 10:38:53.000   45.410605290   11.892408598    70.2520   5  17   2.6043   2.3224   6.1511  -1.2506   2.2906  -2.5466   0.00    0.0
2024/04/10 10:38:54.000   45.410600251   11.892405261    71.9335   5  17   2.6044   2.3226   6.1513  -1.2511   2.2910  -2.5466   0.00    0.0
2024/04/10 10:38:58.000   45.410627735   11.892381519    76.5162   5  17   2.7859   2.3938   6.7408  -0.8853   1.9151  -3.2190   0.00    0.0
2024/04/10 10:38:59.000   45.410626789   11.892382036    75.3451   5  17   2.7860   2.3939   6.7405  -0.8861   1.9159  -3.2189   0.00    0.0
2024/04/10 10:39:00.000   45.410625178   11.892377944    75.6749   5  17   2.7860   2.3941   6.7401  -0.8869   1.9166  -3.2188   0.00    0.0
2024/04/10 10:39:01.000   45.410623481   11.892378307    75.7456   5  17   2.7861   2.3943   6.7397  -0.8877   1.9174  -3.2187   0.00    0.0
2024/04/10 10:39:02.000   45.410621726   11.892377051    76.1010   5  17   2.7862   2.3944   6.7394  -0.8885   1.9182  -3.2186   0.00    0.0
2024/04/10 10:39:03.000   45.410619084   11.892379065    75.6762   5  17   2.7862   2.3946   6.7390  -0.8893   1.9189  -3.2185   0.00    0.0
2024/04/10 10:39:04.000   45.410618953   11.892377145    76.9034   5  17   2.7863   2.3948   6.7387  -0.8901   1.9197  -3.2184   0.00    0.0
2024/04/10 10:39:05.000   45.410609529   11.892365005    80.8579   5  18   2.5812   2.3058   5.9518  -1.2137   2.3944  -2.6536   0.00    0.0
2024/04/10 10:39:06.000   45.410607354   11.892361020    81.7966   5  18   2.5813   2.3060   5.9519  -1.2142   2.3948  -2.6537   0.00    0.0
2024/04/10 10:39:07.000   45.410615980   11.892371329    77.1120   5  17   2.7865   2.3953   6.7376  -0.8925   1.9220  -3.2180   0.00    0.0
2024/04/10 10:39:08.000   45.410614426   11.892371501    78.6662   5  17   2.7866   2.3954   6.7372  -0.8933   1.9228  -3.2179   0.00    0.0
2024/04/10 10:39:09.000   45.410592262   11.892380413    74.7880   5  17   2.6061   2.3256   6.1538  -1.2583   2.2975  -2.5468   0.00    0.0
2024/04/10 10:39:10.000   45.410594681   11.892372816    75.0902   5  17   2.6062   2.3258   6.1539  -1.2588   2.2980  -2.5468   0.00    0.0
2024/04/10 10:39:11.000   45.410590658   11.892373729    74.9795   5  17   2.6063   2.3260   6.1541  -1.2592   2.2984  -2.5468   0.00    0.0
2024/04/10 10:39:12.000   45.410587302   11.892374142    76.1181   5  17   2.6064   2.3262   6.1542  -1.2597   2.2988  -2.5469   0.00    0.0
2024/04/10 10:39:13.000   45.410589508   11.892371353    76.3443   5  17   2.6065   2.3264   6.1544  -1.2602   2.2992  -2.5469   0.00    0.0
2024/04/10 10:39:14.000   45.410584736   11.892369351    77.6118   5  17   2.6066   2.3265   6.1545  -1.2607   2.2997  -2.5469   0.00    0.0
2024/04/10 10:39:15.000   45.410611029   11.892398412    66.5523   5  17   2.4024   2.2491   6.5351   0.6871  -0.0917  -2.4552   0.00    0.0
2024/04/10 10:39:16.000   45.410605642   11.892400241    67.7654   5  17   2.4025   2.2491   6.5352   0.6864  -0.0713  -2.4552   0.00    0.0
2024/04/10 10:39:17.000   45.410607815   11.892399222    67.7596   5  17   2.4026   2.2491   6.5354   0.6856  -0.0420  -2.4553   0.00    0.0
2024/04/10 10:39:18.000   45.410607433   11.892401686    67.6274   5  17   2.4026   2.2492   6.5355   0.6849   0.0395  -2.4553   0.00    0.0
2024/04/10 10:39:19.000   45.410584140   11.892366583    78.8216   5  18   2.2891   2.0469   5.7580  -0.4610   1.6993  -1.9421   0.00    0.0
2024/04/10 10:39:20.000   45.410582721   11.892366938    79.4508   5  19   2.2736   2.0357   5.4917  -0.3953   1.8059  -2.0577   0.00    0.0
2024/04/10 10:39:21.000   45.410582239   11.892372789    78.8605   5  19   2.2737   2.0359   5.4919  -0.3965   1.8065  -2.0579   0.00    0.0
2024/04/10 10:39:22.000   45.410579851   11.892379967    76.9947   5  19   2.2737   2.0360   5.4921  -0.3976   1.8071  -2.0581   0.00    0.0
2024/04/10 10:39:23.000   45.410581066   11.892382531    78.3271   5  19   2.2738   2.0362   5.4924  -0.3987   1.8077  -2.0583   0.00    0.0
2024/04/10 10:39:24.000   45.410606817   11.892420107    69.6585   5  18   2.4013   2.2090   6.0777   0.7077   1.0210  -2.4992   0.00    0.0
2024/04/10 10:39:25.000   45.410606853   11.892424546    68.8397   5  18   2.4014   2.2090   6.0777   0.7070   1.0225  -2.4992   0.00    0.0
2024/04/10 10:39:26.000   45.410604394   11.892423461    71.6213   5  18   2.4014   2.2091   6.0777   0.7063   1.0239  -2.4993   0.00    0.0
2024/04/10 10:39:27.000   45.410607761   11.892427349    70.9242   5  18   2.4015   2.2092   6.0777   0.7055   1.0254  -2.4994   0.00    0.0
2024/04/10 10:39:28.000   45.410608666   11.892426636    69.3384   5  18   2.4016   2.2093   6.0777   0.7048   1.0268  -2.4995   0.00    0.0
2024/04/10 10:39:29.000   45.410607388   11.892431695    68.4478   5  18   2.4016   2.2093   6.0777   0.7040   1.0283  -2.4995   0.00    0.0
2024/04/10 10:39:30.000   45.410613791   11.892429298    66.4757   5  18   2.4017   2.2094   6.0777   0.7033   1.0297  -2.4996   0.00    0.0
2024/04/10 10:39:31.000   45.410619109   11.892426934    65.4432   5  18   2.4017   2.2095   6.0777   0.7026   1.0312  -2.4997   0.00    0.0
2024/04/10 10:39:32.000   45.410617506   11.892432612    65.3023   5  18   2.4018   2.2096   6.0777   0.7018   1.0326  -2.4997   0.00    0.0
2024/04/10 10:39:33.000   45.410619958   11.892440526    63.4355   5  18   2.4019   2.2096   6.0777   0.7011   1.0340  -2.4998   0.00    0.0
2024/04/10 10:39:34.000   45.410625013   11.892439617    63.2261   5  18   2.4019   2.2097   6.0777   0.7003   1.0355  -2.4999   0.00    0.0
2024/04/10 10:39:35.000   45.410625470   11.892445467    60.6459   5  17   2.4037   2.2498   6.5379   0.6718   0.2407  -2.4562   0.00    0.0
2024/04/10 10:39:36.000   45.410597231   11.892428343    70.2640   5  18   2.2174   2.1959   5.8226  -0.0636   1.2319  -1.8093   0.00    0.0
2024/04/10 10:39:37.000   45.410595584   11.892431155    69.8273   5  19   2.1868   2.1760   5.5879   0.3221   1.4155  -1.9684   0.00    0.0
2024/04/10 10:39:38.000   45.410626456   11.892447190    60.8976   5  18   2.4022   2.2100   6.0777   0.6974   1.0412  -2.5002   0.00    0.0
2024/04/10 10:39:39.000   45.410623182   11.892447646    61.6901   5  18   2.4022   2.2101   6.0777   0.6966   1.0426  -2.5003   0.00    0.0
2024/04/10 10:39:40.000   45.410622739   11.892453392    60.7951   5  18   2.4023   2.2102   6.0777   0.6959   1.0440  -2.5003   0.00    0.0
2024/04/10 10:39:41.000   45.410590995   11.892432646    69.6503   5  19   2.1870   2.1765   5.5873   0.3171   1.4190  -1.9684   0.00    0.0
2024/04/10 10:39:42.000   45.410598384   11.892432861    70.0447   5  18   2.2178   2.1965   5.8221  -0.0931   1.2383  -1.8089   0.00    0.0
2024/04/10 10:39:43.000   45.410596443   11.892435353    69.4983   5  19   2.1871   2.1767   5.5870   0.3146   1.4207  -1.9683   0.00    0.0
2024/04/10 10:39:44.000   45.410593277   11.892431586    70.8231   5  19   2.1872   2.1769   5.5868   0.3133   1.4216  -1.9683   0.00    0.0
2024/04/10 10:39:45.000   45.410590555   11.892430767    71.8774   5  19   2.1872   2.1770   5.5866   0.3120   1.4225  -1.9683   0.00    0.0
2024/04/10 10:39:46.000   45.410580763   11.892425967    75.1998   5  19   2.1873   2.1771   5.5865   0.3107   1.4234  -1.9682   0.00    0.0
2024/04/10 10:39:47.000   45.410587338   11.892430492    73.5912   5  19   2.1873   2.1772   5.5863   0.3094   1.4242  -1.9682   0.00    0.0
2024/04/10 10:39:48.000   45.410593930   11.892428713    72.5755   5  19   2.1874   2.1774   5.5862   0.3081   1.4251  -1.9682   0.00    0.0
2024/04/10 10:39:49.000   45.410622755   11.892448092    64.6785   5  18   2.4028   2.2109   6.0776   0.6891   1.0567  -2.5010   0.00    0.0
2024/04/10 10:39:50.000   45.410626086   11.892446018    64.1516   5  18   2.4029   2.2110   6.0776   0.6883   1.0581  -2.5011   0.00    0.0
2024/04/10 10:39:51.000   45.410624588   11.892451774    64.8342   5  18   2.4030   2.2110   6.0776   0.6876   1.0595  -2.5012   0.00    0.0
2024/04/10 10:39:52.000   45.410625937   11.892449581    64.1744   5  18   2.4030   2.2111   6.0776   0.6868   1.0609  -2.5012   0.00    0.0
2024/04/10 10:39:53.000   45.410619800   11.892451580    65.8825   5  18   2.4031   2.2112   6.0776   0.6860   1.0623  -2.5013   0.00    0.0
2024/04/10 10:39:54.000   45.410623458   11.892451604    65.9921   5  18   2.4032   2.2113   6.0776   0.6853   1.0637  -2.5014   0.00    0.0
2024/04/10 10:39:55.000   45.410622701   11.892449262    66.0694   5  18   2.4032   2.2114   6.0776   0.6845   1.0651  -2.5015   0.00    0.0
2024/04/10 10:39:56.000   45.410603470   11.892439061    71.8948   5  19   2.1878   2.1784   5.5848   0.2975   1.4321  -1.9681   0.00    0.0
2024/04/10 10:39:57.000   45.410595032   11.892435190    74.0138   5  19   2.1878   2.1785   5.5847   0.2961   1.4329  -1.9680   0.00    0.0
2024/04/10 10:39:58.000   45.410595337   11.892437947    75.0494   5  19   2.1879   2.1786   5.5845   0.2948   1.4338  -1.9680   0.00    0.0
2024/04/10 10:39:59.000   45.410590816   11.892441364    75.5287   5  19   2.1879   2.1787   5.5843   0.2934   1.4347  -1.9680   0.00    0.0
2024/04/10 10:40:00.000   45.410618356   11.892454986    68.5357   5  18   2.4035   2.2118   6.0775   0.6807   1.0720  -2.5018   0.00    0.0
2024/04/10 10:40:01.000   45.410585472   11.892439535    77.0977   5  19   2.1880   2.1790   5.5840   0.2906   1.4364  -1.9680   0.00    0.0
2024/04/10 10:40:02.000   45.410583980   11.892441936    77.2787   5  19   2.1881   2.1791   5.5838   0.2892   1.4372  -1.9679   0.00    0.0
2024/04/10 10:40:03.000   45.410588058   11.892445905    76.5049   5  19   2.1881   2.1792   5.5836   0.2878   1.4381  -1.9679   0.00    0.0
2024/04/10 10:40:04.000   45.410584474   11.892445204    77.3662   5  19   2.1882   2.1794   5.5835   0.2864   1.4390  -1.9679   0.00    0.0
2024/04/10 10:40:05.000   45.410582699   11.892449416    77.5053   5  20   2.1269   2.0371   5.2160  -0.5635   1.9017  -1.6875   0.00    0.0
2024/04/10 10:40:06.000   45.410582255   11.892447886    78.4860   5  20   2.1269   2.0373   5.2161  -0.5642   1.9021  -1.6876   0.00    0.0
2024/04/10 10:40:07.000   45.410580765   11.892450492    79.1667   5  20   2.1270   2.0374   5.2161  -0.5648   1.9026  -1.6877   0.00    0.0
2024/04/10 10:40:08.000   45.410581486   11.892450045    79.1660   5  20   2.1271   2.0376   5.2162  -0.5655   1.9031  -1.6878   0.00    0.0
2024/04/10 10:40:09.000   45.410584115   11.892446395    78.4786   5  20   2.1271   2.0378   5.2163  -0.5661   1.9036  -1.6879   0.00    0.0
2024/04/10 10:40:10.000   45.410585013   11.892442699    78.0179   5  20   2.1272   2.0379   5.2163  -0.5668   1.9040  -1.6880   0.00    0.0
2024/04/10 10:40:11.000   45.410584420   11.892442291    77.6704   5  20   2.1272   2.0381   5.2164  -0.5675   1.9045  -1.6880   0.00    0.0
2024/04/10 10:40:12.000   45.410586204   11.892439163    77.3487   5  20   2.1273   2.0383   5.2164  -0.5681   1.9050  -1.6881   0.00    0.0
2024/04/10 10:40:13.000   45.410584497   11.892442472    77.7291   5  20   2.1273   2.0384   5.2165  -0.5688   1.9055  -1.6882   0.00    0.0
2024/04/10 10:40:14.000   45.410587886   11.892439485    77.1772   5  20   2.1274   2.0386   5.2165  -0.5694   1.9059  -1.6883   0.00    0.0
2024/04/10 10:40:15.000   45.410587154   11.892435395    76.6029   5  20   2.1275   2.0388   5.2166  -0.5701   1.9064  -1.6884   0.00    0.0
2024/04/10 10:40:16.000   45.410580630   11.892436040    77.5409   5  20   2.1275   2.0389   5.2166  -0.5707   1.9069  -1.6885   0.00    0.0
2024/04/10 10:40:17.000   45.410579529   11.892435530    78.1292   5  20   2.1276   2.0391   5.2167  -0.5714   1.9073  -1.6886   0.00    0.0
2024/04/10 10:40:18.000   45.410578544   11.892432814    77.8102   5  20   2.1276   2.0393   5.2167  -0.5720   1.9078  -1.6887   0.00    0.0
2024/04/10 10:40:19.000   45.410576068   11.892430362    77.9241   5  20   2.1277   2.0394   5.2168  -0.5727   1.9083  -1.6887   0.00    0.0
2024/04/10 10:40:20.000   45.410568497   11.892429649    78.6883   5  20   2.1278   2.0396   5.2168  -0.5734   1.9088  -1.6888   0.00    0.0
2024/04/10 10:40:21.000   45.410568534   11.892433662    79.0969   5  20   2.1278   2.0398   5.2169  -0.5740   1.9092  -1.6889   0.00    0.0
2024/04/10 10:40:22.000   45.410566301   11.892432197    79.4310   5  20   2.1279   2.0399   5.2169  -0.5747   1.9097  -1.6890   0.00    0.0
2024/04/10 10:40:23.000   45.410565219   11.892433691    78.9450   5  20   2.1279   2.0401   5.2170  -0.5753   1.9102  -1.6891   0.00    0.0
2024/04/10 10:40:24.000   45.410559259   11.892434949    79.9270   5  20   2.1280   2.0403   5.2170  -0.5760   1.9107  -1.6892   0.00    0.0
2024/04/10 10:40:25.000   45.410560219   11.892434042    79.4662   5  20   2.1281   2.0405   5.2171  -0.5766   1.9111  -1.6893   0.00    0.0
2024/04/10 10:40:26.000   45.410560171   11.892433659    78.5806   5  20   2.1281   2.0406   5.2171  -0.5773   1.9116  -1.6894   0.00    0.0
2024/04/10 10:40:27.000   45.410560216   11.892437142    79.0020   5  20   2.1282   2.0408   5.2172  -0.5779   1.9121  -1.6894   0.00    0.0
2024/04/10 10:40:28.000   45.410555875   11.892438891    78.5028   5  20   2.1282   2.0410   5.2172  -0.5786   1.9125  -1.6895   0.00    0.0
2024/04/10 10:40:29.000   45.410556742   11.892440109    78.2161   5  20   2.1283   2.0411   5.2173  -0.5792   1.9130  -1.6896   0.00    0.0
2024/04/10 10:40:30.000   45.410591590   11.892447959    69.6455   5  19   2.2785   2.0463   5.5073  -0.4695   1.8467  -2.0711   0.00    0.0
2024/04/10 10:40:31.000   45.410588451   11.892447913    70.3994   5  19   2.2786   2.0464   5.5075  -0.4705   1.8473  -2.0713   0.00    0.0
2024/04/10 10:40:32.000   45.410558518   11.892442089    77.7877   5  20   2.1285   2.0416   5.2174  -0.5811   1.9144  -1.6899   0.00    0.0
2024/04/10 10:40:33.000   45.410559826   11.892437428    77.4703   5  20   2.1285   2.0418   5.2174  -0.5818   1.9149  -1.6900   0.00    0.0
2024/04/10 10:40:34.000   45.410567294   11.892437230    74.7027   5  20   2.1286   2.0420   5.2175  -0.5824   1.9153  -1.6901   0.00    0.0
2024/04/10 10:40:35.000   45.410563141   11.892436017    75.0089   5  20   2.1287   2.0421   5.2175  -0.5831   1.9158  -1.6902   0.00    0.0
2024/04/10 10:40:36.000   45.410563173   11.892434987    75.9048   5  20   2.1287   2.0423   5.2176  -0.5837   1.9163  -1.6903   0.00    0.0
2024/04/10 10:40:37.000   45.410560055   11.892433762    76.2531   5  20   2.1288   2.0425   5.2176  -0.5844   1.9167  -1.6903   0.00    0.0
2024/04/10 10:40:38.000   45.410562599   11.892434953    76.0719   5  20   2.1289   2.0427   5.2177  -0.5850   1.9172  -1.6904   0.00    0.0
2024/04/10 10:40:39.000   45.410564105   11.892434054    75.9405   5  20   2.1289   2.0428   5.2177  -0.5857   1.9177  -1.6905   0.00    0.0
2024/04/10 10:40:40.000   45.410569952   11.892432923    74.9797   5  20   2.1290   2.0430   5.2177  -0.5863   1.9181  -1.6906   0.00    0.0
2024/04/10 10:40:41.000   45.410567979   11.892430606    75.3943   5  20   2.1290   2.0432   5.2178  -0.5869   1.9186  -1.6907   0.00    0.0
2024/04/10 10:40:42.000   45.410569792   11.892428717    74.7557   5  20   2.1291   2.0433   5.2178  -0.5876   1.9191  -1.6908   0.00    0.0
2024/04/10 10:40:43.000   45.410566375   11.892424670    75.1300   5  20   2.1292   2.0435   5.2179  -0.5882   1.9195  -1.6909   0.00    0.0
2024/04/10 10:40:44.000   45.410567253   11.892421580    74.8855   5  20   2.1292   2.0437   5.2179  -0.5889   1.9200  -1.6910   0.00    0.0
2024/04/10 10:40:45.000   45.410570443   11.892418582    74.1435   5  20   2.1293   2.0438   5.2179  -0.5895   1.9205  -1.6911   0.00    0.0
2024/04/10 10:40:46.000   45.410594256   11.892425095    67.4572   5  19   2.2796   2.0487   5.5105  -0.4850   1.8558  -2.0742   0.00    0.0
2024/04/10 10:40:47.000   45.410571392   11.892415164    73.4717   5  20   2.1294   2.0442   5.2180  -0.5908   1.9214  -1.6912   0.00    0.0
2024/04/10 10:40:48.000   45.410572994   11.892414973    72.7511   5  20   2.1295   2.0444   5.2181  -0.5914   1.9218  -1.6913   0.00    0.0
2024/04/10 10:40:49.000   45.410599389   11.892425283    65.7851   5  19   2.2799   2.0492   5.5111  -0.4879   1.8575  -2.0747   0.00    0.0
2024/04/10 10:40:50.000   45.410605734   11.892421718    64.4488   5  19   2.2799   2.0493   5.5113  -0.4888   1.8581  -2.0749   0.00    0.0
2024/04/10 10:40:51.000   45.410606717   11.892423133    64.6471   5  19   2.2800   2.0495   5.5115  -0.4898   1.8586  -2.0751   0.00    0.0
2024/04/10 10:40:52.000   45.410605177   11.892429427    64.6241   5  19   2.2801   2.0497   5.5117  -0.4907   1.8592  -2.0753   0.00    0.0
2024/04/10 10:40:53.000   45.410606454   11.892434726    63.1315   5  19   2.2801   2.0498   5.5119  -0.4917   1.8597  -2.0755   0.00    0.0
2024/04/10 10:40:54.000   45.410606365   11.892436762    63.0691   5  19   2.2802   2.0500   5.5121  -0.4926   1.8603  -2.0757   0.00    0.0
2024/04/10 10:40:55.000   45.410606610   11.892440352    63.2414   5  19   2.2803   2.0501   5.5123  -0.4935   1.8609  -2.0759   0.00    0.0
2024/04/10 10:40:56.000   45.410609447   11.892435970    63.8737   5  19   2.2804   2.0503   5.5125  -0.4945   1.8614  -2.0761   0.00    0.0
2024/04/10 10:40:57.000   45.410606954   11.892435627    64.8370   5  19   2.2804   2.0504   5.5127  -0.4954   1.8620  -2.0763   0.00    0.0
2024/04/10 10:40:58.000   45.410608264   11.892436697    66.0852   5  19   2.2805   2.0506   5.5129  -0.4964   1.8626  -2.0765   0.00    0.0
2024/04/10 10:40:59.000   45.410603871   11.892440819    66.7314   5  19   2.2806   2.0507   5.5131  -0.4973   1.8631  -2.0767   0.00    0.0
2024/04/10 10:41:00.000   45.410604080   11.892437184    67.5233   5  19   2.2807   2.0509   5.5133  -0.4982   1.8637  -2.0768   0.00    0.0
2024/04/10 10:41:01.000   45.410601797   11.892435202    67.6167   5  19   2.2807   2.0511   5.5135  -0.4992   1.8642  -2.0770   0.00    0.0
2024/04/10 10:41:02.000   45.410601872   11.892434940    67.4207   5  19   2.2808   2.0512   5.5136  -0.5001   1.8648  -2.0772   0.00    0.0
2024/04/10 10:41:03.000   45.410604828   11.892431476    66.9354   5  19   2.2809   2.0514   5.5138  -0.5010   1.8654  -2.0774   0.00    0.0
2024/04/10 10:41:04.000   45.410608224   11.892428029    66.3608   5  19   2.2810   2.0515   5.5140  -0.5019   1.8659  -2.0776   0.00    0.0
2024/04/10 10:41:05.000   45.410606740   11.892431486    66.4094   5  19   2.2810   2.0517   5.5142  -0.5029   1.8665  -2.0778   0.00    0.0
2024/04/10 10:41:06.000   45.410608359   11.892430887    65.9657   5  19   2.2811   2.0518   5.5144  -0.5038   1.8670  -2.0780   0.00    0.0
2024/04/10 10:41:07.000   45.410615476   11.892428843    64.9755   5  19   2.2812   2.0520   5.5146  -0.5047   1.8676  -2.0782   0.00    0.0
2024/04/10 10:41:08.000   45.410614735   11.892426424    64.7443   5  19   2.2812   2.0522   5.5148  -0.5056   1.8682  -2.0784   0.00    0.0
2024/04/10 10:41:09.000   45.410614780   11.892424238    64.1878   5  19   2.2813   2.0523   5.5150  -0.5066   1.8687  -2.0786   0.00    0.0
2024/04/10 10:41:10.000   45.410614467   11.892416346    65.2883   5  19   2.2814   2.0525   5.5152  -0.5075   1.8693  -2.0788   0.00    0.0
2024/04/10 10:41:11.000   45.410615844   11.892414411    65.4101   5  19   2.2815   2.0526   5.5154  -0.5084   1.8698  -2.0790   0.00    0.0
2024/04/10 10:41:12.000   45.410618641   11.892410484    65.3252   5  19   2.2815   2.0528   5.5155  -0.5093   1.8704  -2.0791   0.00    0.0
2024/04/10 10:41:13.000   45.410628562   11.892401143    65.0442   5  19   2.2816   2.0529   5.5157  -0.5102   1.8710  -2.0793   0.00    0.0
2024/04/10 10:41:14.000   45.410623129   11.892404176    64.0365   5  18   2.2974   2.0626   5.8003  -0.5607   1.7742  -1.9603   0.00    0.0
2024/04/10 10:41:15.000   45.410624003   11.892404423    64.5988   5  18   2.2975   2.0627   5.8006  -0.5615   1.7748  -1.9605   0.00    0.0
2024/04/10 10:41:16.000   45.410621993   11.892408007    64.5634   5  18   2.2976   2.0629   5.8009  -0.5623   1.7754  -1.9606   0.00    0.0
2024/04/10 10:41:17.000   45.410618905   11.892412385    65.4983   5  18   2.2977   2.0630   5.8013  -0.5631   1.7760  -1.9608   0.00    0.0
2024/04/10 10:41:18.000   45.410619981   11.892405464    65.3206   5  18   2.2977   2.0632   5.8016  -0.5639   1.7767  -1.9609   0.00    0.0
2024/04/10 10:41:19.000   45.410622708   11.892401256    64.5179   5  18   2.2978   2.0633   5.8019  -0.5647   1.7773  -1.9611   0.00    0.0
2024/04/10 10:41:20.000   45.410621103   11.892405342    64.6336   5  18   2.2979   2.0635   5.8023  -0.5655   1.7779  -1.9613   0.00    0.0
2024/04/10 10:41:21.000   45.410617972   11.892409408    64.6090   5  18   2.2980   2.0636   5.8026  -0.5663   1.7786  -1.9614   0.00    0.0
2024/04/10 10:41:22.000   45.410617868   11.892409174    64.7459   5  18   2.2980   2.0638   5.8029  -0.5671   1.7792  -1.9616   0.00    0.0
2024/04/10 10:41:23.000   45.410621908   11.892398241    64.0318   5  18   2.2981   2.0639   5.8033  -0.5679   1.7798  -1.9617   0.00    0.0
2024/04/10 10:41:24.000   45.410615108   11.892404240    65.5893   5  17   2.6213   2.3528   6.1697  -1.3218   2.3525  -2.5473   0.00    0.0
2024/04/10 10:41:25.000   45.410612570   11.892404601    65.9737   5  17   2.6214   2.3530   6.1697  -1.3223   2.3529  -2.5473   0.00    0.0
2024/04/10 10:41:26.000   45.410623219   11.892396184    63.9543   5  18   2.2983   2.0643   5.8043  -0.5703   1.7817  -1.9622   0.00    0.0
2024/04/10 10:41:27.000   45.410618874   11.892394611    64.7374   5  18   2.2984   2.0645   5.8046  -0.5711   1.7823  -1.9624   0.00    0.0
2024/04/10 10:41:28.000   45.410620511   11.892388786    64.3809   5  19   2.2887   2.0210   5.7778  -0.4874   1.8481  -1.9926   0.00    0.0
2024/04/10 10:41:29.000   45.410624523   11.892382988    63.4993   5  19   2.2888   2.0212   5.7781  -0.4883   1.8488  -1.9928   0.00    0.0
2024/04/10 10:41:30.000   45.410618985   11.892387786    64.2376   5  19   2.2888   2.0214   5.7784  -0.4891   1.8494  -1.9930   0.00    0.0
2024/04/10 10:41:31.000   45.410610335   11.892395044    65.4204   5  18   2.5942   2.2839   6.1641  -1.2401   2.3881  -2.5676   0.00    0.0
2024/04/10 10:41:32.000   45.410612148   11.892395123    65.2734   5  18   2.5943   2.2841   6.1642  -1.2406   2.3885  -2.5677   0.00    0.0
2024/04/10 10:41:33.000   45.410617499   11.892387401    63.7874   5  19   2.2890   2.0218   5.7792  -0.4917   1.8513  -1.9936   0.00    0.0
2024/04/10 10:41:34.000   45.410620518   11.892378483    63.6294   5  19   2.2891   2.0220   5.7795  -0.4926   1.8520  -1.9938   0.00    0.0
2024/04/10 10:41:35.000   45.410615098   11.892385929    64.7504   5  18   2.5946   2.2847   6.1643  -1.2419   2.3898  -2.5678   0.00    0.0
2024/04/10 10:41:36.000   45.410615233   11.892380324    64.4874   5  18   2.5947   2.2849   6.1644  -1.2423   2.3902  -2.5678   0.00    0.0
2024/04/10 10:41:37.000   45.410618655   11.892376922    63.4688   5  19   2.2893   2.0224   5.7804  -0.4952   1.8539  -1.9944   0.00    0.0
2024/04/10 10:41:38.000   45.410616201   11.892382961    63.6247   5  18   2.5948   2.2853   6.1645  -1.2432   2.3911  -2.5678   0.00    0.0
2024/04/10 10:41:39.000   45.410619007   11.892384408    61.9912   5  19   2.2894   2.0227   5.7810  -0.4969   1.8552  -1.9948   0.00    0.0
2024/04/10 10:41:40.000   45.410612604   11.892386809    62.6733   5  20   2.2760   2.0172   5.5073  -0.4583   1.9265  -2.1016   0.00    0.0
2024/04/10 10:41:41.000   45.410616449   11.892381827    62.5342   5  20   2.2760   2.0173   5.5075  -0.4592   1.9270  -2.1018   0.00    0.0
2024/04/10 10:41:42.000   45.410611187   11.892384895    63.4945   5  20   2.2761   2.0175   5.5076  -0.4602   1.9276  -2.1021   0.00    0.0
2024/04/10 10:41:43.000   45.410612017   11.892392225    64.0131   5  20   2.2762   2.0177   5.5078  -0.4612   1.9281  -2.1023   0.00    0.0
2024/04/10 10:41:44.000   45.410613473   11.892386731    63.3295   5  20   2.2762   2.0178   5.5079  -0.4621   1.9287  -2.1025   0.00    0.0
2024/04/10 10:41:45.000   45.410614218   11.892384174    64.0131   5  19   2.5752   2.2764   5.9469  -1.2178   2.4665  -2.6685   0.00    0.0
2024/04/10 10:41:46.000   45.410616735   11.892378933    63.3129   5  20   2.2763   2.0182   5.5083  -0.4640   1.9298  -2.1029   0.00    0.0
2024/04/10 10:41:47.000   45.410614824   11.892377442    63.0503   5  20   2.2764   2.0183   5.5084  -0.4650   1.9304  -2.1031   0.00    0.0
2024/04/10 10:41:48.000   45.410613552   11.892383271    64.0739   5  19   2.5754   2.2771   5.9467  -1.2192   2.4677  -2.6687   0.00    0.0
2024/04/10 10:41:49.000   45.410619006   11.892384478    62.8519   5  20   2.2765   2.0186   5.5087  -0.4669   1.9315  -2.1035   0.00    0.0
2024/04/10 10:41:50.000   45.410623770   11.892389820    61.1514   5  20   2.2766   2.0188   5.5089  -0.4679   1.9320  -2.1037   0.00    0.0
2024/04/10 10:41:51.000   45.410621689   11.892388988    61.4783   5  20   2.2767   2.0190   5.5090  -0.4688   1.9326  -2.1040   0.00    0.0
2024/04/10 10:41:52.000   45.410631036   11.892388684    58.9618   5  20   2.2767   2.0191   5.5092  -0.4698   1.9331  -2.1042   0.00    0.0
2024/04/10 10:41:53.000   45.410635498   11.892390234    57.8703   5  19   2.4097   2.1602   6.0273   0.6197   1.3651  -2.5215   0.00    0.0
2024/04/10 10:41:54.000   45.410623850   11.892400350    61.9045   5  18   2.7893   2.3451   6.6545  -0.9480   2.1072  -3.2125   0.00    0.0
2024/04/10 10:41:55.000   45.410629411   11.892412042    59.8075   5  19   2.5760   2.2786   5.9461  -1.2224   2.4703  -2.6691   0.00    0.0
2024/04/10 10:41:56.000   45.410625693   11.892411973    60.3061   5  19   2.5761   2.2788   5.9460  -1.2229   2.4707  -2.6692   0.00    0.0
2024/04/10 10:41:57.000   45.410622471   11.892414252    60.4721   5  19   2.5762   2.2790   5.9460  -1.2234   2.4711  -2.6692   0.00    0.0
2024/04/10 10:41:58.000   45.410622143   11.892412591    60.5975   5  18   2.6227   2.4781   5.9507  -1.4056   2.5180  -2.6912   0.00    0.0
2024/04/10 10:41:59.000   45.410615000   11.892430827    60.2284   5  19   2.5764   2.2794   5.9458  -1.2243   2.4718  -2.6694   0.00    0.0
2024/04/10 10:42:00.000   45.410614894   11.892429468    60.4517   5  19   2.5765   2.2797   5.9457  -1.2248   2.4722  -2.6694   0.00    0.0
2024/04/10 10:42:01.000   45.410616804   11.892421309    60.8848   5  19   2.5766   2.2799   5.9456  -1.2252   2.4726  -2.6695   0.00    0.0
2024/04/10 10:42:02.000   45.410620728   11.892418373    60.3882   5  20   2.2774   2.0208   5.5107  -0.4792   1.9387  -2.1063   0.00    0.0
2024/04/10 10:42:03.000   45.410623200   11.892418124    59.6449   5  20   2.2775   2.0210   5.5108  -0.4801   1.9392  -2.1065   0.00    0.0
2024/04/10 10:42:04.000   45.410633550   11.892395921    58.9161   5  19   2.3124   2.2084   5.5114  -0.7664   1.9552  -2.1131   0.00    0.0
2024/04/10 10:42:05.000   45.410631414   11.892394764    59.7343   5  19   2.3125   2.2085   5.5115  -0.7671   1.9557  -2.1133   0.00    0.0
2024/04/10 10:42:06.000   45.410630967   11.892402032    60.1354   5  19   2.3126   2.2087   5.5117  -0.7678   1.9562  -2.1135   0.00    0.0
2024/04/10 10:42:07.000   45.410628560   11.892401870    59.8841   5  19   2.3127   2.2088   5.5118  -0.7684   1.9567  -2.1137   0.00    0.0
2024/04/10 10:42:08.000   45.410627891   11.892401530    60.0646   5  19   2.3128   2.2089   5.5120  -0.7691   1.9571  -2.1139   0.00    0.0
2024/04/10 10:42:09.000   45.410626638   11.892403099    60.7745   5  19   2.3129   2.2091   5.5121  -0.7698   1.9576  -2.1140   0.00    0.0
2024/04/10 10:42:10.000   45.410625788   11.892409081    61.0959   5  19   2.3130   2.2092   5.5123  -0.7704   1.9581  -2.1142   0.00    0.0
2024/04/10 10:42:11.000   45.410624200   11.892409036    60.3730   5  19   2.3131   2.2093   5.5124  -0.7711   1.9586  -2.1144   0.00    0.0
2024/04/10 10:42:12.000   45.410623027   11.892412041    59.1878   5  19   2.3132   2.2095   5.5125  -0.7718   1.9590  -2.1146   0.00    0.0
2024/04/10 10:42:13.000   45.410613720   11.892438928    60.9652   5  20   2.2781   2.0227   5.5123  -0.4894   1.9447  -2.1086   0.00    0.0
2024/04/10 10:42:14.000   45.410615554   11.892446018    61.7271   5  20   2.2782   2.0228   5.5124  -0.4903   1.9453  -2.1088   0.00    0.0
2024/04/10 10:42:15.000   45.410617762   11.892433401    61.8675   5  20   2.2783   2.0230   5.5126  -0.4912   1.9458  -2.1090   0.00    0.0
2024/04/10 10:42:16.000   45.410620443   11.892432737    62.5429   5  20   2.2783   2.0232   5.5127  -0.4921   1.9464  -2.1093   0.00    0.0
2024/04/10 10:42:17.000   45.410616601   11.892438545    63.1155   5  20   2.2784   2.0233   5.5129  -0.4930   1.9469  -2.1095   0.00    0.0
2024/04/10 10:42:18.000   45.410616123   11.892430303    63.0621   5  19   2.3137   2.2103   5.5134  -0.7758   1.9619  -2.1157   0.00    0.0
2024/04/10 10:42:19.000   45.410617566   11.892433178    63.3032   5  19   2.3138   2.2104   5.5135  -0.7765   1.9624  -2.1159   0.00    0.0
2024/04/10 10:42:20.000   45.410618734   11.892436836    63.8392   5  19   2.3139   2.2106   5.5137  -0.7771   1.9629  -2.1161   0.00    0.0
2024/04/10 10:42:21.000   45.410616763   11.892440097    64.7271   5  19   2.3140   2.2107   5.5138  -0.7778   1.9633  -2.1163   0.00    0.0
2024/04/10 10:42:22.000   45.410613541   11.892445871    65.2089   5  20   2.2788   2.0242   5.5136  -0.4976   1.9497  -2.1105   0.00    0.0
2024/04/10 10:42:23.000   45.410612902   11.892441210    64.7878   5  20   2.2788   2.0243   5.5137  -0.4985   1.9502  -2.1107   0.00    0.0
2024/04/10 10:42:24.000   45.410610301   11.892441469    64.4105   5  20   2.2789   2.0245   5.5138  -0.4994   1.9508  -2.1109   0.00    0.0
2024/04/10 10:42:25.000   45.410615768   11.892425769    65.9200   5  19   2.3144   2.2112   5.5143  -0.7804   1.9652  -2.1170   0.00    0.0
2024/04/10 10:42:26.000   45.410617638   11.892423731    66.4427   5  20   2.2790   2.0248   5.5141  -0.5012   1.9518  -2.1114   0.00    0.0
2024/04/10 10:42:27.000   45.410617233   11.892424613    67.9857   5  20   2.2791   2.0250   5.5143  -0.5021   1.9524  -2.1116   0.00    0.0
2024/04/10 10:42:28.000   45.410617690   11.892421376    70.2309   5  20   2.2792   2.0252   5.5144  -0.5030   1.9529  -2.1118   0.00    0.0
2024/04/10 10:42:29.000   45.410613942   11.892421543    70.7639   5  20   2.2792   2.0253   5.5145  -0.5038   1.9535  -2.1120   0.00    0.0
2024/04/10 10:42:30.000   45.410616140   11.892416350    69.6927   5  20   2.2793   2.0255   5.5147  -0.5047   1.9540  -2.1122   0.00    0.0
2024/04/10 10:42:31.000   45.410616412   11.892414389    69.3732   5  20   2.2794   2.0257   5.5148  -0.5056   1.9546  -2.1124   0.00    0.0
2024/04/10 10:42:32.000   45.410611978   11.892416157    65.6135   5  19   2.2929   2.0310   5.7956  -0.5406   1.8884  -2.0053   0.00    0.0
2024/04/10 10:42:33.000   45.410615977   11.892411723    65.1515   5  19   2.2930   2.0311   5.7959  -0.5414   1.8890  -2.0055   0.00    0.0
2024/04/10 10:42:34.000   45.410618402   11.892414546    64.8488   5  20   2.0615   1.9869   5.4097  -0.8472   2.1093  -1.3905   0.00    0.0
2024/04/10 10:42:35.000   45.410618910   11.892414097    64.9192   5  20   2.0616   1.9871   5.4100  -0.8476   2.1097  -1.3908   0.00    0.0
2024/04/10 10:42:36.000   45.410617821   11.892414529    65.2791   5  20   2.0617   1.9873   5.4103  -0.8480   2.1102  -1.3911   0.00    0.0
2024/04/10 10:42:37.000   45.410618255   11.892412270    65.4555   5  20   2.0617   1.9875   5.4106  -0.8484   2.1106  -1.3914   0.00    0.0
2024/04/10 10:42:38.000   45.410618963   11.892409102    65.7890   5  20   2.0618   1.9877   5.4109  -0.8488   2.1111  -1.3917   0.00    0.0
2024/04/10 10:42:39.000   45.410616580   11.892413131    65.9981   5  20   2.0619   1.9880   5.4112  -0.8492   2.1115  -1.3920   0.00    0.0
2024/04/10 10:42:40.000   45.410616019   11.892413458    65.3598   5  20   2.0619   1.9882   5.4115  -0.8496   2.1120  -1.3923   0.00    0.0
2024/04/10 10:42:41.000   45.410618170   11.892408361    63.4813   5  21   2.0330   1.9857   5.1713  -0.8288   2.1510  -1.5779   0.00    0.0
2024/04/10 10:42:42.000   45.410621521   11.892407696    64.3231   5  21   2.0330   1.9859   5.1715  -0.8292   2.1514  -1.5782   0.00    0.0
2024/04/10 10:42:43.000   45.410624019   11.892401445    64.6253   5  21   2.0331   1.9861   5.1717  -0.8297   2.1518  -1.5785   0.00    0.0
2024/04/10 10:42:44.000   45.410626483   11.892396725    63.9487   5  21   2.0332   1.9863   5.1718  -0.8301   2.1522  -1.5788   0.00    0.0
2024/04/10 10:42:45.000   45.410630115   11.892391995    63.5225   5  21   2.0333   1.9865   5.1720  -0.8305   2.1526  -1.5791   0.00    0.0
2024/04/10 10:42:46.000   45.410622385   11.892400621    64.8572   5  21   2.0333   1.9867   5.1722  -0.8310   2.1530  -1.5794   0.00    0.0
2024/04/10 10:42:47.000   45.410623326   11.892395933    65.4895   5  21   2.0334   1.9870   5.1724  -0.8314   2.1534  -1.5797   0.00    0.0
2024/04/10 10:42:48.000   45.410622234   11.892399686    65.6084   5  21   2.0335   1.9872   5.1725  -0.8318   2.1538  -1.5800   0.00    0.0
2024/04/10 10:42:49.000   45.410622567   11.892399200    66.2773   5  21   2.0336   1.9874   5.1727  -0.8323   2.1542  -1.5803   0.00    0.0
2024/04/10 10:42:50.000   45.410626621   11.892396081    66.2032   5  21   2.0336   1.9876   5.1729  -0.8327   2.1546  -1.5807   0.00    0.0
2024/04/10 10:42:51.000   45.410624692   11.892399632    66.5109   5  21   2.0337   1.9878   5.1730  -0.8331   2.1550  -1.5810   0.00    0.0
2024/04/10 10:42:52.000   45.410616768   11.892421464    68.2040   5  14   3.2283   3.5427   7.0028  -0.6369   2.5233  -3.3016   0.00    0.0
2024/04/10 10:42:53.000   45.410625532   11.892424712    67.9570   5  14   3.2283   3.5428   7.0020  -0.6379   2.5235  -3.3012   0.00    0.0
2024/04/10 10:42:54.000   45.410522623   11.892414040    85.7534   5   9  12.6163   5.5896  18.2798   3.7237   2.5546 -13.9604   0.00    0.0
2024/04/10 10:42:55.000   45.410544059   11.892299252   121.2384   5   6  19.9806  25.4011 178.7961  20.8343 -65.8732 -58.4657   0.00    0.0
2024/04/10 10:42:56.000   45.410574662   11.892405956    78.3864   5  11   6.5660   4.6332  13.1645  -3.9806   5.2640  -8.7219   0.00    0.0
2024/04/10 10:42:57.000   45.410599733   11.892418168    70.6967   5  13   4.1419   4.1148   9.1531  -3.1833   4.4851  -5.3427   0.00    0.0
2024/04/10 10:42:58.000   45.410601753   11.892428034    69.0528   5  15   3.0652   2.9429   6.9144  -1.5544   2.0602  -3.4611   0.00    0.0
2024/04/10 10:42:59.000   45.410607678   11.892441131    68.2783   5  16   2.9241   2.7329   6.1378  -1.8498   2.7787  -3.0086   0.00    0.0
2024/04/10 10:43:00.000   45.410611008   11.892445398    67.3761   5  14   3.2288   3.5438   6.9962  -0.6455   2.5245  -3.2986   0.00    0.0
2024/04/10 10:43:01.000   45.410613783   11.892443056    63.9556   5  13   3.2289   3.6120   7.6631  -0.6410   2.0468  -3.3030   0.00    0.0
2024/04/10 10:43:02.000   45.410622623   11.892420027    71.7000   5  16   2.9244   2.7335   6.1368  -1.8509   2.7790  -3.0080   0.00    0.0
2024/04/10 10:43:03.000   45.410628310   11.892416361    70.1586   5  17   2.6313   2.7235   5.6604  -1.9312   2.8783  -2.4540   0.00    0.0
2024/04/10 10:43:04.000   45.410633450   11.892406176    72.1852   5  17   2.6315   2.7237   5.6602  -1.9315   2.8783  -2.4539   0.00    0.0
2024/04/10 10:43:05.000   45.410636629   11.892404869    74.2865   5  17   2.6316   2.7239   5.6600  -1.9318   2.8783  -2.4538   0.00    0.0
2024/04/10 10:43:06.000   45.410615379   11.892423333    66.3103   5  17   2.5811   2.6128   5.8907  -1.8175   2.7961  -2.3036   0.00    0.0
2024/04/10 10:43:07.000   45.410618536   11.892416708    66.6309   5  18   2.4641   2.3773   5.8796  -1.5718   2.7256  -2.2427   0.00    0.0
2024/04/10 10:43:08.000   45.410615899   11.892423964    66.6857   5  18   2.4641   2.3775   5.8796  -1.5720   2.7258  -2.2427   0.00    0.0
2024/04/10 10:43:09.000   45.410610858   11.892427854    66.9029   5  18   2.4642   2.3777   5.8795  -1.5723   2.7260  -2.2426   0.00    0.0
2024/04/10 10:43:10.000   45.410606888   11.892429828    67.7909   5  19   2.1369   2.0315   5.5130  -0.9777   2.2151  -1.5879   0.00    0.0
2024/04/10 10:43:11.000   45.410605322   11.892431471    68.2133   5  19   2.1369   2.0317   5.5133  -0.9781   2.2155  -1.5881   0.00    0.0
2024/04/10 10:43:12.000   45.410601197   11.892436061    68.6020   5  19   2.1370   2.0319   5.5135  -0.9784   2.2159  -1.5883   0.00    0.0
2024/04/10 10:43:13.000   45.410601578   11.892434666    68.8286   5  19   2.1370   2.0322   5.5137  -0.9788   2.2163  -1.5885   0.00    0.0
2024/04/10 10:43:14.000   45.410598208   11.892438936    69.0475   5  19   2.1371   2.0324   5.5139  -0.9791   2.2167  -1.5887   0.00    0.0
2024/04/10 10:43:15.000   45.410605458   11.892424068    68.9348   5  18   2.2224   2.2313   5.5150  -1.2331   2.2369  -1.6071   0.00    0.0
2024/04/10 10:43:16.000   45.410606969   11.892422884    68.7973   5  18   2.2225   2.2314   5.5152  -1.2334   2.2372  -1.6073   0.00    0.0
2024/04/10 10:43:17.000   45.410605182   11.892424717    69.0334   5  18   2.2226   2.2316   5.5154  -1.2338   2.2375  -1.6074   0.00    0.0
2024/04/10 10:43:18.000   45.410601221   11.892432632    68.7789   5  19   2.1373   2.0332   5.5148  -0.9805   2.2184  -1.5895   0.00    0.0
2024/04/10 10:43:19.000   45.410605590   11.892422405    68.7992   5  18   2.2228   2.2320   5.5158  -1.2344   2.2381  -1.6076   0.00    0.0
2024/04/10 10:43:20.000   45.410599279   11.892439791    68.4854   5  19   2.1374   2.0336   5.5153  -0.9812   2.2192  -1.5900   0.00    0.0
2024/04/10 10:43:21.000   45.410607823   11.892423744    68.0506   5  18   2.2230   2.2324   5.5163  -1.2350   2.2387  -1.6078   0.00    0.0
2024/04/10 10:43:22.000   45.410605009   11.892428422    68.4832   5  18   2.2231   2.2325   5.5165  -1.2354   2.2390  -1.6080   0.00    0.0
2024/04/10 10:43:23.000   45.410603601   11.892431729    68.4266   5  19   2.1376   2.0343   5.5159  -0.9822   2.2204  -1.5906   0.00    0.0
2024/04/10 10:43:24.000   45.410600451   11.892443793    68.4469   5  19   2.1376   2.0345   5.5162  -0.9826   2.2208  -1.5908   0.00    0.0
2024/04/10 10:43:25.000   45.410602830   11.892437474    68.2173   5  18   2.2233   2.2331   5.5171  -1.2363   2.2399  -1.6083   0.00    0.0
2024/04/10 10:43:26.000   45.410600651   11.892443672    68.1941   5  18   2.2234   2.2333   5.5173  -1.2367   2.2402  -1.6084   0.00    0.0
2024/04/10 10:43:27.000   45.410601597   11.892442497    68.0529   5  18   2.2235   2.2335   5.5175  -1.2370   2.2405  -1.6085   0.00    0.0
2024/04/10 10:43:28.000   45.410596047   11.892454949    67.0719   5  19   2.1379   2.0353   5.5170  -0.9840   2.2224  -1.5916   0.00    0.0
2024/04/10 10:43:29.000   45.410603721   11.892443723    66.2338   5  19   2.1379   2.0355   5.5173  -0.9843   2.2228  -1.5918   0.00    0.0
2024/04/10 10:43:30.000   45.410605833   11.892438750    65.8927   5  19   2.1380   2.0357   5.5175  -0.9847   2.2232  -1.5920   0.00    0.0
2024/04/10 10:43:31.000   45.410608204   11.892433248    65.2481   5  19   2.1380   2.0360   5.5177  -0.9850   2.2236  -1.5923   0.00    0.0
2024/04/10 10:43:32.000   45.410610156   11.892431514    65.0762   5  19   2.1381   2.0362   5.5179  -0.9854   2.2240  -1.5925   0.00    0.0
2024/04/10 10:43:33.000   45.410612883   11.892428286    64.1136   5  19   2.1381   2.0364   5.5181  -0.9857   2.2244  -1.5927   0.00    0.0
2024/04/10 10:43:34.000   45.410618595   11.892428250    62.8602   5  20   2.1021   1.9957   5.4564  -1.0636   2.2989  -1.4882   0.00    0.0
2024/04/10 10:43:35.000   45.410618230   11.892426534    63.0440   5  20   2.1021   1.9959   5.4567  -1.0639   2.2992  -1.4884   0.00    0.0
2024/04/10 10:43:36.000   45.410616064   11.892431955    63.2952   5  20   2.1022   1.9961   5.4569  -1.0642   2.2996  -1.4887   0.00    0.0
2024/04/10 10:43:37.000   45.410620953   11.892428126    65.6309   5  21   2.0862   1.9963   5.1758  -1.0654   2.2973  -1.6325   0.00    0.0
2024/04/10 10:43:38.000   45.410621758   11.892422400    64.8876   5  21   2.0863   1.9966   5.1759  -1.0658   2.2976  -1.6327   0.00    0.0
2024/04/10 10:43:39.000   45.410626746   11.892419498    64.1332   5  21   2.0864   1.9968   5.1761  -1.0661   2.2979  -1.6330   0.00    0.0
2024/04/10 10:43:40.000   45.410628082   11.892425027    65.7291   5  21   2.0864   1.9970   5.1762  -1.0664   2.2982  -1.6333   0.00    0.0
2024/04/10 10:43:41.000   45.410626399   11.892424034    65.7346   5  21   2.0865   1.9972   5.1763  -1.0667   2.2986  -1.6336   0.00    0.0
2024/04/10 10:43:42.000   45.410627896   11.892422513    64.6378   5  21   2.0865   1.9974   5.1765  -1.0671   2.2989  -1.6338   0.00    0.0
2024/04/10 10:43:43.000   45.410628091   11.892423769    63.8005   5  21   2.0866   1.9977   5.1766  -1.0674   2.2992  -1.6341   0.00    0.0
2024/04/10 10:43:44.000   45.410627592   11.892425455    63.9945   5  20   2.1039   2.0502   5.3484  -1.0082   2.1608  -1.7413   0.00    0.0
2024/04/10 10:43:45.000   45.410626455   11.892429534    64.4114   5  20   2.1040   2.0504   5.3485  -1.0085   2.1612  -1.7416   0.00    0.0
2024/04/10 10:43:46.000   45.410623714   11.892429460    65.4012   5  21   2.0868   1.9983   5.1770  -1.0684   2.3002  -1.6349   0.00    0.0
2024/04/10 10:43:47.000   45.410622885   11.892433026    65.5991   5  21   2.0869   1.9985   5.1772  -1.0687   2.3005  -1.6352   0.00    0.0
2024/04/10 10:43:48.000   45.410623963   11.892440340    64.8139   5  20   2.1042   2.0511   5.3487  -1.0095   2.1623  -1.7423   0.00    0.0
2024/04/10 10:43:49.000   45.410622243   11.892439389    64.4175   5  20   2.1042   2.0513   5.3487  -1.0098   2.1626  -1.7426   0.00    0.0
2024/04/10 10:43:50.000   45.410618228   11.892431288    66.6012   5  21   2.0871   1.9992   5.1776  -1.0697   2.3014  -1.6360   0.00    0.0
2024/04/10 10:43:51.000   45.410617844   11.892433131    66.7712   5  21   2.0871   1.9994   5.1777  -1.0700   2.3017  -1.6363   0.00    0.0
2024/04/10 10:43:52.000   45.410616490   11.892435327    66.8510   5  21   2.0872   1.9996   5.1778  -1.0703   2.3021  -1.6365   0.00    0.0
2024/04/10 10:43:53.000   45.410618120   11.892440300    66.9211   5  21   2.0872   1.9998   5.1780  -1.0707   2.3024  -1.6368   0.00    0.0
2024/04/10 10:43:54.000   45.410620570   11.892441316    67.4997   5  21   2.0873   2.0001   5.1781  -1.0710   2.3027  -1.6371   0.00    0.0
2024/04/10 10:43:55.000   45.410619662   11.892440851    68.6397   5  21   2.0874   2.0003   5.1782  -1.0713   2.3030  -1.6373   0.00    0.0
2024/04/10 10:43:56.000   45.410618757   11.892440646    69.1577   5  21   2.0874   2.0005   5.1784  -1.0716   2.3033  -1.6376   0.00    0.0
2024/04/10 10:43:57.000   45.410618496   11.892441593    69.5079   5  21   2.0875   2.0007   5.1785  -1.0720   2.3036  -1.6379   0.00    0.0
2024/04/10 10:43:58.000   45.410617745   11.892450769    69.6728   5  21   2.0876   2.0009   5.1786  -1.0723   2.3040  -1.6382   0.00    0.0
2024/04/10 10:43:59.000   45.410619059   11.892449675    69.9884   5  21   2.0876   2.0012   5.1788  -1.0726   2.3043  -1.6384   0.00    0.0
2024/04/10 10:44:00.000   45.410620164   11.892451224    70.5079   5  21   2.0877   2.0014   5.1789  -1.0730   2.3046  -1.6387   0.00    0.0
2024/04/10 10:44:01.000   45.410620867   11.892451607    70.4112   5  21   2.0878   2.0016   5.1790  -1.0733   2.3049  -1.6390   0.00    0.0
2024/04/10 10:44:02.000   45.410617881   11.892460901    70.3857   5  21   2.0878   2.0018   5.1792  -1.0736   2.3052  -1.6392   0.00    0.0
2024/04/10 10:44:03.000   45.410617733   11.892461996    70.2201   5  21   2.0879   2.0020   5.1793  -1.0739   2.3055  -1.6395   0.00    0.0
2024/04/10 10:44:04.000   45.410616698   11.892457636    70.5225   5  21   2.0879   2.0023   5.1794  -1.0743   2.3058  -1.6398   0.00    0.0
2024/04/10 10:44:05.000   45.410617599   11.892457401    71.6618   5  21   2.0880   2.0025   5.1795  -1.0746   2.3062  -1.6400   0.00    0.0
2024/04/10 10:44:06.000   45.410616004   11.892455656    71.6817   5  21   2.0881   2.0027   5.1797  -1.0749   2.3065  -1.6403   0.00    0.0
2024/04/10 10:44:07.000   45.410614125   11.892454203    71.6685   5  21   2.0881   2.0029   5.1798  -1.0752   2.3068  -1.6406   0.00    0.0
2024/04/10 10:44:08.000   45.410616039   11.892453139    71.4544   5  21   2.0882   2.0031   5.1799  -1.0756   2.3071  -1.6409   0.00    0.0
2024/04/10 10:44:09.000   45.410614869   11.892452104    71.0853   5  21   2.0883   2.0034   5.1801  -1.0759   2.3074  -1.6411   0.00    0.0
2024/04/10 10:44:10.000   45.410614342   11.892453279    71.8040   5  21   2.0883   2.0036   5.1802  -1.0762   2.3077  -1.6414   0.00    0.0
2024/04/10 10:44:11.000   45.410614660   11.892449155    72.0090   5  21   2.0884   2.0038   5.1803  -1.0766   2.3080  -1.6417   0.00    0.0
2024/04/10 10:44:12.000   45.410614632   11.892449378    71.6500   5  21   2.0885   2.0040   5.1804  -1.0769   2.3084  -1.6419   0.00    0.0
2024/04/10 10:44:13.000   45.410615208   11.892447200    71.2242   5  21   2.0885   2.0043   5.1806  -1.0772   2.3087  -1.6422   0.00    0.0
2024/04/10 10:44:14.000   45.410614992   11.892445609    71.0989   5  21   2.0886   2.0045   5.1807  -1.0775   2.3090  -1.6425   0.00    0.0
2024/04/10 10:44:15.000   45.410618356   11.892443478    71.2886   5  21   2.0887   2.0047   5.1808  -1.0779   2.3093  -1.6428   0.00    0.0
2024/04/10 10:44:16.000   45.410618470   11.892446382    71.2831   5  21   2.0887   2.0049   5.1809  -1.0782   2.3096  -1.6430   0.00    0.0
2024/04/10 10:44:17.000   45.410619092   11.892444666    71.3818   5  21   2.0888   2.0051   5.1811  -1.0785   2.3099  -1.6433   0.00    0.0
2024/04/10 10:44:18.000   45.410623187   11.892440059    71.0442   5  21   2.0889   2.0054   5.1812  -1.0788   2.3102  -1.6436   0.00    0.0
2024/04/10 10:44:19.000   45.410625355   11.892436850    69.9509   5  21   2.0889   2.0056   5.1813  -1.0792   2.3105  -1.6438   0.00    0.0
2024/04/10 10:44:20.000   45.410625444   11.892433863    69.9099   5  21   2.0890   2.0058   5.1814  -1.0795   2.3109  -1.6441   0.00    0.0
2024/04/10 10:44:21.000   45.410623680   11.892432155    69.2320   5  21   2.0890   2.0060   5.1815  -1.0798   2.3112  -1.6444   0.00    0.0
2024/04/10 10:44:22.000   45.410624132   11.892431270    69.3145   5  21   2.0891   2.0062   5.1817  -1.0802   2.3115  -1.6447   0.00    0.0
2024/04/10 10:44:23.000   45.410623675   11.892427166    69.0132   5  21   2.0892   2.0065   5.1818  -1.0805   2.3118  -1.6449   0.00    0.0
2024/04/10 10:44:24.000   45.410623504   11.892425979    68.6786   5  21   2.0892   2.0067   5.1819  -1.0808   2.3121  -1.6452   0.00    0.0
2024/04/10 10:44:25.000   45.410622042   11.892423959    68.6901   5  21   2.0893   2.0069   5.1820  -1.0811   2.3124  -1.6455   0.00    0.0
2024/04/10 10:44:26.000   45.410622933   11.892421865    68.8201   5  21   2.0894   2.0071   5.1821  -1.0815   2.3127  -1.6457   0.00    0.0
2024/04/10 10:44:27.000   45.410626557   11.892418279    68.2051   5  21   2.0894   2.0073   5.1823  -1.0818   2.3130  -1.6460   0.00    0.0
2024/04/10 10:44:28.000   45.410626762   11.892417831    69.1689   5  21   2.0895   2.0076   5.1824  -1.0821   2.3133  -1.6463   0.00    0.0
2024/04/10 10:44:29.000   45.410628615   11.892414212    69.6635   5  21   2.0896   2.0078   5.1825  -1.0824   2.3137  -1.6465   0.00    0.0
2024/04/10 10:44:30.000   45.410628006   11.892415293    69.6467   5  21   2.0896   2.0080   5.1826  -1.0828   2.3140  -1.6468   0.00    0.0
2024/04/10 10:44:31.000   45.410631332   11.892413729    69.1824   5  21   2.0897   2.0082   5.1827  -1.0831   2.3143  -1.6471   0.00    0.0
2024/04/10 10:44:32.000   45.410630473   11.892412483    69.3469   5  21   2.0898   2.0084   5.1828  -1.0834   2.3146  -1.6474   0.00    0.0
2024/04/10 10:44:33.000   45.410628340   11.892414026    70.2478   5  21   2.0898   2.0087   5.1830  -1.0838   2.3149  -1.6476   0.00    0.0
2024/04/10 10:44:34.000   45.410627342   11.892408613    70.0678   5  21   2.0899   2.0089   5.1831  -1.0841   2.3152  -1.6479   0.00    0.0
2024/04/10 10:44:35.000   45.410627883   11.892407748    70.1200   5  21   2.0900   2.0091   5.1832  -1.0844   2.3155  -1.6482   0.00    0.0
2024/04/10 10:44:36.000   45.410632464   11.892425293    66.9766   5  20   2.1077   2.0614   5.3510  -1.0253   2.1797  -1.7548   0.00    0.0
2024/04/10 10:44:37.000   45.410633226   11.892423365    66.7280   5  20   2.1078   2.0616   5.3511  -1.0257   2.1800  -1.7550   0.00    0.0
2024/04/10 10:44:38.000   45.410635829   11.892419550    67.7387   5  20   2.1078   2.0618   5.3511  -1.0260   2.1804  -1.7553   0.00    0.0
2024/04/10 10:44:39.000   45.410636056   11.892418222    67.4468   5  20   2.1079   2.0621   5.3511  -1.0263   2.1807  -1.7555   0.00    0.0
2024/04/10 10:44:40.000   45.410636022   11.892417408    67.3873   5  20   2.1080   2.0623   5.3512  -1.0267   2.1811  -1.7558   0.00    0.0
2024/04/10 10:44:41.000   45.410637353   11.892418853    67.5575   5  20   2.1080   2.0625   5.3512  -1.0270   2.1815  -1.7561   0.00    0.0
2024/04/10 10:44:42.000   45.410637956   11.892421424    67.5288   5  20   2.1081   2.0627   5.3512  -1.0273   2.1818  -1.7563   0.00    0.0
2024/04/10 10:44:43.000   45.410633174   11.892427610    68.1665   5  20   2.1082   2.0629   5.3513  -1.0276   2.1822  -1.7566   0.00    0.0
2024/04/10 10:44:44.000   45.410629669   11.892429780    67.8397   5  20   2.1083   2.0631   5.3513  -1.0280   2.1825  -1.7568   0.00    0.0
2024/04/10 10:44:45.000   45.410626373   11.892433541    67.8999   5  20   2.1083   2.0634   5.3514  -1.0283   2.1829  -1.7571   0.00    0.0
2024/04/10 10:44:46.000   45.410624969   11.892434347    67.9117   5  20   2.1084   2.0636   5.3514  -1.0286   2.1832  -1.7573   0.00    0.0
2024/04/10 10:44:47.000   45.410624532   11.892436057    68.4586   5  20   2.1085   2.0638   5.3514  -1.0290   2.1836  -1.7576   0.00    0.0
2024/04/10 10:44:48.000   45.410625228   11.892435406    67.7800   5  20   2.1086   2.0640   5.3515  -1.0293   2.1839  -1.7579   0.00    0.0
2024/04/10 10:44:49.000   45.410622803   11.892440687    68.0939   5  20   2.1086   2.0642   5.3515  -1.0296   2.1843  -1.7581   0.00    0.0
2024/04/10 10:44:50.000   45.410620245   11.892443090    68.1773   5  20   2.1087   2.0644   5.3515  -1.0300   2.1847  -1.7584   0.00    0.0
2024/04/10 10:44:51.000   45.410618526   11.892444390    66.6929   5  19   2.1205   2.0653   5.7003  -1.0357   2.1625  -1.6298   0.00    0.0
2024/04/10 10:44:52.000   45.410617360   11.892442037    66.8286   5  19   2.1206   2.0655   5.7004  -1.0360   2.1629  -1.6301   0.00    0.0
2024/04/10 10:44:53.000   45.410618866   11.892442031    66.0878   5  19   2.1206   2.0657   5.7005  -1.0363   2.1633  -1.6303   0.00    0.0
2024/04/10 10:44:54.000   45.410610263   11.892420742    72.3105   5  20   2.1072   2.0134   5.4749  -1.0887   2.3274  -1.5096   0.00    0.0
2024/04/10 10:44:55.000   45.410609278   11.892422850    71.7249   5  20   2.1072   2.0136   5.4751  -1.0890   2.3277  -1.5098   0.00    0.0
2024/04/10 10:44:56.000   45.410604817   11.892424794    71.9716   5  20   2.1073   2.0138   5.4753  -1.0894   2.3281  -1.5101   0.00    0.0
