% program   : RTKPOST ver.2.4.3 b34
% inp file  : C:\Users\franc\Desktop\Università\Satellite_Navigation\GNSS_SPP\Acquisizione_SwiftNav_20240410\swift-gnss-20240410-130631.sbp.obs
% inp file  : C:\Users\franc\Desktop\Università\Satellite_Navigation\GNSS_SPP\Acquisizione_SwiftNav_20240410\swift-gnss-20240410-130631.sbp.nav
% obs start : 2024/04/10 11:06:49.0 GPST (week2309 299209.0s)
% obs end   : 2024/04/10 11:18:08.0 GPST (week2309 299888.0s)
% pos mode  : Single
% elev mask : 15.0 deg
% ionos opt : Broadcast
% tropo opt : Saastamoinen
% ephemeris : Broadcast
% navi sys  : GPS GLONASS Galileo BDS
%
% (lat/lon/height=WGS84/ellipsoidal,Q=1:fix,2:float,3:sbas,4:dgps,5:single,6:ppp,ns=# of satellites)
%  GPST                  latitude(deg) longitude(deg)  height(m)   Q  ns   sdn(m)   sde(m)   sdu(m)  sdne(m)  sdeu(m)  sdun(m) age(s)  ratio
2024/04/10 11:06:49.000   45.409531863   11.893987082    62.5037   5  23   1.9354   1.7093   4.0606  -0.9511   1.1894  -0.7029   0.00    0.0
2024/04/10 11:06:50.000   45.409531386   11.893986794    62.5804   5  23   1.9354   1.7095   4.0606  -0.9512   1.1896  -0.7032   0.00    0.0
2024/04/10 11:06:51.000   45.409531745   11.893987149    62.8260   5  23   1.9355   1.7096   4.0606  -0.9514   1.1899  -0.7035   0.00    0.0
2024/04/10 11:06:52.000   45.409532775   11.893986581    63.1290   5  23   1.9355   1.7097   4.0606  -0.9516   1.1902  -0.7039   0.00    0.0
2024/04/10 11:06:53.000   45.409533578   11.893986381    63.3245   5  23   1.9356   1.7098   4.0606  -0.9518   1.1904  -0.7042   0.00    0.0
2024/04/10 11:06:54.000   45.409531620   11.893988086    63.6085   5  23   1.9356   1.7100   4.0606  -0.9520   1.1907  -0.7045   0.00    0.0
2024/04/10 11:06:55.000   45.409532678   11.893987022    63.8540   5  23   1.9356   1.7101   4.0606  -0.9522   1.1910  -0.7049   0.00    0.0
2024/04/10 11:06:56.000   45.409533099   11.893987065    63.9173   5  23   1.9357   1.7102   4.0606  -0.9524   1.1912  -0.7052   0.00    0.0
2024/04/10 11:06:57.000   45.409532126   11.893988137    64.0879   5  23   1.9357   1.7103   4.0606  -0.9526   1.1915  -0.7055   0.00    0.0
2024/04/10 11:06:58.000   45.409532222   11.893987972    64.1558   5  23   1.9358   1.7105   4.0606  -0.9528   1.1918  -0.7059   0.00    0.0
2024/04/10 11:06:59.000   45.409532459   11.893987675    64.2443   5  23   1.9358   1.7106   4.0606  -0.9530   1.1921  -0.7062   0.00    0.0
2024/04/10 11:07:00.000   45.409532747   11.893986116    64.0862   5  23   1.9359   1.7107   4.0606  -0.9532   1.1923  -0.7065   0.00    0.0
2024/04/10 11:07:01.000   45.409532267   11.893987301    64.1417   5  23   1.9359   1.7109   4.0606  -0.9534   1.1926  -0.7068   0.00    0.0
2024/04/10 11:07:02.000   45.409533056   11.893987251    63.9291   5  23   1.9360   1.7110   4.0606  -0.9536   1.1929  -0.7072   0.00    0.0
2024/04/10 11:07:03.000   45.409532874   11.893986827    63.4565   5  23   1.9360   1.7111   4.0607  -0.9538   1.1931  -0.7075   0.00    0.0
2024/04/10 11:07:04.000   45.409530948   11.893987529    63.6073   5  23   1.9360   1.7112   4.0607  -0.9540   1.1934  -0.7078   0.00    0.0
2024/04/10 11:07:05.000   45.409530680   11.893988075    63.3201   5  23   1.9361   1.7114   4.0607  -0.9542   1.1937  -0.7082   0.00    0.0
2024/04/10 11:07:06.000   45.409531223   11.893987564    63.1448   5  23   1.9361   1.7115   4.0607  -0.9544   1.1939  -0.7085   0.00    0.0
2024/04/10 11:07:07.000   45.409530329   11.893987076    63.0857   5  23   1.9362   1.7116   4.0607  -0.9545   1.1942  -0.7088   0.00    0.0
2024/04/10 11:07:08.000   45.409529097   11.893988921    62.9413   5  23   1.9362   1.7117   4.0607  -0.9547   1.1945  -0.7091   0.00    0.0
2024/04/10 11:07:09.000   45.409528495   11.893989026    62.9160   5  23   1.9363   1.7119   4.0607  -0.9549   1.1947  -0.7095   0.00    0.0
2024/04/10 11:07:10.000   45.409528621   11.893989246    62.7259   5  23   1.9363   1.7120   4.0607  -0.9551   1.1950  -0.7098   0.00    0.0
2024/04/10 11:07:11.000   45.409528418   11.893989844    62.9473   5  23   1.9364   1.7121   4.0607  -0.9553   1.1953  -0.7101   0.00    0.0
2024/04/10 11:07:12.000   45.409528782   11.893989091    62.7744   5  23   1.9364   1.7123   4.0607  -0.9555   1.1955  -0.7105   0.00    0.0
2024/04/10 11:07:13.000   45.409528574   11.893988104    62.9864   5  23   1.9365   1.7124   4.0607  -0.9557   1.1958  -0.7108   0.00    0.0
2024/04/10 11:07:14.000   45.409527765   11.893988792    63.1755   5  23   1.9365   1.7125   4.0607  -0.9559   1.1961  -0.7111   0.00    0.0
2024/04/10 11:07:15.000   45.409528524   11.893988992    63.4248   5  23   1.9365   1.7126   4.0607  -0.9561   1.1963  -0.7114   0.00    0.0
2024/04/10 11:07:16.000   45.409528164   11.893990013    63.4349   5  23   1.9366   1.7128   4.0607  -0.9563   1.1966  -0.7118   0.00    0.0
2024/04/10 11:07:17.000   45.409529436   11.893988631    63.2724   5  23   1.9366   1.7129   4.0607  -0.9565   1.1969  -0.7121   0.00    0.0
2024/04/10 11:07:18.000   45.409530305   11.893987524    63.1594   5  23   1.9367   1.7130   4.0607  -0.9567   1.1971  -0.7124   0.00    0.0
2024/04/10 11:07:19.000   45.409530804   11.893989214    63.2193   5  23   1.9367   1.7132   4.0607  -0.9569   1.1974  -0.7128   0.00    0.0
2024/04/10 11:07:20.000   45.409530191   11.893990149    63.5151   5  23   1.9368   1.7133   4.0607  -0.9571   1.1977  -0.7131   0.00    0.0
2024/04/10 11:07:21.000   45.409530749   11.893991877    63.6257   5  23   1.9368   1.7134   4.0607  -0.9573   1.1979  -0.7134   0.00    0.0
2024/04/10 11:07:22.000   45.409530978   11.893991148    63.4257   5  23   1.9369   1.7135   4.0607  -0.9575   1.1982  -0.7138   0.00    0.0
2024/04/10 11:07:23.000   45.409531069   11.893989123    63.1980   5  23   1.9369   1.7137   4.0607  -0.9577   1.1985  -0.7141   0.00    0.0
2024/04/10 11:07:24.000   45.409530589   11.893989326    63.3230   5  23   1.9369   1.7138   4.0607  -0.9579   1.1987  -0.7144   0.00    0.0
2024/04/10 11:07:25.000   45.409529267   11.893990719    63.1540   5  23   1.9370   1.7139   4.0607  -0.9580   1.1990  -0.7147   0.00    0.0
2024/04/10 11:07:26.000   45.409530074   11.893989083    63.0991   5  23   1.9370   1.7141   4.0607  -0.9582   1.1993  -0.7151   0.00    0.0
2024/04/10 11:07:27.000   45.409529377   11.893988748    63.0466   5  23   1.9371   1.7142   4.0607  -0.9584   1.1995  -0.7154   0.00    0.0
2024/04/10 11:07:28.000   45.409529799   11.893987420    63.0253   5  23   1.9371   1.7143   4.0607  -0.9586   1.1998  -0.7157   0.00    0.0
2024/04/10 11:07:29.000   45.409530929   11.893986454    62.7169   5  23   1.9372   1.7144   4.0607  -0.9588   1.2001  -0.7161   0.00    0.0
2024/04/10 11:07:30.000   45.409532083   11.893984826    62.8239   5  23   1.9372   1.7146   4.0607  -0.9590   1.2003  -0.7164   0.00    0.0
2024/04/10 11:07:31.000   45.409530828   11.893985022    62.7399   5  23   1.9373   1.7147   4.0607  -0.9592   1.2006  -0.7167   0.00    0.0
2024/04/10 11:07:32.000   45.409531320   11.893983814    62.5295   5  23   1.9373   1.7148   4.0607  -0.9594   1.2009  -0.7171   0.00    0.0
2024/04/10 11:07:33.000   45.409531378   11.893983707    62.5622   5  23   1.9374   1.7150   4.0607  -0.9596   1.2011  -0.7174   0.00    0.0
2024/04/10 11:07:34.000   45.409529568   11.893985939    62.6993   5  23   1.9374   1.7151   4.0607  -0.9598   1.2014  -0.7177   0.00    0.0
2024/04/10 11:07:35.000   45.409530281   11.893985883    62.6560   5  23   1.9374   1.7152   4.0607  -0.9600   1.2016  -0.7180   0.00    0.0
2024/04/10 11:07:36.000   45.409530868   11.893984817    62.8126   5  23   1.9375   1.7153   4.0607  -0.9602   1.2019  -0.7184   0.00    0.0
2024/04/10 11:07:37.000   45.409532025   11.893984674    62.6386   5  23   1.9375   1.7155   4.0607  -0.9604   1.2022  -0.7187   0.00    0.0
2024/04/10 11:07:38.000   45.409530010   11.893984831    62.7462   5  23   1.9376   1.7156   4.0607  -0.9606   1.2024  -0.7190   0.00    0.0
2024/04/10 11:07:39.000   45.409529760   11.893984241    62.8536   5  23   1.9376   1.7157   4.0607  -0.9608   1.2027  -0.7194   0.00    0.0
2024/04/10 11:07:40.000   45.409529146   11.893985404    62.9106   5  23   1.9377   1.7159   4.0607  -0.9610   1.2030  -0.7197   0.00    0.0
2024/04/10 11:07:41.000   45.409529346   11.893985972    62.9497   5  23   1.9377   1.7160   4.0607  -0.9612   1.2032  -0.7200   0.00    0.0
2024/04/10 11:07:42.000   45.409529462   11.893985863    63.0370   5  23   1.9378   1.7161   4.0607  -0.9614   1.2035  -0.7203   0.00    0.0
2024/04/10 11:07:43.000   45.409528570   11.893986417    62.9637   5  23   1.9378   1.7162   4.0607  -0.9615   1.2038  -0.7207   0.00    0.0
2024/04/10 11:07:44.000   45.409527364   11.893986928    62.9472   5  23   1.9378   1.7164   4.0607  -0.9617   1.2040  -0.7210   0.00    0.0
2024/04/10 11:07:45.000   45.409527209   11.893986543    62.8316   5  23   1.9379   1.7165   4.0607  -0.9619   1.2043  -0.7213   0.00    0.0
2024/04/10 11:07:46.000   45.409526571   11.893986792    62.9550   5  23   1.9379   1.7166   4.0607  -0.9621   1.2046  -0.7217   0.00    0.0
2024/04/10 11:07:47.000   45.409525638   11.893985436    62.8579   5  23   1.9380   1.7168   4.0607  -0.9623   1.2048  -0.7220   0.00    0.0
2024/04/10 11:07:48.000   45.409525943   11.893986407    62.8288   5  23   1.9380   1.7169   4.0607  -0.9625   1.2051  -0.7223   0.00    0.0
2024/04/10 11:07:49.000   45.409526640   11.893985186    62.6717   5  23   1.9381   1.7170   4.0607  -0.9627   1.2054  -0.7227   0.00    0.0
2024/04/10 11:07:50.000   45.409528010   11.893985434    62.7710   5  23   1.9381   1.7171   4.0607  -0.9629   1.2056  -0.7230   0.00    0.0
2024/04/10 11:07:51.000   45.409528120   11.893986085    62.8495   5  23   1.9382   1.7173   4.0607  -0.9631   1.2059  -0.7233   0.00    0.0
2024/04/10 11:07:52.000   45.409528461   11.893986726    62.8062   5  23   1.9382   1.7174   4.0607  -0.9633   1.2062  -0.7236   0.00    0.0
2024/04/10 11:07:53.000   45.409529192   11.893986506    62.7688   5  23   1.9383   1.7175   4.0607  -0.9635   1.2064  -0.7240   0.00    0.0
2024/04/10 11:07:54.000   45.409528538   11.893988068    62.8456   5  23   1.9383   1.7177   4.0607  -0.9637   1.2067  -0.7243   0.00    0.0
2024/04/10 11:07:55.000   45.409527910   11.893988783    62.9798   5  23   1.9383   1.7178   4.0607  -0.9639   1.2069  -0.7246   0.00    0.0
2024/04/10 11:07:56.000   45.409528426   11.893987199    62.8561   5  23   1.9384   1.7179   4.0607  -0.9641   1.2072  -0.7250   0.00    0.0
2024/04/10 11:07:57.000   45.409528862   11.893987179    62.9287   5  23   1.9384   1.7180   4.0607  -0.9643   1.2075  -0.7253   0.00    0.0
2024/04/10 11:07:58.000   45.409528353   11.893987780    63.0317   5  23   1.9385   1.7182   4.0607  -0.9645   1.2077  -0.7256   0.00    0.0
2024/04/10 11:07:59.000   45.409529399   11.893987664    63.1612   5  23   1.9385   1.7183   4.0606  -0.9647   1.2080  -0.7260   0.00    0.0
2024/04/10 11:08:00.000   45.409529092   11.893987405    63.1487   5  23   1.9386   1.7184   4.0606  -0.9649   1.2083  -0.7263   0.00    0.0
2024/04/10 11:08:01.000   45.409528842   11.893986983    63.1274   5  23   1.9386   1.7186   4.0606  -0.9650   1.2085  -0.7266   0.00    0.0
2024/04/10 11:08:02.000   45.409529830   11.893985599    63.1214   5  23   1.9387   1.7187   4.0606  -0.9652   1.2088  -0.7269   0.00    0.0
2024/04/10 11:08:03.000   45.409529708   11.893985432    63.1131   5  23   1.9387   1.7188   4.0606  -0.9654   1.2091  -0.7273   0.00    0.0
2024/04/10 11:08:04.000   45.409531395   11.893984625    63.0383   5  23   1.9388   1.7190   4.0606  -0.9656   1.2093  -0.7276   0.00    0.0
2024/04/10 11:08:05.000   45.409531532   11.893984769    62.7664   5  23   1.9388   1.7191   4.0606  -0.9658   1.2096  -0.7279   0.00    0.0
2024/04/10 11:08:06.000   45.409531347   11.893985605    62.7058   5  23   1.9388   1.7192   4.0606  -0.9660   1.2098  -0.7283   0.00    0.0
2024/04/10 11:08:07.000   45.409531267   11.893984477    62.4036   5  23   1.9389   1.7193   4.0606  -0.9662   1.2101  -0.7286   0.00    0.0
2024/04/10 11:08:08.000   45.409530987   11.893982863    62.2647   5  23   1.9389   1.7195   4.0606  -0.9664   1.2104  -0.7289   0.00    0.0
2024/04/10 11:08:09.000   45.409531426   11.893982401    62.5420   5  23   1.9390   1.7196   4.0606  -0.9666   1.2106  -0.7292   0.00    0.0
2024/04/10 11:08:10.000   45.409532154   11.893981819    62.3837   5  23   1.9390   1.7197   4.0606  -0.9668   1.2109  -0.7296   0.00    0.0
2024/04/10 11:08:11.000   45.409532568   11.893980782    62.3892   5  23   1.9391   1.7199   4.0606  -0.9670   1.2112  -0.7299   0.00    0.0
2024/04/10 11:08:12.000   45.409532593   11.893980427    62.5289   5  23   1.9391   1.7200   4.0606  -0.9672   1.2114  -0.7302   0.00    0.0
2024/04/10 11:08:13.000   45.409532476   11.893979249    62.4696   5  23   1.9392   1.7201   4.0606  -0.9674   1.2117  -0.7306   0.00    0.0
2024/04/10 11:08:14.000   45.409532161   11.893978583    62.4620   5  23   1.9392   1.7203   4.0606  -0.9676   1.2120  -0.7309   0.00    0.0
2024/04/10 11:08:15.000   45.409531829   11.893978507    62.6196   5  23   1.9393   1.7204   4.0606  -0.9678   1.2122  -0.7312   0.00    0.0
2024/04/10 11:08:16.000   45.409532043   11.893978281    62.5805   5  23   1.9393   1.7205   4.0605  -0.9680   1.2125  -0.7316   0.00    0.0
2024/04/10 11:08:17.000   45.409532194   11.893979281    62.8559   5  23   1.9393   1.7206   4.0605  -0.9682   1.2127  -0.7319   0.00    0.0
2024/04/10 11:08:18.000   45.409532674   11.893978659    62.8896   5  23   1.9394   1.7208   4.0605  -0.9684   1.2130  -0.7322   0.00    0.0
2024/04/10 11:08:19.000   45.409532521   11.893979227    63.1853   5  23   1.9394   1.7209   4.0605  -0.9685   1.2133  -0.7325   0.00    0.0
2024/04/10 11:08:20.000   45.409532183   11.893979862    63.1378   5  23   1.9395   1.7210   4.0605  -0.9687   1.2135  -0.7329   0.00    0.0
2024/04/10 11:08:21.000   45.409533148   11.893978691    63.1272   5  23   1.9395   1.7212   4.0605  -0.9689   1.2138  -0.7332   0.00    0.0
2024/04/10 11:08:22.000   45.409532706   11.893979653    63.2902   5  23   1.9396   1.7213   4.0605  -0.9691   1.2141  -0.7335   0.00    0.0
2024/04/10 11:08:23.000   45.409533752   11.893978446    63.1751   5  23   1.9396   1.7214   4.0605  -0.9693   1.2143  -0.7339   0.00    0.0
2024/04/10 11:08:24.000   45.409533082   11.893979091    63.1383   5  23   1.9397   1.7216   4.0605  -0.9695   1.2146  -0.7342   0.00    0.0
2024/04/10 11:08:25.000   45.409531630   11.893979590    63.2193   5  23   1.9397   1.7217   4.0605  -0.9697   1.2148  -0.7345   0.00    0.0
2024/04/10 11:08:26.000   45.409531795   11.893981397    63.0100   5  23   1.9398   1.7218   4.0605  -0.9699   1.2151  -0.7349   0.00    0.0
2024/04/10 11:08:27.000   45.409531197   11.893982717    63.1024   5  23   1.9398   1.7220   4.0605  -0.9701   1.2154  -0.7352   0.00    0.0
2024/04/10 11:08:28.000   45.409530535   11.893983766    63.1161   5  23   1.9399   1.7221   4.0604  -0.9703   1.2156  -0.7355   0.00    0.0
2024/04/10 11:08:29.000   45.409529655   11.893983995    62.9885   5  23   1.9399   1.7222   4.0604  -0.9705   1.2159  -0.7358   0.00    0.0
2024/04/10 11:08:30.000   45.409529900   11.893983947    62.8969   5  23   1.9399   1.7223   4.0604  -0.9707   1.2162  -0.7362   0.00    0.0
2024/04/10 11:08:31.000   45.409530303   11.893982606    62.8011   5  23   1.9400   1.7225   4.0604  -0.9709   1.2164  -0.7365   0.00    0.0
2024/04/10 11:08:32.000   45.409529054   11.893982538    62.9269   5  23   1.9400   1.7226   4.0604  -0.9711   1.2167  -0.7368   0.00    0.0
2024/04/10 11:08:33.000   45.409528631   11.893982498    62.8890   5  23   1.9401   1.7227   4.0604  -0.9713   1.2169  -0.7372   0.00    0.0
2024/04/10 11:08:34.000   45.409528801   11.893982255    62.9183   5  23   1.9401   1.7229   4.0604  -0.9715   1.2172  -0.7375   0.00    0.0
2024/04/10 11:08:35.000   45.409529105   11.893981843    62.9610   5  23   1.9402   1.7230   4.0604  -0.9717   1.2175  -0.7378   0.00    0.0
2024/04/10 11:08:36.000   45.409528945   11.893980959    62.6988   5  23   1.9402   1.7231   4.0604  -0.9719   1.2177  -0.7381   0.00    0.0
2024/04/10 11:08:37.000   45.409529013   11.893981156    62.8801   5  23   1.9403   1.7233   4.0603  -0.9720   1.2180  -0.7385   0.00    0.0
2024/04/10 11:08:38.000   45.409529265   11.893981595    62.7757   5  23   1.9403   1.7234   4.0603  -0.9722   1.2183  -0.7388   0.00    0.0
2024/04/10 11:08:39.000   45.409529206   11.893982459    62.9872   5  23   1.9404   1.7235   4.0603  -0.9724   1.2185  -0.7391   0.00    0.0
2024/04/10 11:08:40.000   45.409528981   11.893984263    63.3487   5  23   1.9404   1.7237   4.0603  -0.9726   1.2188  -0.7395   0.00    0.0
2024/04/10 11:08:41.000   45.409528403   11.893985100    63.1588   5  23   1.9405   1.7238   4.0603  -0.9728   1.2190  -0.7398   0.00    0.0
2024/04/10 11:08:42.000   45.409527817   11.893983838    63.3015   5  23   1.9405   1.7239   4.0603  -0.9730   1.2193  -0.7401   0.00    0.0
2024/04/10 11:08:43.000   45.409528836   11.893983765    63.2775   5  23   1.9405   1.7241   4.0603  -0.9732   1.2196  -0.7405   0.00    0.0
2024/04/10 11:08:44.000   45.409529754   11.893983405    63.4246   5  23   1.9406   1.7242   4.0603  -0.9734   1.2198  -0.7408   0.00    0.0
2024/04/10 11:08:45.000   45.409530087   11.893983694    63.6778   5  23   1.9406   1.7243   4.0603  -0.9736   1.2201  -0.7411   0.00    0.0
2024/04/10 11:08:46.000   45.409529132   11.893985554    63.9166   5  23   1.9407   1.7244   4.0602  -0.9738   1.2203  -0.7414   0.00    0.0
2024/04/10 11:08:47.000   45.409527376   11.893985322    64.1134   5  23   1.9407   1.7246   4.0602  -0.9740   1.2206  -0.7418   0.00    0.0
2024/04/10 11:08:48.000   45.409526776   11.893984728    63.8764   5  23   1.9408   1.7247   4.0602  -0.9742   1.2209  -0.7421   0.00    0.0
2024/04/10 11:08:49.000   45.409527217   11.893985659    63.7107   5  23   1.9408   1.7248   4.0602  -0.9744   1.2211  -0.7424   0.00    0.0
2024/04/10 11:08:50.000   45.409526988   11.893988601    63.8138   5  23   1.9409   1.7250   4.0602  -0.9746   1.2214  -0.7428   0.00    0.0
2024/04/10 11:08:51.000   45.409526640   11.893988847    63.7240   5  23   1.9409   1.7251   4.0602  -0.9748   1.2216  -0.7431   0.00    0.0
2024/04/10 11:08:52.000   45.409525722   11.893989599    63.5989   5  23   1.9410   1.7252   4.0602  -0.9750   1.2219  -0.7434   0.00    0.0
2024/04/10 11:08:53.000   45.409526959   11.893991888    63.4450   5  23   1.9410   1.7254   4.0602  -0.9752   1.2222  -0.7438   0.00    0.0
2024/04/10 11:08:54.000   45.409527002   11.893990857    63.4673   5  23   1.9411   1.7255   4.0601  -0.9754   1.2224  -0.7441   0.00    0.0
2024/04/10 11:08:55.000   45.409524105   11.893990660    63.4087   5  23   1.9411   1.7256   4.0601  -0.9755   1.2227  -0.7444   0.00    0.0
2024/04/10 11:08:56.000   45.409524819   11.893991731    63.3102   5  23   1.9411   1.7258   4.0601  -0.9757   1.2230  -0.7447   0.00    0.0
2024/04/10 11:08:57.000   45.409525356   11.893990209    63.2446   5  23   1.9412   1.7259   4.0601  -0.9759   1.2232  -0.7451   0.00    0.0
2024/04/10 11:08:58.000   45.409525522   11.893989185    63.1090   5  23   1.9412   1.7260   4.0601  -0.9761   1.2235  -0.7454   0.00    0.0
2024/04/10 11:08:59.000   45.409526434   11.893987908    63.2731   5  23   1.9413   1.7262   4.0601  -0.9763   1.2237  -0.7457   0.00    0.0
2024/04/10 11:09:00.000   45.409525347   11.893988244    63.1011   5  23   1.9413   1.7263   4.0601  -0.9765   1.2240  -0.7461   0.00    0.0
2024/04/10 11:09:01.000   45.409525806   11.893987807    62.9375   5  23   1.9414   1.7264   4.0600  -0.9767   1.2243  -0.7464   0.00    0.0
2024/04/10 11:09:02.000   45.409525381   11.893988189    62.6641   5  23   1.9414   1.7266   4.0600  -0.9769   1.2245  -0.7467   0.00    0.0
2024/04/10 11:09:03.000   45.409526030   11.893987837    62.3830   5  23   1.9415   1.7267   4.0600  -0.9771   1.2248  -0.7470   0.00    0.0
2024/04/10 11:09:04.000   45.409526476   11.893986411    62.2887   5  23   1.9415   1.7268   4.0600  -0.9773   1.2250  -0.7474   0.00    0.0
2024/04/10 11:09:05.000   45.409527536   11.893985100    62.0826   5  23   1.9416   1.7269   4.0600  -0.9775   1.2253  -0.7477   0.00    0.0
2024/04/10 11:09:06.000   45.409527271   11.893983934    61.9792   5  23   1.9416   1.7271   4.0600  -0.9777   1.2256  -0.7480   0.00    0.0
2024/04/10 11:09:07.000   45.409527752   11.893984356    61.9516   5  23   1.9417   1.7272   4.0599  -0.9779   1.2258  -0.7484   0.00    0.0
2024/04/10 11:09:08.000   45.409528115   11.893984598    62.1094   5  23   1.9417   1.7273   4.0599  -0.9781   1.2261  -0.7487   0.00    0.0
2024/04/10 11:09:09.000   45.409529702   11.893983427    61.9388   5  23   1.9417   1.7275   4.0599  -0.9783   1.2263  -0.7490   0.00    0.0
2024/04/10 11:09:10.000   45.409530644   11.893984868    61.9668   5  23   1.9418   1.7276   4.0599  -0.9785   1.2266  -0.7494   0.00    0.0
2024/04/10 11:09:11.000   45.409531242   11.893984132    62.0216   5  23   1.9418   1.7277   4.0599  -0.9787   1.2269  -0.7497   0.00    0.0
2024/04/10 11:09:12.000   45.409531459   11.893983259    61.7845   5  23   1.9419   1.7279   4.0599  -0.9789   1.2271  -0.7500   0.00    0.0
2024/04/10 11:09:13.000   45.409530044   11.893985059    62.0991   5  23   1.9419   1.7280   4.0598  -0.9790   1.2274  -0.7503   0.00    0.0
2024/04/10 11:09:14.000   45.409530311   11.893984315    61.8343   5  23   1.9420   1.7281   4.0598  -0.9792   1.2276  -0.7507   0.00    0.0
2024/04/10 11:09:15.000   45.409529969   11.893986282    61.8678   5  23   1.9420   1.7283   4.0598  -0.9794   1.2279  -0.7510   0.00    0.0
2024/04/10 11:09:16.000   45.409528811   11.893987115    62.1251   5  23   1.9421   1.7284   4.0598  -0.9796   1.2282  -0.7513   0.00    0.0
2024/04/10 11:09:17.000   45.409528699   11.893986537    62.0461   5  23   1.9421   1.7285   4.0598  -0.9798   1.2284  -0.7517   0.00    0.0
2024/04/10 11:09:18.000   45.409527681   11.893986918    62.1412   5  23   1.9422   1.7287   4.0598  -0.9800   1.2287  -0.7520   0.00    0.0
2024/04/10 11:09:19.000   45.409527039   11.893986819    62.1346   5  23   1.9422   1.7288   4.0597  -0.9802   1.2289  -0.7523   0.00    0.0
2024/04/10 11:09:20.000   45.409527818   11.893987080    62.1103   5  23   1.9423   1.7289   4.0597  -0.9804   1.2292  -0.7526   0.00    0.0
2024/04/10 11:09:21.000   45.409527841   11.893986739    62.1730   5  23   1.9423   1.7291   4.0597  -0.9806   1.2295  -0.7530   0.00    0.0
2024/04/10 11:09:22.000   45.409528039   11.893987004    61.9579   5  23   1.9424   1.7292   4.0597  -0.9808   1.2297  -0.7533   0.00    0.0
2024/04/10 11:09:23.000   45.409526604   11.893987349    62.1752   5  23   1.9424   1.7293   4.0597  -0.9810   1.2300  -0.7536   0.00    0.0
2024/04/10 11:09:24.000   45.409525769   11.893988905    62.3838   5  23   1.9424   1.7295   4.0597  -0.9812   1.2302  -0.7540   0.00    0.0
2024/04/10 11:09:25.000   45.409526616   11.893988591    62.1034   5  23   1.9425   1.7296   4.0596  -0.9814   1.2305  -0.7543   0.00    0.0
2024/04/10 11:09:26.000   45.409526420   11.893988394    62.0442   5  23   1.9425   1.7297   4.0596  -0.9816   1.2307  -0.7546   0.00    0.0
2024/04/10 11:09:27.000   45.409524864   11.893989795    62.4580   5  23   1.9426   1.7299   4.0596  -0.9818   1.2310  -0.7550   0.00    0.0
2024/04/10 11:09:28.000   45.409524122   11.893989754    62.7166   5  23   1.9426   1.7300   4.0596  -0.9820   1.2313  -0.7553   0.00    0.0
2024/04/10 11:09:29.000   45.409524229   11.893990812    62.6089   5  23   1.9427   1.7301   4.0596  -0.9822   1.2315  -0.7556   0.00    0.0
2024/04/10 11:09:30.000   45.409523779   11.893991551    62.5234   5  23   1.9427   1.7303   4.0595  -0.9824   1.2318  -0.7559   0.00    0.0
2024/04/10 11:09:31.000   45.409524724   11.893991493    62.2056   5  23   1.9428   1.7304   4.0595  -0.9826   1.2320  -0.7563   0.00    0.0
2024/04/10 11:09:32.000   45.409523784   11.893991752    62.3239   5  23   1.9428   1.7305   4.0595  -0.9827   1.2323  -0.7566   0.00    0.0
2024/04/10 11:09:33.000   45.409525578   11.893991000    62.1395   5  23   1.9429   1.7307   4.0595  -0.9829   1.2326  -0.7569   0.00    0.0
2024/04/10 11:09:34.000   45.409526077   11.893990288    62.1187   5  23   1.9429   1.7308   4.0595  -0.9831   1.2328  -0.7573   0.00    0.0
2024/04/10 11:09:35.000   45.409526826   11.893990348    62.2097   5  23   1.9430   1.7309   4.0594  -0.9833   1.2331  -0.7576   0.00    0.0
2024/04/10 11:09:36.000   45.409527876   11.893990583    62.1288   5  23   1.9430   1.7311   4.0594  -0.9835   1.2333  -0.7579   0.00    0.0
2024/04/10 11:09:37.000   45.409526437   11.893990831    62.2291   5  23   1.9431   1.7312   4.0594  -0.9837   1.2336  -0.7582   0.00    0.0
2024/04/10 11:09:38.000   45.409527498   11.893989999    62.4076   5  23   1.9431   1.7313   4.0594  -0.9839   1.2338  -0.7586   0.00    0.0
2024/04/10 11:09:39.000   45.409527477   11.893990812    62.7534   5  23   1.9431   1.7315   4.0594  -0.9841   1.2341  -0.7589   0.00    0.0
2024/04/10 11:09:40.000   45.409527877   11.893990473    62.7543   5  23   1.9432   1.7316   4.0593  -0.9843   1.2344  -0.7592   0.00    0.0
2024/04/10 11:09:41.000   45.409526806   11.893992039    62.9341   5  23   1.9432   1.7317   4.0593  -0.9845   1.2346  -0.7596   0.00    0.0
2024/04/10 11:09:42.000   45.409526949   11.893991160    62.9058   5  23   1.9433   1.7319   4.0593  -0.9847   1.2349  -0.7599   0.00    0.0
2024/04/10 11:09:43.000   45.409526565   11.893990815    63.0320   5  23   1.9433   1.7320   4.0593  -0.9849   1.2351  -0.7602   0.00    0.0
2024/04/10 11:09:44.000   45.409527873   11.893989758    62.9226   5  23   1.9434   1.7321   4.0592  -0.9851   1.2354  -0.7606   0.00    0.0
2024/04/10 11:09:45.000   45.409526954   11.893990946    63.3688   5  23   1.9434   1.7323   4.0592  -0.9853   1.2357  -0.7609   0.00    0.0
2024/04/10 11:09:46.000   45.409529621   11.893988980    63.0502   5  23   1.9435   1.7324   4.0592  -0.9855   1.2359  -0.7612   0.00    0.0
2024/04/10 11:09:47.000   45.409527849   11.893989652    62.8924   5  23   1.9435   1.7325   4.0592  -0.9857   1.2362  -0.7615   0.00    0.0
2024/04/10 11:09:48.000   45.409526304   11.893991674    63.2424   5  23   1.9436   1.7327   4.0592  -0.9859   1.2364  -0.7619   0.00    0.0
2024/04/10 11:09:49.000   45.409525969   11.893991416    63.1728   5  23   1.9436   1.7328   4.0591  -0.9861   1.2367  -0.7622   0.00    0.0
2024/04/10 11:09:50.000   45.409526464   11.893991254    62.8296   5  23   1.9437   1.7329   4.0591  -0.9863   1.2369  -0.7625   0.00    0.0
2024/04/10 11:09:51.000   45.409526619   11.893990730    62.8464   5  23   1.9437   1.7331   4.0591  -0.9864   1.2372  -0.7629   0.00    0.0
2024/04/10 11:09:52.000   45.409525463   11.893989984    62.7632   5  23   1.9438   1.7332   4.0591  -0.9866   1.2375  -0.7632   0.00    0.0
2024/04/10 11:09:53.000   45.409524732   11.893991454    62.9839   5  23   1.9438   1.7333   4.0590  -0.9868   1.2377  -0.7635   0.00    0.0
2024/04/10 11:09:54.000   45.409524105   11.893991889    63.0787   5  23   1.9439   1.7335   4.0590  -0.9870   1.2380  -0.7638   0.00    0.0
2024/04/10 11:09:55.000   45.409524042   11.893991617    63.2519   5  23   1.9439   1.7336   4.0590  -0.9872   1.2382  -0.7642   0.00    0.0
2024/04/10 11:09:56.000   45.409524490   11.893991527    63.4358   5  23   1.9440   1.7337   4.0590  -0.9874   1.2385  -0.7645   0.00    0.0
2024/04/10 11:09:57.000   45.409524505   11.893992575    63.5290   5  23   1.9440   1.7339   4.0590  -0.9876   1.2387  -0.7648   0.00    0.0
2024/04/10 11:09:58.000   45.409524448   11.893994958    63.6024   5  23   1.9440   1.7340   4.0589  -0.9878   1.2390  -0.7652   0.00    0.0
2024/04/10 11:09:59.000   45.409524956   11.893995998    63.6924   5  23   1.9441   1.7341   4.0589  -0.9880   1.2393  -0.7655   0.00    0.0
2024/04/10 11:10:00.000   45.409524668   11.893996230    63.5987   5  23   1.9441   1.7343   4.0589  -0.9882   1.2395  -0.7658   0.00    0.0
2024/04/10 11:10:01.000   45.409524775   11.893996619    63.6686   5  23   1.9442   1.7344   4.0589  -0.9884   1.2398  -0.7661   0.00    0.0
2024/04/10 11:10:02.000   45.409525217   11.893995501    63.8604   5  23   1.9442   1.7345   4.0588  -0.9886   1.2400  -0.7665   0.00    0.0
2024/04/10 11:10:03.000   45.409527009   11.893995471    63.9465   5  23   1.9443   1.7347   4.0588  -0.9888   1.2403  -0.7668   0.00    0.0
2024/04/10 11:10:04.000   45.409527354   11.893995172    64.0905   5  23   1.9443   1.7348   4.0588  -0.9890   1.2405  -0.7671   0.00    0.0
2024/04/10 11:10:05.000   45.409527328   11.893993848    64.0944   5  23   1.9444   1.7349   4.0588  -0.9892   1.2408  -0.7675   0.00    0.0
2024/04/10 11:10:06.000   45.409527491   11.893993496    64.2025   5  23   1.9444   1.7351   4.0587  -0.9894   1.2411  -0.7678   0.00    0.0
2024/04/10 11:10:07.000   45.409528285   11.893991713    64.2238   5  23   1.9445   1.7352   4.0587  -0.9896   1.2413  -0.7681   0.00    0.0
2024/04/10 11:10:08.000   45.409527906   11.893992034    64.5717   5  23   1.9445   1.7353   4.0587  -0.9898   1.2416  -0.7684   0.00    0.0
2024/04/10 11:10:09.000   45.409528024   11.893992957    64.7345   5  23   1.9446   1.7355   4.0587  -0.9900   1.2418  -0.7688   0.00    0.0
2024/04/10 11:10:10.000   45.409528343   11.893992392    64.3125   5  23   1.9446   1.7356   4.0586  -0.9901   1.2421  -0.7691   0.00    0.0
2024/04/10 11:10:11.000   45.409527946   11.893992468    64.2372   5  23   1.9447   1.7358   4.0586  -0.9903   1.2423  -0.7694   0.00    0.0
2024/04/10 11:10:12.000   45.409528797   11.893991072    63.8416   5  23   1.9447   1.7359   4.0586  -0.9905   1.2426  -0.7698   0.00    0.0
2024/04/10 11:10:13.000   45.409528610   11.893990586    63.5419   5  23   1.9448   1.7360   4.0586  -0.9907   1.2429  -0.7701   0.00    0.0
2024/04/10 11:10:14.000   45.409528867   11.893988855    63.3576   5  23   1.9448   1.7362   4.0585  -0.9909   1.2431  -0.7704   0.00    0.0
2024/04/10 11:10:15.000   45.409530879   11.893986579    63.2766   5  23   1.9449   1.7363   4.0585  -0.9911   1.2434  -0.7708   0.00    0.0
2024/04/10 11:10:16.000   45.409531270   11.893986144    63.0314   5  23   1.9449   1.7364   4.0585  -0.9913   1.2436  -0.7711   0.00    0.0
2024/04/10 11:10:17.000   45.409531651   11.893984975    63.0862   5  23   1.9449   1.7366   4.0584  -0.9915   1.2439  -0.7714   0.00    0.0
2024/04/10 11:10:18.000   45.409532753   11.893984965    62.9817   5  23   1.9450   1.7367   4.0584  -0.9917   1.2441  -0.7717   0.00    0.0
2024/04/10 11:10:19.000   45.409532192   11.893984887    63.2259   5  23   1.9450   1.7368   4.0584  -0.9919   1.2444  -0.7721   0.00    0.0
2024/04/10 11:10:20.000   45.409532604   11.893983976    63.1945   5  23   1.9451   1.7370   4.0584  -0.9921   1.2446  -0.7724   0.00    0.0
2024/04/10 11:10:21.000   45.409531953   11.893983915    63.0346   5  23   1.9451   1.7371   4.0583  -0.9923   1.2449  -0.7727   0.00    0.0
2024/04/10 11:10:22.000   45.409531866   11.893985062    63.2075   5  23   1.9452   1.7372   4.0583  -0.9925   1.2452  -0.7731   0.00    0.0
2024/04/10 11:10:23.000   45.409532224   11.893985192    63.1592   5  23   1.9452   1.7374   4.0583  -0.9927   1.2454  -0.7734   0.00    0.0
2024/04/10 11:10:24.000   45.409532248   11.893985649    63.0219   5  23   1.9453   1.7375   4.0583  -0.9929   1.2457  -0.7737   0.00    0.0
2024/04/10 11:10:25.000   45.409532266   11.893986117    63.0645   5  23   1.9453   1.7376   4.0582  -0.9931   1.2459  -0.7740   0.00    0.0
2024/04/10 11:10:26.000   45.409532148   11.893989560    62.9927   5  23   1.9454   1.7378   4.0582  -0.9933   1.2462  -0.7744   0.00    0.0
2024/04/10 11:10:27.000   45.409531809   11.893989502    62.8854   5  23   1.9454   1.7379   4.0582  -0.9935   1.2464  -0.7747   0.00    0.0
2024/04/10 11:10:28.000   45.409532005   11.893987611    62.9151   5  23   1.9455   1.7380   4.0581  -0.9937   1.2467  -0.7750   0.00    0.0
2024/04/10 11:10:29.000   45.409532585   11.893987364    62.6690   5  23   1.9455   1.7382   4.0581  -0.9938   1.2469  -0.7754   0.00    0.0
2024/04/10 11:10:30.000   45.409534333   11.893986906    62.5636   5  23   1.9456   1.7383   4.0581  -0.9940   1.2472  -0.7757   0.00    0.0
2024/04/10 11:10:31.000   45.409533837   11.893986463    62.4084   5  23   1.9456   1.7384   4.0581  -0.9942   1.2475  -0.7760   0.00    0.0
2024/04/10 11:10:32.000   45.409533082   11.893989185    62.3121   5  23   1.9457   1.7386   4.0580  -0.9944   1.2477  -0.7763   0.00    0.0
2024/04/10 11:10:33.000   45.409532251   11.893990607    62.4549   5  23   1.9457   1.7387   4.0580  -0.9946   1.2480  -0.7767   0.00    0.0
2024/04/10 11:10:34.000   45.409532064   11.893989812    62.2409   5  23   1.9458   1.7389   4.0580  -0.9948   1.2482  -0.7770   0.00    0.0
2024/04/10 11:10:35.000   45.409532002   11.893990226    61.9882   5  23   1.9458   1.7390   4.0579  -0.9950   1.2485  -0.7773   0.00    0.0
2024/04/10 11:10:36.000   45.409531216   11.893989921    61.9667   5  23   1.9459   1.7391   4.0579  -0.9952   1.2487  -0.7777   0.00    0.0
2024/04/10 11:10:37.000   45.409531305   11.893988825    61.8871   5  23   1.9459   1.7393   4.0579  -0.9954   1.2490  -0.7780   0.00    0.0
2024/04/10 11:10:38.000   45.409529995   11.893989952    62.0010   5  23   1.9459   1.7394   4.0579  -0.9956   1.2492  -0.7783   0.00    0.0
2024/04/10 11:10:39.000   45.409529789   11.893989083    62.0242   5  23   1.9460   1.7395   4.0578  -0.9958   1.2495  -0.7786   0.00    0.0
2024/04/10 11:10:40.000   45.409530335   11.893988882    62.0564   5  23   1.9460   1.7397   4.0578  -0.9960   1.2497  -0.7790   0.00    0.0
2024/04/10 11:10:41.000   45.409529793   11.893988233    61.8767   5  23   1.9461   1.7398   4.0578  -0.9962   1.2500  -0.7793   0.00    0.0
2024/04/10 11:10:42.000   45.409529399   11.893989923    61.8143   5  23   1.9461   1.7399   4.0577  -0.9964   1.2503  -0.7796   0.00    0.0
2024/04/10 11:10:43.000   45.409528143   11.893990598    62.0780   5  23   1.9462   1.7401   4.0577  -0.9966   1.2505  -0.7800   0.00    0.0
2024/04/10 11:10:44.000   45.409527794   11.893988474    62.0292   5  23   1.9462   1.7402   4.0577  -0.9968   1.2508  -0.7803   0.00    0.0
2024/04/10 11:10:45.000   45.409527296   11.893988052    62.0742   5  23   1.9463   1.7403   4.0576  -0.9970   1.2510  -0.7806   0.00    0.0
2024/04/10 11:10:46.000   45.409528194   11.893987124    62.0788   5  23   1.9463   1.7405   4.0576  -0.9972   1.2513  -0.7809   0.00    0.0
2024/04/10 11:10:47.000   45.409527943   11.893986888    62.2396   5  23   1.9464   1.7406   4.0576  -0.9974   1.2515  -0.7813   0.00    0.0
2024/04/10 11:10:48.000   45.409527897   11.893986922    62.2533   5  23   1.9464   1.7408   4.0575  -0.9975   1.2518  -0.7816   0.00    0.0
2024/04/10 11:10:49.000   45.409526431   11.893986204    62.4955   5  23   1.9465   1.7409   4.0575  -0.9977   1.2520  -0.7819   0.00    0.0
2024/04/10 11:10:50.000   45.409527158   11.893985392    62.5355   5  23   1.9465   1.7410   4.0575  -0.9979   1.2523  -0.7822   0.00    0.0
2024/04/10 11:10:51.000   45.409526695   11.893984688    62.2527   5  23   1.9466   1.7412   4.0574  -0.9981   1.2525  -0.7826   0.00    0.0
2024/04/10 11:10:52.000   45.409525796   11.893985445    62.2308   5  23   1.9466   1.7413   4.0574  -0.9983   1.2528  -0.7829   0.00    0.0
2024/04/10 11:10:53.000   45.409526640   11.893982583    62.1834   5  23   1.9467   1.7414   4.0574  -0.9985   1.2531  -0.7832   0.00    0.0
2024/04/10 11:10:54.000   45.409526446   11.893982285    62.3703   5  23   1.9467   1.7416   4.0574  -0.9987   1.2533  -0.7836   0.00    0.0
2024/04/10 11:10:55.000   45.409526431   11.893981933    62.2142   5  23   1.9468   1.7417   4.0573  -0.9989   1.2536  -0.7839   0.00    0.0
2024/04/10 11:10:56.000   45.409526753   11.893981402    62.1858   5  23   1.9468   1.7418   4.0573  -0.9991   1.2538  -0.7842   0.00    0.0
2024/04/10 11:10:57.000   45.409526690   11.893980378    62.1060   5  23   1.9469   1.7420   4.0573  -0.9993   1.2541  -0.7845   0.00    0.0
2024/04/10 11:10:58.000   45.409527857   11.893981605    62.1383   5  23   1.9469   1.7421   4.0572  -0.9995   1.2543  -0.7849   0.00    0.0
2024/04/10 11:10:59.000   45.409528139   11.893982027    62.1271   5  23   1.9470   1.7423   4.0572  -0.9997   1.2546  -0.7852   0.00    0.0
2024/04/10 11:11:00.000   45.409528495   11.893982741    62.4412   5  23   1.9470   1.7424   4.0572  -0.9999   1.2548  -0.7855   0.00    0.0
2024/04/10 11:11:01.000   45.409528620   11.893983133    62.5281   5  23   1.9471   1.7425   4.0571  -1.0001   1.2551  -0.7859   0.00    0.0
2024/04/10 11:11:02.000   45.409528252   11.893983965    62.7282   5  23   1.9471   1.7427   4.0571  -1.0003   1.2553  -0.7862   0.00    0.0
2024/04/10 11:11:03.000   45.409528074   11.893984651    62.7305   5  23   1.9472   1.7428   4.0571  -1.0005   1.2556  -0.7865   0.00    0.0
2024/04/10 11:11:04.000   45.409527652   11.893985156    62.9272   5  23   1.9472   1.7429   4.0570  -1.0007   1.2558  -0.7868   0.00    0.0
2024/04/10 11:11:05.000   45.409528575   11.893983594    62.7212   5  23   1.9472   1.7431   4.0570  -1.0009   1.2561  -0.7872   0.00    0.0
2024/04/10 11:11:06.000   45.409528738   11.893984651    62.9218   5  23   1.9473   1.7432   4.0570  -1.0011   1.2564  -0.7875   0.00    0.0
2024/04/10 11:11:07.000   45.409529197   11.893984933    62.5798   5  23   1.9473   1.7433   4.0569  -1.0012   1.2566  -0.7878   0.00    0.0
2024/04/10 11:11:08.000   45.409530035   11.893982752    62.5990   5  23   1.9474   1.7435   4.0569  -1.0014   1.2569  -0.7882   0.00    0.0
2024/04/10 11:11:09.000   45.409529131   11.893982533    62.5918   5  23   1.9474   1.7436   4.0569  -1.0016   1.2571  -0.7885   0.00    0.0
2024/04/10 11:11:10.000   45.409527837   11.893982365    62.6621   5  23   1.9475   1.7438   4.0568  -1.0018   1.2574  -0.7888   0.00    0.0
2024/04/10 11:11:11.000   45.409527706   11.893982273    62.5111   5  23   1.9475   1.7439   4.0568  -1.0020   1.2576  -0.7891   0.00    0.0
2024/04/10 11:11:12.000   45.409527067   11.893982256    62.5159   5  23   1.9476   1.7440   4.0567  -1.0022   1.2579  -0.7895   0.00    0.0
2024/04/10 11:11:13.000   45.409527129   11.893984290    62.6330   5  23   1.9476   1.7442   4.0567  -1.0024   1.2581  -0.7898   0.00    0.0
2024/04/10 11:11:14.000   45.409528210   11.893983639    62.4980   5  23   1.9477   1.7443   4.0567  -1.0026   1.2584  -0.7901   0.00    0.0
2024/04/10 11:11:15.000   45.409527933   11.893983103    62.6012   5  23   1.9477   1.7444   4.0566  -1.0028   1.2586  -0.7905   0.00    0.0
2024/04/10 11:11:16.000   45.409528526   11.893982995    62.7926   5  23   1.9478   1.7446   4.0566  -1.0030   1.2589  -0.7908   0.00    0.0
2024/04/10 11:11:17.000   45.409527171   11.893984653    62.9220   5  23   1.9478   1.7447   4.0566  -1.0032   1.2591  -0.7911   0.00    0.0
2024/04/10 11:11:18.000   45.409527206   11.893985038    62.8878   5  23   1.9479   1.7449   4.0565  -1.0034   1.2594  -0.7914   0.00    0.0
2024/04/10 11:11:19.000   45.409527243   11.893985308    62.6802   5  23   1.9479   1.7450   4.0565  -1.0036   1.2596  -0.7918   0.00    0.0
2024/04/10 11:11:20.000   45.409528401   11.893986740    62.6814   5  23   1.9480   1.7451   4.0565  -1.0038   1.2599  -0.7921   0.00    0.0
2024/04/10 11:11:21.000   45.409527456   11.893986783    62.5731   5  23   1.9480   1.7453   4.0564  -1.0040   1.2602  -0.7924   0.00    0.0
2024/04/10 11:11:22.000   45.409528550   11.893987091    62.5922   5  23   1.9481   1.7454   4.0564  -1.0042   1.2604  -0.7927   0.00    0.0
2024/04/10 11:11:23.000   45.409528581   11.893987498    62.6128   5  23   1.9481   1.7455   4.0564  -1.0044   1.2607  -0.7931   0.00    0.0
2024/04/10 11:11:24.000   45.409528101   11.893986249    62.6763   5  23   1.9482   1.7457   4.0563  -1.0046   1.2609  -0.7934   0.00    0.0
2024/04/10 11:11:25.000   45.409527737   11.893987434    62.6342   5  23   1.9482   1.7458   4.0563  -1.0048   1.2612  -0.7937   0.00    0.0
2024/04/10 11:11:26.000   45.409527093   11.893988346    62.7818   5  23   1.9483   1.7459   4.0562  -1.0050   1.2614  -0.7941   0.00    0.0
2024/04/10 11:11:27.000   45.409526898   11.893988994    62.9260   5  23   1.9483   1.7461   4.0562  -1.0051   1.2617  -0.7944   0.00    0.0
2024/04/10 11:11:28.000   45.409526442   11.893988663    62.8522   5  23   1.9484   1.7462   4.0562  -1.0053   1.2619  -0.7947   0.00    0.0
2024/04/10 11:11:29.000   45.409526673   11.893988805    62.6828   5  23   1.9484   1.7464   4.0561  -1.0055   1.2622  -0.7950   0.00    0.0
2024/04/10 11:11:30.000   45.409525827   11.893987735    62.7103   5  23   1.9485   1.7465   4.0561  -1.0057   1.2624  -0.7954   0.00    0.0
2024/04/10 11:11:31.000   45.409524123   11.893989401    63.0348   5  23   1.9485   1.7466   4.0561  -1.0059   1.2627  -0.7957   0.00    0.0
2024/04/10 11:11:32.000   45.409524226   11.893989894    62.8694   5  23   1.9486   1.7468   4.0560  -1.0061   1.2629  -0.7960   0.00    0.0
2024/04/10 11:11:33.000   45.409525187   11.893989450    62.9647   5  23   1.9486   1.7469   4.0560  -1.0063   1.2632  -0.7964   0.00    0.0
2024/04/10 11:11:34.000   45.409525958   11.893987454    62.7693   5  23   1.9487   1.7471   4.0559  -1.0065   1.2634  -0.7967   0.00    0.0
2024/04/10 11:11:35.000   45.409525774   11.893987040    62.7478   5  23   1.9487   1.7472   4.0559  -1.0067   1.2637  -0.7970   0.00    0.0
2024/04/10 11:11:36.000   45.409526002   11.893986974    62.7975   5  23   1.9488   1.7473   4.0559  -1.0069   1.2639  -0.7973   0.00    0.0
2024/04/10 11:11:37.000   45.409526393   11.893986101    62.6573   5  23   1.9488   1.7475   4.0558  -1.0071   1.2642  -0.7977   0.00    0.0
2024/04/10 11:11:38.000   45.409526272   11.893986076    62.5619   5  23   1.9488   1.7476   4.0558  -1.0073   1.2644  -0.7980   0.00    0.0
2024/04/10 11:11:39.000   45.409526832   11.893984831    62.5963   5  23   1.9489   1.7477   4.0558  -1.0075   1.2647  -0.7983   0.00    0.0
2024/04/10 11:11:40.000   45.409526320   11.893984265    62.7152   5  23   1.9489   1.7479   4.0557  -1.0077   1.2649  -0.7986   0.00    0.0
2024/04/10 11:11:41.000   45.409527642   11.893985070    62.6856   5  23   1.9490   1.7480   4.0557  -1.0079   1.2652  -0.7990   0.00    0.0
2024/04/10 11:11:42.000   45.409528345   11.893986260    62.6486   5  23   1.9490   1.7482   4.0556  -1.0081   1.2654  -0.7993   0.00    0.0
2024/04/10 11:11:43.000   45.409528032   11.893987148    62.6852   5  23   1.9491   1.7483   4.0556  -1.0083   1.2657  -0.7996   0.00    0.0
2024/04/10 11:11:44.000   45.409528021   11.893986392    62.7191   5  23   1.9491   1.7484   4.0556  -1.0085   1.2659  -0.8000   0.00    0.0
2024/04/10 11:11:45.000   45.409529546   11.893986882    62.6608   5  23   1.9492   1.7486   4.0555  -1.0087   1.2662  -0.8003   0.00    0.0
2024/04/10 11:11:46.000   45.409529076   11.893986739    62.6984   5  23   1.9492   1.7487   4.0555  -1.0088   1.2664  -0.8006   0.00    0.0
2024/04/10 11:11:47.000   45.409529689   11.893985966    62.5830   5  23   1.9493   1.7488   4.0554  -1.0090   1.2667  -0.8009   0.00    0.0
2024/04/10 11:11:48.000   45.409530168   11.893986486    62.6831   5  23   1.9493   1.7490   4.0554  -1.0092   1.2670  -0.8013   0.00    0.0
2024/04/10 11:11:49.000   45.409530390   11.893984621    62.5082   5  23   1.9494   1.7491   4.0554  -1.0094   1.2672  -0.8016   0.00    0.0
2024/04/10 11:11:50.000   45.409530380   11.893985118    62.6054   5  23   1.9494   1.7493   4.0553  -1.0096   1.2675  -0.8019   0.00    0.0
2024/04/10 11:11:51.000   45.409530482   11.893984697    62.4703   5  23   1.9495   1.7494   4.0553  -1.0098   1.2677  -0.8022   0.00    0.0
2024/04/10 11:11:52.000   45.409530654   11.893986067    62.6418   5  23   1.9495   1.7495   4.0552  -1.0100   1.2680  -0.8026   0.00    0.0
2024/04/10 11:11:53.000   45.409530830   11.893985765    62.7925   5  23   1.9496   1.7497   4.0552  -1.0102   1.2682  -0.8029   0.00    0.0
2024/04/10 11:11:54.000   45.409532405   11.893984643    62.7571   5  23   1.9496   1.7498   4.0552  -1.0104   1.2685  -0.8032   0.00    0.0
2024/04/10 11:11:55.000   45.409531516   11.893984579    62.5857   5  23   1.9497   1.7499   4.0551  -1.0106   1.2687  -0.8036   0.00    0.0
2024/04/10 11:11:56.000   45.409531726   11.893983996    62.5203   5  23   1.9497   1.7501   4.0551  -1.0108   1.2690  -0.8039   0.00    0.0
2024/04/10 11:11:57.000   45.409531458   11.893983789    62.4238   5  23   1.9498   1.7502   4.0550  -1.0110   1.2692  -0.8042   0.00    0.0
2024/04/10 11:11:58.000   45.409531440   11.893983398    62.3073   5  23   1.9498   1.7504   4.0550  -1.0112   1.2695  -0.8045   0.00    0.0
2024/04/10 11:11:59.000   45.409531798   11.893981693    62.3288   5  23   1.9499   1.7505   4.0550  -1.0114   1.2697  -0.8049   0.00    0.0
2024/04/10 11:12:00.000   45.409532707   11.893981352    62.3417   5  23   1.9499   1.7506   4.0549  -1.0116   1.2700  -0.8052   0.00    0.0
2024/04/10 11:12:01.000   45.409532306   11.893981542    62.3015   5  23   1.9500   1.7508   4.0549  -1.0118   1.2702  -0.8055   0.00    0.0
2024/04/10 11:12:02.000   45.409531950   11.893980391    62.1752   5  23   1.9500   1.7509   4.0548  -1.0120   1.2705  -0.8058   0.00    0.0
2024/04/10 11:12:03.000   45.409533761   11.893978547    61.9962   5  23   1.9501   1.7511   4.0548  -1.0122   1.2707  -0.8062   0.00    0.0
2024/04/10 11:12:04.000   45.409533099   11.893980008    62.1549   5  23   1.9501   1.7512   4.0547  -1.0124   1.2710  -0.8065   0.00    0.0
2024/04/10 11:12:05.000   45.409531828   11.893979196    62.2658   5  23   1.9502   1.7513   4.0547  -1.0126   1.2712  -0.8068   0.00    0.0
2024/04/10 11:12:06.000   45.409531933   11.893979439    62.2104   5  23   1.9502   1.7515   4.0547  -1.0127   1.2715  -0.8071   0.00    0.0
2024/04/10 11:12:07.000   45.409530287   11.893980341    62.5010   5  23   1.9503   1.7516   4.0546  -1.0129   1.2717  -0.8075   0.00    0.0
2024/04/10 11:12:08.000   45.409530301   11.893980433    62.6114   5  23   1.9503   1.7518   4.0546  -1.0131   1.2720  -0.8078   0.00    0.0
2024/04/10 11:12:09.000   45.409531778   11.893979740    62.5063   5  23   1.9504   1.7519   4.0545  -1.0133   1.2722  -0.8081   0.00    0.0
2024/04/10 11:12:10.000   45.409530837   11.893980526    62.7916   5  23   1.9504   1.7520   4.0545  -1.0135   1.2725  -0.8085   0.00    0.0
2024/04/10 11:12:11.000   45.409531003   11.893979278    62.6245   5  23   1.9505   1.7522   4.0544  -1.0137   1.2727  -0.8088   0.00    0.0
2024/04/10 11:12:12.000   45.409531460   11.893979746    62.8318   5  23   1.9505   1.7523   4.0544  -1.0139   1.2730  -0.8091   0.00    0.0
2024/04/10 11:12:13.000   45.409531576   11.893980878    62.8434   5  23   1.9506   1.7524   4.0544  -1.0141   1.2732  -0.8094   0.00    0.0
2024/04/10 11:12:14.000   45.409531624   11.893982119    62.9531   5  23   1.9506   1.7526   4.0543  -1.0143   1.2735  -0.8098   0.00    0.0
2024/04/10 11:12:15.000   45.409531121   11.893983396    62.7207   5  23   1.9507   1.7527   4.0543  -1.0145   1.2737  -0.8101   0.00    0.0
2024/04/10 11:12:16.000   45.409530730   11.893984923    62.7399   5  23   1.9507   1.7529   4.0542  -1.0147   1.2740  -0.8104   0.00    0.0
2024/04/10 11:12:17.000   45.409531564   11.893984349    62.7553   5  23   1.9508   1.7530   4.0542  -1.0149   1.2742  -0.8107   0.00    0.0
2024/04/10 11:12:18.000   45.409531488   11.893984153    62.9578   5  23   1.9508   1.7531   4.0541  -1.0151   1.2745  -0.8111   0.00    0.0
2024/04/10 11:12:19.000   45.409532389   11.893983302    62.7495   5  23   1.9509   1.7533   4.0541  -1.0153   1.2747  -0.8114   0.00    0.0
2024/04/10 11:12:20.000   45.409531090   11.893984341    62.9313   5  23   1.9509   1.7534   4.0540  -1.0155   1.2750  -0.8117   0.00    0.0
2024/04/10 11:12:21.000   45.409530772   11.893985053    62.8932   5  23   1.9510   1.7536   4.0540  -1.0157   1.2752  -0.8120   0.00    0.0
2024/04/10 11:12:22.000   45.409532399   11.893984050    62.7142   5  23   1.9510   1.7537   4.0540  -1.0159   1.2755  -0.8124   0.00    0.0
2024/04/10 11:12:23.000   45.409534156   11.893984495    62.6281   5  23   1.9511   1.7538   4.0539  -1.0161   1.2757  -0.8127   0.00    0.0
2024/04/10 11:12:24.000   45.409535716   11.893983312    62.6893   5  23   1.9511   1.7540   4.0539  -1.0163   1.2760  -0.8130   0.00    0.0
2024/04/10 11:12:25.000   45.409536568   11.893983685    62.6145   5  23   1.9512   1.7541   4.0538  -1.0165   1.2762  -0.8134   0.00    0.0
2024/04/10 11:12:26.000   45.409536375   11.893980840    62.5585   5  23   1.9512   1.7543   4.0538  -1.0166   1.2765  -0.8137   0.00    0.0
2024/04/10 11:12:27.000   45.409535762   11.893978888    62.4177   5  23   1.9513   1.7544   4.0537  -1.0168   1.2767  -0.8140   0.00    0.0
2024/04/10 11:12:28.000   45.409535999   11.893978091    62.0914   5  23   1.9513   1.7545   4.0537  -1.0170   1.2770  -0.8143   0.00    0.0
2024/04/10 11:12:29.000   45.409534447   11.893980121    62.0699   5  23   1.9514   1.7547   4.0536  -1.0172   1.2772  -0.8147   0.00    0.0
2024/04/10 11:12:30.000   45.409535895   11.893980142    61.5815   5  23   1.9514   1.7548   4.0536  -1.0174   1.2775  -0.8150   0.00    0.0
2024/04/10 11:12:31.000   45.409536828   11.893979787    61.6877   5  23   1.9515   1.7550   4.0536  -1.0176   1.2777  -0.8153   0.00    0.0
2024/04/10 11:12:32.000   45.409536498   11.893980179    61.7110   5  23   1.9515   1.7551   4.0535  -1.0178   1.2780  -0.8156   0.00    0.0
2024/04/10 11:12:33.000   45.409536029   11.893979303    61.5896   5  23   1.9516   1.7552   4.0535  -1.0180   1.2782  -0.8160   0.00    0.0
2024/04/10 11:12:34.000   45.409535054   11.893979140    61.4573   5  23   1.9516   1.7554   4.0534  -1.0182   1.2785  -0.8163   0.00    0.0
2024/04/10 11:12:35.000   45.409534449   11.893981323    61.5869   5  23   1.9517   1.7555   4.0534  -1.0184   1.2787  -0.8166   0.00    0.0
2024/04/10 11:12:36.000   45.409534381   11.893981592    61.4996   5  23   1.9517   1.7557   4.0533  -1.0186   1.2789  -0.8169   0.00    0.0
2024/04/10 11:12:37.000   45.409532871   11.893984104    61.5950   5  23   1.9518   1.7558   4.0533  -1.0188   1.2792  -0.8173   0.00    0.0
2024/04/10 11:12:38.000   45.409532270   11.893984532    61.6675   5  23   1.9518   1.7559   4.0532  -1.0190   1.2794  -0.8176   0.00    0.0
2024/04/10 11:12:39.000   45.409531678   11.893984424    61.8289   5  23   1.9519   1.7561   4.0532  -1.0192   1.2797  -0.8179   0.00    0.0
2024/04/10 11:12:40.000   45.409530715   11.893986800    62.0120   5  23   1.9519   1.7562   4.0531  -1.0194   1.2799  -0.8182   0.00    0.0
2024/04/10 11:12:41.000   45.409530254   11.893987726    62.3294   5  23   1.9520   1.7564   4.0531  -1.0196   1.2802  -0.8186   0.00    0.0
2024/04/10 11:12:42.000   45.409530299   11.893988278    62.6287   5  23   1.9520   1.7565   4.0530  -1.0198   1.2804  -0.8189   0.00    0.0
2024/04/10 11:12:43.000   45.409530557   11.893988087    63.1754   5  23   1.9521   1.7566   4.0530  -1.0200   1.2807  -0.8192   0.00    0.0
2024/04/10 11:12:44.000   45.409530386   11.893989310    63.2819   5  23   1.9521   1.7568   4.0529  -1.0202   1.2809  -0.8196   0.00    0.0
2024/04/10 11:12:45.000   45.409530129   11.893988237    63.3742   5  23   1.9522   1.7569   4.0529  -1.0204   1.2812  -0.8199   0.00    0.0
2024/04/10 11:12:46.000   45.409530215   11.893989511    63.4608   5  23   1.9522   1.7571   4.0528  -1.0205   1.2814  -0.8202   0.00    0.0
2024/04/10 11:12:47.000   45.409530329   11.893989036    63.3559   5  23   1.9523   1.7572   4.0528  -1.0207   1.2817  -0.8205   0.00    0.0
2024/04/10 11:12:48.000   45.409531428   11.893987359    63.3924   5  23   1.9523   1.7573   4.0528  -1.0209   1.2819  -0.8209   0.00    0.0
2024/04/10 11:12:49.000   45.409530630   11.893987501    63.1570   5  23   1.9524   1.7575   4.0527  -1.0211   1.2822  -0.8212   0.00    0.0
2024/04/10 11:12:50.000   45.409529745   11.893988405    63.5269   5  23   1.9524   1.7576   4.0527  -1.0213   1.2824  -0.8215   0.00    0.0
2024/04/10 11:12:51.000   45.409530880   11.893988021    63.6305   5  23   1.9525   1.7578   4.0526  -1.0215   1.2827  -0.8218   0.00    0.0
2024/04/10 11:12:52.000   45.409530623   11.893988387    63.4077   5  23   1.9525   1.7579   4.0526  -1.0217   1.2829  -0.8222   0.00    0.0
2024/04/10 11:12:53.000   45.409530937   11.893988971    63.7009   5  23   1.9526   1.7580   4.0525  -1.0219   1.2832  -0.8225   0.00    0.0
2024/04/10 11:12:54.000   45.409530644   11.893990716    63.7757   5  23   1.9526   1.7582   4.0525  -1.0221   1.2834  -0.8228   0.00    0.0
2024/04/10 11:12:55.000   45.409530517   11.893990426    63.7455   5  23   1.9527   1.7583   4.0524  -1.0223   1.2837  -0.8231   0.00    0.0
2024/04/10 11:12:56.000   45.409531625   11.893989320    63.6211   5  23   1.9527   1.7585   4.0524  -1.0225   1.2839  -0.8235   0.00    0.0
2024/04/10 11:12:57.000   45.409530633   11.893989062    63.7956   5  23   1.9528   1.7586   4.0523  -1.0227   1.2842  -0.8238   0.00    0.0
2024/04/10 11:12:58.000   45.409529768   11.893989434    63.8479   5  23   1.9528   1.7587   4.0523  -1.0229   1.2844  -0.8241   0.00    0.0
2024/04/10 11:12:59.000   45.409530028   11.893989094    63.8034   5  23   1.9529   1.7589   4.0522  -1.0231   1.2847  -0.8244   0.00    0.0
2024/04/10 11:13:00.000   45.409530936   11.893987920    63.6533   5  23   1.9529   1.7590   4.0522  -1.0233   1.2849  -0.8248   0.00    0.0
2024/04/10 11:13:01.000   45.409529898   11.893986758    63.9231   5  23   1.9530   1.7592   4.0521  -1.0235   1.2851  -0.8251   0.00    0.0
2024/04/10 11:13:02.000   45.409530097   11.893987131    63.9194   5  23   1.9530   1.7593   4.0521  -1.0237   1.2854  -0.8254   0.00    0.0
2024/04/10 11:13:03.000   45.409529847   11.893988385    64.2143   5  23   1.9531   1.7595   4.0520  -1.0239   1.2856  -0.8257   0.00    0.0
2024/04/10 11:13:04.000   45.409529105   11.893988240    64.2827   5  23   1.9531   1.7596   4.0520  -1.0241   1.2859  -0.8261   0.00    0.0
2024/04/10 11:13:05.000   45.409529393   11.893987808    64.0997   5  23   1.9532   1.7597   4.0519  -1.0243   1.2861  -0.8264   0.00    0.0
2024/04/10 11:13:06.000   45.409529518   11.893986092    64.0242   5  23   1.9532   1.7599   4.0519  -1.0244   1.2864  -0.8267   0.00    0.0
2024/04/10 11:13:07.000   45.409530370   11.893985722    64.0289   5  23   1.9533   1.7600   4.0518  -1.0246   1.2866  -0.8270   0.00    0.0
2024/04/10 11:13:08.000   45.409531158   11.893983141    63.7323   5  23   1.9533   1.7602   4.0518  -1.0248   1.2869  -0.8274   0.00    0.0
2024/04/10 11:13:09.000   45.409531061   11.893982353    63.7646   5  23   1.9534   1.7603   4.0517  -1.0250   1.2871  -0.8277   0.00    0.0
2024/04/10 11:13:10.000   45.409532520   11.893979893    63.4866   5  23   1.9534   1.7604   4.0517  -1.0252   1.2874  -0.8280   0.00    0.0
2024/04/10 11:13:11.000   45.409532994   11.893980323    63.5259   5  23   1.9535   1.7606   4.0516  -1.0254   1.2876  -0.8283   0.00    0.0
2024/04/10 11:13:12.000   45.409533829   11.893980677    63.6652   5  23   1.9535   1.7607   4.0516  -1.0256   1.2879  -0.8287   0.00    0.0
2024/04/10 11:13:13.000   45.409532409   11.893983622    63.9856   5  23   1.9536   1.7609   4.0515  -1.0258   1.2881  -0.8290   0.00    0.0
2024/04/10 11:13:14.000   45.409533130   11.893983074    63.8363   5  23   1.9536   1.7610   4.0515  -1.0260   1.2884  -0.8293   0.00    0.0
2024/04/10 11:13:15.000   45.409532378   11.893981972    63.5906   5  23   1.9537   1.7611   4.0514  -1.0262   1.2886  -0.8296   0.00    0.0
2024/04/10 11:13:16.000   45.409533619   11.893983250    63.4152   5  23   1.9537   1.7613   4.0514  -1.0264   1.2889  -0.8300   0.00    0.0
2024/04/10 11:13:17.000   45.409532468   11.893982404    63.5585   5  23   1.9538   1.7614   4.0513  -1.0266   1.2891  -0.8303   0.00    0.0
2024/04/10 11:13:18.000   45.409532920   11.893982596    63.4960   5  23   1.9538   1.7616   4.0512  -1.0268   1.2894  -0.8306   0.00    0.0
2024/04/10 11:13:19.000   45.409532555   11.893982131    63.4894   5  23   1.9539   1.7617   4.0512  -1.0270   1.2896  -0.8309   0.00    0.0
2024/04/10 11:13:20.000   45.409531398   11.893983737    63.4583   5  23   1.9539   1.7619   4.0511  -1.0272   1.2898  -0.8313   0.00    0.0
2024/04/10 11:13:21.000   45.409530696   11.893984622    63.2409   5  23   1.9540   1.7620   4.0511  -1.0274   1.2901  -0.8316   0.00    0.0
2024/04/10 11:13:22.000   45.409529645   11.893985731    63.1303   5  23   1.9540   1.7621   4.0510  -1.0276   1.2903  -0.8319   0.00    0.0
2024/04/10 11:13:23.000   45.409530590   11.893986961    63.1627   5  23   1.9541   1.7623   4.0510  -1.0278   1.2906  -0.8322   0.00    0.0
2024/04/10 11:13:24.000   45.409530785   11.893986854    62.7027   5  23   1.9541   1.7624   4.0509  -1.0280   1.2908  -0.8326   0.00    0.0
2024/04/10 11:13:25.000   45.409530599   11.893987728    62.6075   5  23   1.9542   1.7626   4.0509  -1.0282   1.2911  -0.8329   0.00    0.0
2024/04/10 11:13:26.000   45.409529916   11.893987575    62.6334   5  23   1.9542   1.7627   4.0508  -1.0284   1.2913  -0.8332   0.00    0.0
2024/04/10 11:13:27.000   45.409529865   11.893988664    62.6155   5  23   1.9543   1.7628   4.0508  -1.0285   1.2916  -0.8335   0.00    0.0
2024/04/10 11:13:28.000   45.409528361   11.893988523    62.7798   5  23   1.9543   1.7630   4.0507  -1.0287   1.2918  -0.8339   0.00    0.0
2024/04/10 11:13:29.000   45.409527531   11.893988936    63.0561   5  23   1.9544   1.7631   4.0507  -1.0289   1.2921  -0.8342   0.00    0.0
2024/04/10 11:13:30.000   45.409528644   11.893988189    62.9086   5  23   1.9544   1.7633   4.0506  -1.0291   1.2923  -0.8345   0.00    0.0
2024/04/10 11:13:31.000   45.409528415   11.893987927    63.0414   5  23   1.9545   1.7634   4.0506  -1.0293   1.2926  -0.8348   0.00    0.0
2024/04/10 11:13:32.000   45.409527361   11.893988080    63.1504   5  23   1.9545   1.7636   4.0505  -1.0295   1.2928  -0.8352   0.00    0.0
2024/04/10 11:13:33.000   45.409526740   11.893987990    62.9963   5  23   1.9546   1.7637   4.0505  -1.0297   1.2930  -0.8355   0.00    0.0
2024/04/10 11:13:34.000   45.409527808   11.893989174    62.7636   5  23   1.9546   1.7638   4.0504  -1.0299   1.2933  -0.8358   0.00    0.0
2024/04/10 11:13:35.000   45.409527490   11.893989940    62.9025   5  23   1.9547   1.7640   4.0503  -1.0301   1.2935  -0.8361   0.00    0.0
2024/04/10 11:13:36.000   45.409528081   11.893989164    62.6893   5  23   1.9547   1.7641   4.0503  -1.0303   1.2938  -0.8365   0.00    0.0
2024/04/10 11:13:37.000   45.409527365   11.893987706    62.5514   5  23   1.9548   1.7643   4.0502  -1.0305   1.2940  -0.8368   0.00    0.0
2024/04/10 11:13:38.000   45.409527298   11.893989156    62.2949   5  23   1.9548   1.7644   4.0502  -1.0307   1.2943  -0.8371   0.00    0.0
2024/04/10 11:13:39.000   45.409527223   11.893988848    62.2022   5  23   1.9549   1.7645   4.0501  -1.0309   1.2945  -0.8374   0.00    0.0
2024/04/10 11:13:40.000   45.409527594   11.893987782    61.9253   5  23   1.9549   1.7647   4.0501  -1.0311   1.2948  -0.8378   0.00    0.0
2024/04/10 11:13:41.000   45.409527743   11.893987580    61.9791   5  23   1.9550   1.7648   4.0500  -1.0313   1.2950  -0.8381   0.00    0.0
2024/04/10 11:13:42.000   45.409527215   11.893986457    61.8518   5  23   1.9550   1.7650   4.0500  -1.0315   1.2953  -0.8384   0.00    0.0
2024/04/10 11:13:43.000   45.409527553   11.893985129    61.6302   5  23   1.9551   1.7651   4.0499  -1.0317   1.2955  -0.8387   0.00    0.0
2024/04/10 11:13:44.000   45.409528081   11.893986192    61.5138   5  23   1.9551   1.7653   4.0498  -1.0319   1.2957  -0.8391   0.00    0.0
2024/04/10 11:13:45.000   45.409527994   11.893986339    61.5985   5  23   1.9552   1.7654   4.0498  -1.0321   1.2960  -0.8394   0.00    0.0
2024/04/10 11:13:46.000   45.409527259   11.893987506    61.6002   5  23   1.9552   1.7655   4.0497  -1.0323   1.2962  -0.8397   0.00    0.0
2024/04/10 11:13:47.000   45.409527242   11.893986868    61.4149   5  23   1.9553   1.7657   4.0497  -1.0324   1.2965  -0.8400   0.00    0.0
