     3.04           OBSERVATION DATA    M: Mixed            RINEX VERSION / TYPE
sbp2rinex v2.3 (RTKL                    20240410 141446 UTC PGM / RUN BY / DATE 
format: Swift Navigation SBP-JSON, option:                  COMMENT             
log: .\swift-gnss-20240410-130631.sbp.json                  COMMENT             
                                                            MARKER NAME         
                                                            MARKER NUMBER       
                                                            MARKER TYPE         
                                                            OBSERVER / AGENCY   
                                                            REC # / TYPE / VERS 
                                                            ANT # / TYPE        
  4389046.7386   924430.7501  4519472.8860                  APPROX POSITION XYZ 
        0.0000        0.0000        0.0000                  ANTENNA: DELTA H/E/N
G    8 C1C L1C D1C S1C C2S L2S D2S S2S                      SYS / # / OBS TYPES 
R    8 C1C L1C D1C S1C C2C L2C D2C S2C                      SYS / # / OBS TYPES 
E    8 C1B L1B D1B S1B C7I L7I D7I S7I                      SYS / # / OBS TYPES 
C    8 C2I L2I D2I S2I C7I L7I D7I S7I                      SYS / # / OBS TYPES 
  2024    04    10    11    06   49.0000000     GPS         TIME OF FIRST OBS   
  2024    04    10    11    18   08.0000000     GPS         TIME OF LAST OBS    
G L1C                                                       SYS / PHASE SHIFT   
G L2S  0.00000                                              SYS / PHASE SHIFT   
R L1C                                                       SYS / PHASE SHIFT   
R L2C                                                       SYS / PHASE SHIFT   
E L1B                                                       SYS / PHASE SHIFT   
E L7I                                                       SYS / PHASE SHIFT   
C L2I                                                       SYS / PHASE SHIFT   
C L7I                                                       SYS / PHASE SHIFT   
  6 R12 -1 R13 -2 R21  4 R22 -3 R23  3 R25 -5               GLONASS SLOT / FRQ #
 C1C    0.000 C1P    0.000 C2C    0.000 C2P    0.000        GLONASS COD/PHS/BIS 
                                                            END OF HEADER       
> 2024 04 10 11 06 49.0000000  0 25       0.000000000000
G05  23273815.220   122304738.6521        445.336          44.750    23273823.820    95302421.6331        347.359          42.750  
G18  21054581.140   110642571.3241       1791.402          51.250    21054584.400    86215006.7891       1396.777          52.500  
G20  24425178.840   128355178.000       -1698.633          40.500                                                                  
G25  23132497.060   121562092.6991      -3373.906          45.500    23132506.060    94723751.3091      -2628.340          44.000  
G28  22352252.620   117461901.2341      -2833.867          46.500    22352258.160    91528772.2031      -2209.180          49.000  
G29  21206188.160   111439293.2661      -1799.785          50.750    21206191.820    86835812.0821      -1403.625          48.000  
G26  21008620.320   110401052.2111       1840.211          50.500    21008626.380    86026819.0861       1432.156          47.000  
G31  21704352.380   114057154.6911      -1283.844          50.250    21704355.120    88875719.8671      -1002.160          46.750  
G16  23537143.120   123688519.0981       3310.934          42.250                                                                  
R22  19639079.640   104834773.0781      -1933.941          57.750    19639084.800    81538165.8441      -1504.316          54.000  
R23  19929302.420   106608361.1211       1991.344          51.500                                                                  
R12  19672527.380   105087145.3481      -2052.039          55.750                                                                  
R21  23412512.740   125285116.277       -4046.754          44.500    23412525.820    97443985.973       -3147.918          41.500  
R13  19641104.200   104882458.9691       1693.895          43.750    19641112.540    81575232.3011       1317.484          44.750  
C28  21557499.960   112255553.7811        519.984          53.000                                                                  
C27  24066469.960   125320409.3951       2634.246          47.750                                                                  
C37  22214179.600   115675065.8911       -634.914          52.000                                                                  
C23  24412075.740   127120094.8591      -3143.316          48.750                                                                  
C08  38326081.320   199573956.3831         85.371          45.000    38326085.380   154323246.9061         66.660          46.500  
C13  37953392.260   197633270.7851        512.406          47.250    37953401.860   152822611.9451        396.684          46.250  
E15  26025074.280   136762693.3361      -2425.211          45.250    26025083.760   104792210.7301      -1859.906          47.000  
E13  23474517.340   123359421.3791        182.727          51.500    23474522.960    94522169.5351        140.742          52.250  
E21  23416771.080   123055973.1561       -196.816          51.000    23416776.560    94289640.4341       -149.605          52.250  
E26  25329157.480   133105632.4491       2707.191          48.500    25329164.140   101990039.1721       2076.199          50.750  
E27  25945336.900   136343676.4531      -2374.688          46.000    25945346.220   104471146.0591      -1817.832          47.500  
> 2024 04 10 11 06 50.0000000  0 25       0.000000000000
G05  23273724.900   122304262.277         446.391          45.250    23273733.000    95302050.441         348.516          42.250  
G18  21054234.340   110640749.070        1792.273          51.500    21054237.560    86213586.859        1396.152          52.250  
G20  24425496.160   128356844.996       -1696.543          41.000                                                                  
G25  23133133.260   121565437.051       -3373.727          46.000    23133142.460    94726357.281       -2628.547          43.500  
G28  22352786.340   117464705.523       -2833.605          46.750    22352791.680    91530957.359       -2208.609          48.750  
G29  21206524.820   111441062.328       -1798.844          51.000    21206528.700    86837190.586       -1402.383          47.750  
G26  21008264.440   110399181.949        1840.027          51.000    21008270.500    86025361.766        1434.563          46.750  
G31  21704591.220   114058409.539       -1284.816          50.250    21704594.000    88876697.672       -1002.941          46.750  
G16  23536507.080   123685176.633        3313.945          42.500                                                                  
R22  19639436.120   104836676.191       -1933.887          57.500    19639441.440    81539646.043       -1503.719          54.000  
R23  19928924.260   106606339.574        1991.043          51.250                                                                  
R12  19672906.080   105089167.262       -2052.145          55.750                                                                  
R21  23413262.920   125289131.770       -4045.422          44.750    23413276.340    97447109.102       -3147.477          41.250  
R13  19640781.520   104880734.887        1692.824          43.750    19640790.120    81573891.309        1317.375          44.500  
C28  21557394.400   112255003.820         520.426          52.750                                                                  
C27  24065958.580   125317746.391        2633.637          47.750                                                                  
C37  22214295.600   115675670.535        -634.223          51.750                                                                  
C23  24412673.440   127123207.445       -3142.219          48.750                                                                  
C08  38326058.840   199573839.293          88.668          44.250    38326063.020   154323156.375          68.129          46.750  
C13  37953288.100   197632727.813         514.250          47.250    37953297.540   152822192.078         397.113          46.500  
E15  26025530.240   136765089.465       -2425.367          45.000    26025539.580   104794046.730       -1859.879          47.000  
E13  23474476.740   123359207.926         183.652          51.250    23474482.380    94522005.973         140.543          52.250  
E21  23416802.660   123056139.121        -196.008          50.750    23416808.120    94289767.598        -149.992          52.000  
E26  25328636.500   133102894.695        2707.730          48.250    25328643.140   101987941.406        2075.402          50.500  
E27  25945783.260   136346021.289       -2373.766          45.750    25945792.500   104472942.738       -1819.082          47.500  
> 2024 04 10 11 06 51.0000000  0 25       0.000000000000
G05  23273634.960   122303787.836         446.820          45.750    23273643.060    95301680.750         347.461          42.250  
G18  21053887.920   110638928.668        1793.316          51.750    21053891.160    86212168.363        1396.195          52.250  
G20  24425813.360   128358513.785       -1697.102          40.750                                                                  
G25  23133769.800   121568782.926       -3374.852          45.500    23133779.260    94728964.430       -2629.113          44.000  
G28  22353320.380   117467511.488       -2834.273          47.000    22353325.800    91533143.805       -2208.746          48.750  
G29  21206861.700   111442832.980       -1799.277          51.250    21206865.740    86838570.297       -1401.824          47.750  
G26  21007908.620   110397313.410        1841.617          50.750    21007914.920    86023905.758        1434.773          46.500  
G31  21704830.320   114059666.301       -1284.855          50.500    21704833.340    88877676.961       -1000.918          46.500  
G16  23535871.380   123681835.633        3312.375          41.750                                                                  
R22  19639792.880   104838581.191       -1933.371          57.500    19639798.340    81541127.707       -1503.691          54.000  
R23  19928546.600   106604320.004        1991.160          51.250                                                                  
R12  19673285.020   105091191.215       -2052.246          56.000                                                                  
R21  23414012.740   125293148.582       -4045.730          44.500    23414027.460    97450233.313       -3146.000          41.000  
R13  19640458.360   104879012.816        1695.184          43.750    19640466.580    81572551.938        1317.090          44.750  
C28  21557288.940   112254455.547         520.543          52.750                                                                  
C27  24065447.840   125315084.902        2633.855          47.750                                                                  
C37  22214412.020   115676276.996        -635.301          51.750                                                                  
C23  24413271.320   127126321.527       -3141.887          48.750                                                                  
C08  38326036.420   199573723.723          85.156          44.250    38326040.700   154323066.992          67.395          46.750  
C13  37953184.080   197632186.313         512.188          47.000    37953193.580   152821773.352         397.047          46.250  
E15  26025986.620   136767487.113       -2424.496          45.000    26025995.740   104795883.891       -1858.535          46.750  
E13  23474436.440   123358996.211         183.727          51.250    23474442.080    94521843.746         141.031          52.250  
E21  23416834.720   123056306.707        -195.520          51.000    23416840.080    94289896.008        -149.070          52.000  
E26  25328115.760   133100158.480        2708.547          48.500    25328122.500   101985844.832        2075.531          50.750  
E27  25946229.760   136348367.609       -2371.891          46.000    25946239.020   104474740.570       -1818.559          47.250  
> 2024 04 10 11 06 52.0000000  0 25       0.000000000000
G05  23273544.900   122303313.684         445.762          46.250    23273552.780    95301311.281         347.566          42.500  
G18  21053541.500   110637108.434        1791.496          52.000    21053544.780    86210749.996        1396.609          52.250  
G20  24426131.020   128360182.766       -1695.414          41.000                                                                  
G25  23134406.580   121572128.590       -3373.352          46.000    23134416.000    94731571.434       -2628.770          44.000  
G28  22353854.460   117470317.449       -2834.906          47.250    22353860.000    91535330.285       -2209.172          48.500  
G29  21207198.560   111444603.539       -1797.172          51.500    21207202.640    86839949.945       -1401.480          47.750  
G26  21007552.880   110395444.891        1841.512          50.750    21007559.260    86022449.770        1434.531          46.750  
G31  21705069.560   114060923.293       -1283.957          50.500    21705072.340    88878656.426        -999.645          46.750  
G16  23535235.560   123678494.352        3313.586          42.250                                                                  
R22  19640149.980   104840486.371       -1933.387          57.500    19640155.020    81542609.500       -1503.691          54.000  
R23  19928169.460   106602300.680        1991.270          51.500                                                                  
R12  19673664.220   105093215.453       -2052.391          56.000                                                                  
R21  23414763.740   125297165.012       -4044.508          44.750    23414778.740    97453357.188       -3144.750          41.250  
R13  19640135.640   104877291.074        1693.367          43.750    19640143.820    81571212.797        1317.336          44.750  
C28  21557183.700   112253907.277         520.949          52.750                                                                  
C27  24064936.840   125312423.238        2634.875          48.250                                                                  
C37  22214528.360   115676883.586        -634.051          51.750                                                                  
C23  24413869.460   127129435.457       -3141.668          48.750                                                                  
C08  38326014.440   199573607.949          88.770          44.500    38326018.680   154322977.473          67.285          46.500  
C13  37953079.840   197631644.617         513.977          47.000    37953089.580   152821354.484         397.645          46.250  
E15  26026442.940   136769884.602       -2425.793          45.500    26026451.820   104797720.930       -1858.008          46.500  
E13  23474396.280   123358784.574         184.559          51.750    23474401.880    94521681.594         141.754          52.250  
E21  23416866.620   123056474.223        -195.648          51.000    23416872.000    94290024.367        -149.598          52.000  
E26  25327595.160   133097422.105        2708.926          48.750    25327601.880   101983748.141        2076.137          50.750  
E27  25946676.480   136350713.730       -2372.652          46.250    25946685.460   104476538.242       -1819.457          47.000  
> 2024 04 10 11 06 53.0000000  0 25       0.000000000000
G05  23273460.260   122302867.906         446.145          46.750    23273467.820    95300963.930         348.992          43.250  
G18  21053200.600   110635316.461        1792.902          52.000    21053203.820    86209353.652        1397.098          52.000  
G20  24426453.440   128361879.934       -1696.324          40.500                                                                  
G25  23135048.500   121575502.152       -3371.961          46.500    23135057.880    94734200.227       -2625.824          43.250  
G28  22354394.000   117473151.539       -2831.664          47.750    22354399.240    91537538.641       -2207.680          48.500  
G29  21207540.700   111446402.059       -1797.152          51.250    21207544.900    86841351.410       -1401.449          47.500  
G26  21007202.700   110393604.504        1841.559          51.000    21007208.960    86021015.707        1433.820          46.500  
G31  21705313.820   114062208.594       -1284.855          50.250    21705316.820    88879657.977        -999.754          46.250  
G16  23534604.880   123675180.918        3314.172          42.750                                                                  
R22  19640512.180   104842420.254       -1933.160          57.750    19640517.040    81544113.637       -1503.703          54.000  
R23  19927797.360   106600310.188        1991.461          52.000                                                                  
R12  19674048.360   105095268.563       -2051.887          56.000                                                                  
R21  23415519.760   125301209.676       -4042.340          45.250    23415534.280    97456503.008       -3145.117          41.000  
R13  19639818.620   104875598.184        1693.391          44.000    19639826.180    81569896.098        1317.254          44.750  
C28  21557083.660   112253386.863         521.160          52.500                                                                  
C27  24064431.180   125309789.273        2634.922          48.500                                                                  
C37  22214650.200   115677518.160        -633.797          51.750                                                                  
C23  24414472.640   127132577.039       -3140.367          48.250                                                                  
C08  38325997.440   199573519.844          88.965          43.750    38326001.820   154322909.367          69.918          46.750  
C13  37952981.140   197631130.574         516.258          47.000    37952990.940   152820957.000         398.723          46.000  
E15  26026904.400   136772310.047       -2423.445          45.250    26026913.520   104799579.406       -1856.195          47.000  
E13  23474361.140   123358601.102         184.531          51.250    23474366.940    94521541.004         141.492          52.250  
E21  23416903.640   123056669.766        -194.457          50.750    23416909.200    94290174.195        -147.707          51.750  
E26  25327079.840   133094713.676        2709.637          48.250    25327086.460   101981672.855        2075.883          50.500  
E27  25947128.320   136353087.727       -2372.676          46.250    25947137.340   104478357.285       -1818.285          46.500  
> 2024 04 10 11 06 54.0000000  0 25       0.000000000000
G05  23273370.320   122302394.066         445.375          45.750    23273377.700    95300594.719         348.656          42.750  
G18  21052854.100   110633496.324        1792.473          52.000    21052857.400    86207935.375        1396.184          52.250  
G20  24426771.020   128363548.965       -1697.242          40.500                                                                  
G25  23135684.920   121578847.262       -3372.871          46.500    23135694.340    94736806.758       -2630.230          43.500  
G28  22354928.280   117475957.320       -2833.648          48.250    22354933.280    91539724.957       -2207.496          48.750  
G29  21207877.480   111448172.195       -1798.152          50.750    21207881.840    86842730.734       -1400.520          48.000  
G26  21006847.280   110391735.848        1839.969          51.000    21006853.040    86019559.613        1433.082          46.500  
G31  21705552.940   114063465.828       -1284.625          50.000    21705555.920    88880637.625       -1001.668          46.250  
G16  23533969.240   123671838.910        3314.023          43.000                                                                  
R22  19640869.300   104844325.559       -1933.375          58.000    19640874.140    81545595.539       -1503.789          54.000  
R23  19927420.240   106598291.105        1990.449          52.000                                                                  
R12  19674427.280   105097293.223       -2053.203          56.250                                                                  
R21  23416270.040   125305225.141       -4044.055          45.000    23416285.420    97459626.145       -3145.523          42.000  
R13  19639496.920   104873876.820        1692.984          44.250    19639504.220    81568557.266        1315.621          44.250  
C28  21556978.040   112252838.410         521.195          52.500                                                                  
C27  24063919.900   125307127.078        2635.289          48.750                                                                  
C37  22214766.760   115678124.816        -634.441          52.000                                                                  
C23  24415070.360   127135690.422       -3139.797          48.250                                                                  
C08  38325974.900   199573403.574          88.992          44.250    38325979.460   154322819.434          67.754          46.250  
C13  37952877.000   197630588.297         514.559          47.250    37952886.740   152820537.660         398.223          46.500  
E15  26027361.040   136774707.016       -2423.832          45.250    26027369.620   104801416.031       -1856.977          46.500  
E13  23474321.060   123358389.383         184.047          51.250    23474326.720    94521378.781         141.309          52.500  
E21  23416935.620   123056836.930        -195.480          50.750    23416941.040    94290302.281        -148.141          51.750  
E26  25326558.840   133091976.797        2708.543          47.750    25326565.680   101979575.770        2076.098          50.500  
E27  25947574.720   136355433.242       -2371.805          46.250    25947583.740   104480154.480       -1819.129          46.750  
> 2024 04 10 11 06 55.0000000  0 25       0.000000000000
G05  23273280.980   122301921.102         447.422          46.500    23273287.680    95300226.172         348.367          43.000  
G18  21052507.980   110631676.961        1792.691          52.250    21052511.160    86206517.691        1397.410          52.250  
G20  24427088.900   128365218.742       -1697.098          40.750                                                                  
G25  23136321.660   121582192.785       -3371.813          46.000    23136331.000    94739413.641       -2628.422          44.500  
G28  22355462.620   117478763.691       -2832.992          48.250    22355467.280    91541911.746       -2207.910          48.750  
G29  21208214.220   111449942.820       -1797.449          51.000    21208218.820    86844110.441       -1399.430          48.250  
G26  21006491.820   110389867.805        1841.996          51.250    21006497.560    86018103.992        1434.199          46.500  
G31  21705792.420   114064723.879       -1285.746          50.000    21705795.420    88881617.926       -1001.438          46.250  
G16  23533333.160   123668497.242        3314.535          42.750                                                                  
R22  19641226.300   104846231.637       -1933.641          58.000    19641231.300    81547078.035       -1502.992          54.000  
R23  19927042.800   106596272.863        1990.648          52.250                                                                  
R12  19674806.480   105099318.836       -2052.371          56.000                                                                  
R21  23417022.220   125309240.824       -4043.566          45.750    23417035.520    97462749.441       -3143.320          42.000  
R13  19639175.140   104872156.379        1694.059          44.500    19639181.740    81567219.133        1317.258          44.250  
C28  21556872.740   112252290.566         522.051          52.500                                                                  
C27  24063408.700   125304465.324        2636.484          49.000                                                                  
C37  22214883.320   115678732.215        -633.797          52.000                                                                  
C23  24415668.540   127138804.230       -3138.523          48.250                                                                  
C08  38325952.840   199573287.680          90.512          44.250    38325956.980   154322729.848          69.066          46.500  
C13  37952772.660   197630046.406         515.902          47.000    37952782.540   152820118.652         399.684          46.500  
E15  26027817.160   136777104.445       -2424.301          45.500    26027825.680   104803253.031       -1857.398          46.250  
E13  23474280.800   123358178.324         184.438          51.250    23474286.580    94521217.074         142.168          52.500  
E21  23416967.460   123057004.617        -194.781          50.750    23416972.900    94290430.781        -149.363          51.750  
E26  25326037.980   133089240.355        2709.770          48.000    25326044.900   101977479.035        2076.504          50.500  
E27  25948021.240   136357779.164       -2372.805          45.750    25948030.160   104481952.008       -1818.633          47.250  
> 2024 04 10 11 06 56.0000000  0 25       0.000000000000
G05  23273190.940   122301448.289         446.137          47.750    23273197.840    95299857.711         347.094          43.500  
G18  21052161.900   110629857.648        1794.199          52.750    21052165.120    86205100.043        1397.137          52.750  
G20  24427406.380   128366888.539       -1696.301          40.250                                                                  
G25  23136958.280   121585537.992       -3370.777          46.500    23136967.620    94742020.313       -2626.566          44.000  
G28  22355996.620   117481569.980       -2831.438          48.250    22356001.020    91544098.461       -2206.219          49.250  
G29  21208551.320   111451713.227       -1795.816          52.000    21208555.680    86845489.984       -1399.328          48.000  
G26  21006136.120   110387999.707        1841.473          51.500    21006141.980    86016648.344        1436.391          47.000  
G31  21706031.860   114065982.043       -1284.902          50.750    21706034.800    88882598.313        -999.285          46.750  
G16  23532697.560   123665155.203        3315.012          43.250                                                                  
R22  19641583.680   104848137.770       -1932.516          58.250    19641588.520    81548560.594       -1503.035          54.000  
R23  19926665.200   106594254.750        1991.469          52.500                                                                  
R12  19675185.900   105101344.676       -2052.063          56.250                                                                  
R21  23417773.380   125313256.027       -4040.816          45.500    23417786.740    97465872.367       -3142.344          42.500  
R13  19638852.580   104870436.117        1693.305          44.500    19638859.760    81565881.145        1317.711          44.750  
C28  21556767.440   112251742.613         522.859          52.750                                                                  
C27  24062897.580   125301803.270        2635.750          48.500                                                                  
C37  22214999.940   115679339.656        -633.887          51.750                                                                  
C23  24416266.460   127141917.762       -3139.023          48.250                                                                  
C08  38325930.240   199573171.543          93.105          44.500    38325934.620   154322640.039          70.492          46.500  
C13  37952668.600   197629504.227         514.676          47.250    37952678.520   152819699.414         400.105          46.750  
E15  26028273.380   136779501.590       -2423.242          45.500    26028281.760   104805089.809       -1858.754          46.250  
E13  23474240.700   123357967.227         185.152          51.250    23474246.320    94521055.324         141.699          52.250  
E21  23416999.500   123057172.133        -192.961          50.750    23417004.720    94290559.137        -148.266          52.000  
E26  25325517.440   133086503.664        2710.340          48.500    25325524.080   101975382.086        2077.297          50.500  
E27  25948467.620   136360124.746       -2371.352          46.000    25948476.400   104483749.289       -1817.102          47.000  
> 2024 04 10 11 06 57.0000000  0 25       0.000000000000
G05  23273101.180   122300976.152         447.180          47.500    23273108.400    95299489.828         348.801          43.750  
G18  21051815.780   110628038.938        1794.316          52.500    21051818.960    86203682.871        1397.891          52.500  
G20  24427724.120   128368558.938       -1693.965          40.000                                                                  
G25  23137595.020   121588883.469       -3368.508          46.000    23137604.320    94744627.164       -2626.848          43.750  
G28  22356530.940   117484376.695       -2831.453          48.000    22356535.320    91546285.520       -2205.598          49.250  
G29  21208888.300   111453483.988       -1796.469          51.750    21208892.540    86846869.785       -1400.113          48.000  
G26  21005780.920   110386132.055        1842.176          51.500    21005786.600    86015193.020        1435.309          46.750  
G31  21706271.440   114067240.879       -1283.359          50.250    21706274.380    88883579.211        -999.840          46.500  
G16  23532061.820   123661813.379        3316.688          43.000                                                                  
R22  19641940.960   104850044.543       -1931.898          58.000    19641945.600    81550043.629       -1502.848          54.000  
R23  19926288.300   106592237.324        1992.605          51.750                                                                  
R12  19675565.180   105103371.266       -2051.207          56.000                                                                  
R21  23418523.240   125317271.340       -4040.828          45.250    23418537.340    97468995.402       -3139.813          42.750  
R13  19638531.220   104868716.605        1694.027          44.250    19638537.040    81564543.754        1317.797          44.500  
C28  21556662.360   112251195.105         523.438          53.000                                                                  
C27  24062386.680   125299141.512        2637.227          48.750                                                                  
C37  22215116.620   115679947.660        -632.465          52.500                                                                  
C23  24416864.540   127145031.551       -3139.406          48.750                                                                  
C08  38325908.200   199573055.656          90.383          44.750    38325912.220   154322550.430          69.855          46.500  
C13  37952564.560   197628962.320         517.680          48.000    37952574.220   152819280.375         399.727          46.500  
E15  26028729.720   136781899.016       -2422.355          45.500    26028737.840   104806926.801       -1856.137          46.500  
E13  23474200.900   123357756.637         186.027          51.500    23474206.160    94520893.957         142.457          52.250  
E21  23417031.560   123057340.016        -192.605          51.000    23417036.640    94290687.773        -146.395          52.000  
E26  25324996.600   133083767.258        2711.160          48.500    25325003.380   101973285.371        2077.270          50.500  
E27  25948914.060   136362470.590       -2368.145          45.500    25948922.860   104485546.746       -1817.320          47.750  
> 2024 04 10 11 06 58.0000000  0 25       0.000000000000
G05  23273011.580   122300504.973         448.047          47.250    23273018.840    95299122.680         348.555          43.750  
G18  21051469.840   110626221.059        1792.809          52.250    21051473.040    86202266.348        1398.559          52.000  
G20  24428041.960   128370230.133       -1696.742          39.500                                                                  
G25  23138231.800   121592229.422       -3369.688          46.250    23138241.300    94747234.387       -2625.863          43.500  
G28  22357065.040   117487184.086       -2830.742          48.000    22357069.420    91548473.094       -2205.723          49.000  
G29  21209225.460   111455255.309       -1795.805          51.500    21209229.520    86848250.035       -1399.266          48.000  
G26  21005425.720   110384265.117        1843.328          51.250    21005431.200    86013738.254        1436.957          46.250  
G31  21706511.040   114068500.605       -1282.828          50.000    21706514.080    88884560.820       -1000.289          46.500  
G16  23531426.220   123658471.953        3317.473          43.500                                                                  
R22  19642298.080   104851952.156       -1932.328          58.000    19642302.900    81551527.328       -1502.156          54.250  
R23  19925911.180   106590220.820        1991.629          52.000                                                                  
R12  19675944.660   105105398.844       -2052.277          56.000                                                                  
R21  23419272.220   125321286.953       -4040.230          45.250    23419288.580    97472118.645       -3141.488          42.750  
R13  19638208.980   104866998.105        1695.039          44.000    19638215.960    81563207.148        1315.910          44.750  
C28  21556557.500   112250648.277         523.105          53.250                                                                  
C27  24061875.500   125296480.246        2638.023          49.000                                                                  
C37  22215233.640   115680556.480        -632.910          52.500                                                                  
C23  24417462.540   127148145.836       -3138.090          48.750                                                                  
C08  38325885.920   199572940.309          93.949          44.750    38325890.140   154322461.238          71.777          46.250  
C13  37952460.640   197628420.891         517.895          48.000    37952470.160   152818861.723         399.633          46.000  
E15  26029185.940   136784296.969       -2421.488          45.500    26029194.020   104808764.180       -1856.445          46.250  
E13  23474160.820   123357546.777         186.371          51.500    23474166.180    94520733.152         142.965          52.250  
E21  23417063.520   123057508.504        -191.023          51.000    23417068.720    94290816.867        -147.953          52.000  
E26  25324476.200   133081031.379        2712.008          48.500    25324482.780   101971189.043        2078.332          50.750  
E27  25949360.920   136364816.902       -2371.219          45.750    25949369.440   104487344.566       -1817.859          47.750  
> 2024 04 10 11 06 59.0000000  0 25       0.000000000000
G05  23272922.480   122300035.559         447.277          47.500    23272929.900    95298756.895         349.371          44.000  
G18  21051124.260   110624404.832        1794.570          52.500    21051127.380    86200851.105        1398.320          52.500  
G20  24428360.320   128371902.992       -1695.277          39.750                                                                  
G25  23138868.620   121595576.684       -3367.918          45.500    23138877.920    94749842.641       -2623.910          43.750  
G28  22357599.880   117489993.000       -2830.422          48.250    22357603.960    91550661.836       -2205.148          49.500  
G29  21209562.920   111457028.023       -1795.031          51.750    21209566.880    86849631.379       -1397.242          48.000  
G26  21005070.900   110382399.703        1843.715          51.500    21005075.960    86012284.688        1435.691          46.500  
G31  21706751.260   114069762.055       -1283.543          50.000    21706754.040    88885543.777       -1001.355          46.500  
G16  23530790.300   123655131.750        3319.289          42.750                                                                  
R22  19642655.520   104853861.445       -1932.102          58.000    19642660.480    81553012.336       -1502.910          54.250  
R23  19925534.520   106588206.074        1992.277          52.000                                                                  
R12  19676324.820   105107428.270       -2052.324          56.250                                                                  
R21  23420023.360   125325303.668       -4040.914          45.250    23420039.460    97475242.766       -3141.426          42.500  
R13  19637887.500   104865281.441        1693.488          44.250    19637894.260    81561871.977        1317.457          44.750  
C28  21556452.740   112250102.934         523.668          53.000                                                                  
C27  24061364.840   125293820.313        2638.105          49.000                                                                  
C37  22215350.720   115681166.910        -632.559          52.250                                                                  
C23  24418060.920   127151261.461       -3138.063          49.250                                                                  
C08  38325864.300   199572826.250          91.781          45.250    38325868.080   154322373.043          71.453          46.500  
C13  37952356.800   197627880.766         519.289          47.500    37952366.680   152818444.063         401.074          46.500  
E15  26029642.720   136786696.258       -2421.121          45.750    26029650.720   104810602.590       -1857.254          46.250  
E13  23474121.200   123357338.461         186.836          51.500    23474126.600    94520573.539         142.969          52.250  
E21  23417095.800   123057678.406        -191.418          50.750    23417101.040    94290947.059        -146.297          52.000  
E26  25323955.860   133078296.840        2712.699          48.750    25323962.420   101969093.750        2079.270          50.500  
E27  25949807.700   136367164.500       -2368.941          46.000    25949816.080   104489143.379       -1815.320          47.500  
> 2024 04 10 11 07 00.0000000  0 25       0.000000000000
G05  23272833.140   122299566.621         447.328          47.500    23272840.680    95298391.500         348.629          44.250  
G18  21050778.860   110622588.992        1794.094          52.500    21050781.840    86199436.164        1397.422          52.500  
G20  24428678.400   128373576.176       -1693.957          39.750                                                                  
G25  23139505.780   121598923.996       -3369.941          46.250    23139514.720    94752450.898       -2625.270          43.000  
G28  22358134.500   117492802.113       -2829.688          48.250    22358138.620    91552850.758       -2205.625          49.500  
G29  21209900.480   111458800.852       -1794.605          52.000    21209904.160    86851012.797       -1397.559          48.000  
G26  21004715.880   110380534.535        1843.500          51.750    21004721.300    86010831.324        1436.863          46.500  
G31  21706991.260   114071023.945       -1283.465          50.250    21706994.140    88886527.055       -1000.086          46.750  
G16  23530154.400   123651791.520        3319.445          43.000                                                                  
R22  19643013.420   104855771.133       -1932.230          58.000    19643018.460    81554497.645       -1501.777          54.500  
R23  19925158.320   106586191.816        1991.813          52.250                                                                  
R12  19676705.060   105109458.246       -2052.125          56.250                                                                  
R21  23420773.180   125329320.230       -4038.184          45.250    23420789.040    97478366.730       -3140.957          42.000  
R13  19637566.560   104863565.344        1693.438          44.250    19637572.940    81560537.227        1318.168          45.000  
C28  21556348.080   112249557.816         523.438          52.750                                                                  
C27  24060853.980   125291160.406        2639.016          48.500                                                                  
C37  22215468.000   115681777.688        -632.695          51.750                                                                  
C23  24418659.160   127154377.121       -3138.309          48.500                                                                  
C08  38325842.520   199572712.230          92.965          44.500    38325846.060   154322284.867          71.496          46.250  
C13  37952253.040   197627340.680         517.555          47.250    37952262.880   152818026.430         401.043          46.000  
E15  26030099.600   136789095.602       -2419.797          46.000    26030107.380   104812441.043       -1854.672          46.500  
E13  23474081.560   123357130.445         185.125          51.500    23474087.080    94520414.156         142.637          52.250  
E21  23417128.220   123057848.469        -191.609          51.000    23417133.440    94291077.363        -146.273          51.750  
E26  25323435.560   133075562.371        2712.313          49.000    25323442.040   101966998.516        2078.809          50.500  
E27  25950254.380   136369512.137       -2369.527          46.250    25950262.780   104490942.203       -1816.465          47.250  
> 2024 04 10 11 07 01.0000000  0 25       0.000000000000
G05  23272744.360   122299099.402         446.039          47.500    23272752.040    95298027.441         349.426          44.500  
G18  21050433.680   110620774.762        1793.391          52.500    21050436.680    86198022.480        1397.449          52.250  
G20  24428996.720   128375250.973       -1694.766          39.500                                                                  
G25  23140142.880   121602272.539       -3369.531          45.500    23140152.060    94755060.184       -2626.941          43.500  
G28  22358669.280   117495612.684       -2831.379          48.000    22358673.480    91555040.816       -2206.309          49.500  
G29  21210238.140   111460575.023       -1795.203          51.750    21210241.640    86852395.266       -1398.328          48.000  
G26  21004361.500   110378670.852        1842.383          51.500    21004366.620    86009379.102        1435.934          46.750  
G31  21707231.820   114072287.508       -1283.605          50.000    21707234.560    88887511.652        -999.840          46.750  
G16  23529519.180   123648452.473        3318.930          43.000                                                                  
R22  19643371.480   104857682.477       -1931.930          58.250    19643376.380    81555984.250       -1503.676          54.750  
R23  19924782.000   106584179.277        1991.684          52.500                                                                  
R12  19677085.120   105111490.008       -2053.566          56.500                                                                  
R21  23421525.240   125333337.891       -4039.277          45.750    23421539.680    97481491.570       -3142.227          42.250  
R13  19637244.560   104861851.023        1691.852          44.500    19637252.260    81559203.883        1316.559          45.000  
C28  21556243.800   112249014.152         523.660          52.500                                                                  
C27  24060343.640   125288501.773        2638.719          48.500                                                                  
C37  22215585.680   115682390.055        -632.984          51.500                                                                  
C23  24419257.780   127157494.047       -3137.160          48.250                                                                  
C08  38325820.720   199572599.461          92.027          44.250    38325824.560   154322197.668          71.277          46.000  
C13  37952149.620   197626801.824         519.172          46.750    37952159.360   152817609.746         399.703          45.750  
E15  26030556.500   136791496.234       -2421.109          46.000    26030564.200   104814280.496       -1855.414          46.250  
E13  23474042.140   123356923.945         185.539          51.500    23474047.780    94520255.922         142.301          52.250  
E21  23417160.720   123058019.898        -193.086          50.750    23417166.040    94291208.723        -147.223          51.750  
E26  25322915.420   133072829.207        2712.965          48.750    25322921.900   101964904.273        2078.082          50.500  
E27  25950701.340   136371861.012       -2369.383          46.500    25950709.800   104492741.996       -1815.453          47.250  
> 2024 04 10 11 07 02.0000000  0 25       0.000000000000
G05  23272655.580   122298633.820         444.762          46.500    23272663.700    95297664.664         347.637          44.500  
G18  21050088.780   110618962.066        1793.773          52.250    21050091.700    86196609.988        1396.758          52.500  
G20  24429315.580   128376927.273       -1695.996          39.500                                                                  
G25  23140780.420   121605622.293       -3369.250          45.250    23140789.280    94757670.355       -2625.219          43.500  
G28  22359204.400   117498424.625       -2830.742          48.000    22359208.480    91557231.934       -2206.828          49.500  
G29  21210576.140   111462350.465       -1795.004          51.750    21210579.260    86853778.727       -1398.750          48.000  
G26  21004007.100   110376808.559        1842.855          51.250    21004012.400    86007927.965        1435.359          46.750  
G31  21707472.540   114073552.672       -1284.844          49.750    21707475.300    88888497.488       -1001.320          46.500  
G16  23528883.940   123645114.555        3317.891          43.000                                                                  
R22  19643730.020   104859595.375       -1932.262          58.250    19643734.840    81557472.051       -1503.309          54.500  
R23  19924406.300   106582168.367        1990.531          52.250                                                                  
R12  19677465.860   105113523.508       -2052.801          56.500                                                                  
R21  23422276.720   125337356.609       -4040.305          46.000    23422290.680    97484617.254       -3139.773          42.250  
R13  19636923.800   104860138.406        1694.145          44.250    19636931.440    81557871.844        1315.660          45.000  
C28  21556139.760   112248471.844         523.348          52.500                                                                  
C27  24059833.340   125285844.355        2639.223          48.750                                                                  
C37  22215703.560   115683003.918        -633.273          51.500                                                                  
C23  24419856.620   127160612.180       -3138.871          47.750                                                                  
C08  38325798.880   199572487.891          91.254          44.250    38325802.860   154322111.398          71.723          46.000  
C13  37952046.320   197626264.156         519.297          47.250    37952056.300   152817193.980         401.207          45.750  
E15  26031013.720   136793898.078       -2420.609          46.250    26031021.160   104816120.867       -1854.488          46.000  
E13  23474003.260   123356718.875         185.168          51.500    23474008.720    94520098.793         142.238          52.250  
E21  23417193.720   123058192.641        -191.797          51.000    23417198.940    94291341.078        -146.707          52.000  
E26  25322395.580   133070097.258        2713.098          48.750    25322402.020   101962810.965        2079.316          50.750  
E27  25951148.640   136374211.055       -2369.320          46.500    25951156.940   104494542.664       -1814.949          47.250  
> 2024 04 10 11 07 03.0000000  0 25       0.000000000000
G05  23272567.000   122298170.027         445.707          46.500    23272575.780    95297303.270         346.145          44.750  
G18  21049744.340   110617151.027        1792.480          52.250    21049747.060    86195198.801        1395.641          52.500  
G20  24429634.980   128378605.230       -1697.164          39.000                                                                  
G25  23141418.120   121608973.348       -3371.281          45.000    23141427.020    94760281.574       -2624.969          43.500  
G28  22359739.760   117501238.090       -2831.707          48.000    22359743.800    91559424.238       -2207.227          49.500  
G29  21210914.420   111464127.309       -1794.918          52.000    21210917.260    86855163.277       -1398.012          48.250  
G26  21003653.240   110374947.809        1842.602          51.500    21003658.160    86006478.020        1436.480          46.500  
G31  21707713.620   114074819.566       -1285.391          50.000    21707716.360    88889484.676       -1001.176          46.500  
G16  23528248.600   123641777.879        3318.680          42.750                                                                  
R22  19644088.660   104861509.973       -1933.426          58.250    19644094.100    81558961.184       -1503.750          54.500  
R23  19924030.980   106580159.223        1990.758          52.250                                                                  
R12  19677846.780   105115558.840       -2054.441          56.250                                                                  
R21  23423028.480   125341376.516       -4039.398          46.000    23423040.640    97487743.836       -3140.652          42.000  
R13  19636603.980   104858427.629        1692.344          44.250    19636610.660    81556541.246        1314.340          45.000  
C28  21556036.040   112247931.035         522.090          52.750                                                                  
C27  24059323.180   125283188.246        2637.922          49.000                                                                  
C37  22215821.880   115683619.410        -633.289          51.500                                                                  
C23  24420455.580   127163731.609       -3136.496          47.750                                                                  
C08  38325777.780   199572377.648          93.449          44.250    38325781.720   154322026.156          70.484          46.000  
C13  37951943.380   197625727.805         518.414          47.500    37951953.480   152816779.246         403.242          46.000  
E15  26031471.160   136796301.273       -2422.484          46.000    26031478.480   104817962.277       -1854.707          46.250  
E13  23473964.540   123356515.367         185.230          51.500    23473969.960    94519942.859         141.957          52.500  
E21  23417226.840   123058366.816        -191.930          51.000    23417232.100    94291474.531        -147.629          52.000  
E26  25321875.920   133067366.664        2712.430          48.500    25321882.440   101960718.695        2077.082          50.750  
E27  25951596.080   136376562.391       -2368.316          46.250    25951604.420   104496344.332       -1815.426          47.250  
> 2024 04 10 11 07 04.0000000  0 25       0.000000000000
G05  23272482.540   122297725.570         443.746          47.000    23272491.140    95296956.926         346.121          44.750  
G18  21049403.500   110615359.250        1791.621          52.250    21049406.160    86193802.602        1396.070          52.500  
G20  24429957.660   128380302.398       -1696.457          38.500                                                                  
G25  23142059.200   121612343.324       -3367.137          45.250    23142068.100    94762907.535       -2626.910          43.500  
G28  22360278.580   117504070.641       -2832.988          48.000    22360282.780    91561631.414       -2206.191          49.250  
G29  21211256.100   111465923.148       -1796.719          52.250    21211259.060    86856562.633       -1398.746          48.000  
G26  21003303.000   110373106.188        1841.012          51.750    21003307.900    86005042.992        1435.355          46.500  
G31  21707958.280   114076105.777       -1286.324          49.750    21707961.120    88890486.922       -1003.516          46.500  
G16  23527617.660   123638460.047        3319.605          43.500                                                                  
R22  19644450.880   104863444.133       -1934.113          58.000    19644456.400    81560465.527       -1504.754          54.750  
R23  19923658.720   106578169.750        1989.184          52.000                                                                  
R12  19678231.660   105117613.906       -2055.055          56.000                                                                  
R21  23423783.300   125345415.453       -4038.094          46.000    23423796.420    97490885.207       -3140.879          42.000  
R13  19636287.140   104856736.563        1691.512          43.750    19636293.860    81555225.969        1314.578          45.000  
C28  21555935.920   112247409.168         522.035          52.750                                                                  
C27  24058816.720   125280550.895        2637.180          49.250                                                                  
C37  22215943.660   115684253.973        -633.609          51.750                                                                  
C23  24421058.100   127166869.801       -3137.469          47.750                                                                  
C08  38325760.380   199572286.137          90.133          44.500    38325764.180   154321955.387          71.324          46.000  
C13  37951843.980   197625210.207         518.891          47.500    37951853.960   152816378.988         399.914          46.000  
E15  26031932.300   136798723.398       -2421.465          46.000    26031939.340   104819818.180       -1855.559          46.000  
E13  23473929.380   123356331.031         184.344          51.500    23473934.980    94519801.602         141.109          52.500  
E21  23417263.560   123058560.004        -193.098          51.000    23417268.920    94291622.555        -148.129          52.000  
E26  25321359.820   133064655.004        2711.516          48.500    25321366.520   101958640.930        2077.770          51.000  
E27  25952047.300   136378932.645       -2368.406          46.500    25952055.520   104498160.477       -1816.172          47.500  
> 2024 04 10 11 07 05.0000000  0 25       0.000000000000
G05  23272394.140   122297263.457         442.715          46.500    23272402.800    95296596.824         344.262          44.250  
G18  21049059.120   110613549.676        1790.238          52.500    21049061.840    86192392.551        1394.805          52.250  
G20  24430277.140   128381981.766       -1699.176          38.750                                                                  
G25  23142696.880   121615695.160       -3370.949          45.250    23142706.060    94765519.324       -2627.039          43.500  
G28  22360814.080   117506885.250       -2832.094          48.000    22360818.340    91563824.625       -2207.484          49.250  
G29  21211594.560   111467700.934       -1796.473          52.250    21211597.480    86857947.930       -1399.805          48.000  
G26  21002949.120   110371246.645        1840.039          51.750    21002954.360    86003594.008        1434.281          46.750  
G31  21708199.600   114077374.262       -1287.688          49.750    21708202.620    88891475.352       -1001.984          46.750  
G16  23526982.740   123635123.977        3317.922          43.000                                                                  
R22  19644809.840   104865360.238       -1935.629          58.000    19644815.260    81561955.832       -1506.133          54.750  
R23  19923283.440   106576162.234        1988.809          51.750                                                                  
R12  19678613.180   105119651.035       -2057.160          56.250                                                                  
R21  23424534.880   125349435.723       -4040.441          45.750    23424549.240    97494012.082       -3142.133          42.000  
R13  19635967.260   104855027.570        1689.027          43.750    19635973.840    81553896.746        1314.234          45.000  
C28  21555832.380   112246869.520         521.277          52.500                                                                  
C27  24058306.700   125277895.605        2636.082          49.250                                                                  
C37  22216062.100   115684870.883        -635.781          51.500                                                                  
C23  24421657.300   127169990.035       -3139.684          47.500                                                                  
C08  38325739.240   199572176.707          93.262          44.250    38325743.020   154321870.770          71.297          46.250  
C13  37951741.060   197624674.625         516.543          47.250    37951751.220   152815964.867         398.992          46.250  
E15  26032389.900   136801127.445       -2421.781          46.000    26032396.780   104821660.227       -1856.168          46.250  
E13  23473890.800   123356128.801         182.957          51.250    23473896.540    94519646.664         140.227          52.500  
E21  23417297.060   123058735.184        -193.879          50.750    23417302.220    94291756.793        -148.820          52.250  
E26  25320840.460   133061925.254        2709.859          48.750    25320847.060   101956549.316        2078.070          51.000  
E27  25952494.740   136381284.750       -2371.191          46.250    25952503.140   104499962.750       -1816.953          47.750  
> 2024 04 10 11 07 06.0000000  0 25       0.000000000000
G05  23272306.160   122296801.914         443.008          47.000    23272314.840    95296237.191         343.309          44.250  
G18  21048715.040   110611740.598        1790.098          52.250    21048717.500    86190982.875        1393.602          52.250  
G20  24430597.140   128383661.582       -1697.949          39.000                                                                  
