     3.04           OBSERVATION DATA    M: Mixed            RINEX VERSION / TYPE
sbp2rinex v2.3 (RTKL                    20240410 141340 UTC PGM / RUN BY / DATE 
format: Swift Navigation SBP-JSON, option:                  COMMENT             
log: .\swift-gnss-20240410-123737.sbp.json                  COMMENT             
                                                            MARKER NAME         
                                                            MARKER NUMBER       
                                                            MARKER TYPE         
                                                            OBSERVER / AGENCY   
                                                            REC # / TYPE / VERS 
                                                            ANT # / TYPE        
  4388996.5297   924299.4077  4519553.0541                  APPROX POSITION XYZ 
        0.0000        0.0000        0.0000                  ANTENNA: DELTA H/E/N
G    8 C1C L1C D1C S1C C2S L2S D2S S2S                      SYS / # / OBS TYPES 
R    8 C1C L1C D1C S1C C2C L2C D2C S2C                      SYS / # / OBS TYPES 
E    8 C1B L1B D1B S1B C7I L7I D7I S7I                      SYS / # / OBS TYPES 
C    8 C2I L2I D2I S2I C7I L7I D7I S7I                      SYS / # / OBS TYPES 
  2024    04    10    10    37   55.0000000     GPS         TIME OF FIRST OBS   
  2024    04    10    10    59   25.0000000     GPS         TIME OF LAST OBS    
G L1C                                                       SYS / PHASE SHIFT   
G L2S  0.00000                                              SYS / PHASE SHIFT   
R L1C                                                       SYS / PHASE SHIFT   
R L2C                                                       SYS / PHASE SHIFT   
E L1B                                                       SYS / PHASE SHIFT   
E L7I                                                       SYS / PHASE SHIFT   
C L2I                                                       SYS / PHASE SHIFT   
C L7I                                                       SYS / PHASE SHIFT   
  6 R11  0 R12 -1 R13 -2 R21  4 R22 -3 R23  3               GLONASS SLOT / FRQ #
 C1C    0.000 C1P    0.000 C2C    0.000 C2P    0.000        GLONASS COD/PHS/BIS 
                                                            END OF HEADER       
> 2024 04 10 10 37 55.0000000  0 16       0.000000000000
G28  21556157.040   113278385.7191      -2001.930          44.750    21556161.140    88268888.8981      -1559.289          41.000  
G18  21803859.960   114580063.2231       2658.227          48.000    21803867.800    89283188.3831       2071.375          48.750  
G29  20711082.060   108837475.1761      -1239.863          49.000    20711086.520    84808442.3711       -965.273          49.250  
G31  21473293.360   112842921.7461       -158.152          49.000    21473297.560    87929555.6481       -121.750          46.500  
R22  19197327.720   102476678.8551       -797.691          54.750    19197333.100    79704083.9611       -620.816          53.250  
R13  20380163.660   108828958.2661       2736.758          39.000    20380172.780    84644763.504        2130.238          42.500  
R12  19223320.480   102687573.7301       -766.066          54.750    19223328.320    79868119.2731       -595.883          51.750  
R23  20755788.700   111029517.9731       3023.063          47.500                                                                  
R21  22133221.320   118439395.930       -3855.551          42.500                                                                  
R11  22684288.260   121218018.8091      -4007.770          42.750    22684306.340    94280706.188       -3118.719          43.250  
C23  23448761.880   122103847.1211      -2672.844          51.250                                                                  
C28  21856117.080   113810547.6521       1217.777          46.750                                                                  
C37  22163494.180   115411136.9841        264.551          52.500                                                                  
E15  25310929.200   133009837.0471      -1930.188          49.250    25310936.600   101916639.1761      -1479.863          51.500  
E13  23675779.460   124417066.0511        977.648          45.750    23675786.960    95332571.9691        749.395          49.250  
E21  23448810.740   123224338.2421        317.438          48.750    23448816.380    94418653.1051        243.609          51.250  
> 2024 04 10 10 37 56.0000000  0 16       0.000000000000
G28  21556531.580   113280355.855       -2003.141          45.000    21556536.500    88270424.063       -1559.680          41.000  
G18  21803347.840   114577372.551        2658.742          48.250    21803355.700    89281091.766        2071.539          48.750  
G29  20711311.620   108838681.492       -1238.938          49.250    20711315.860    84809382.367        -964.930          49.000  
G31  21473317.040   112843047.031        -158.035          49.000    21473321.400    87929653.254        -121.613          46.500  
R22  19197471.080   102477443.320        -797.871          54.500    19197476.720    79704678.543        -620.406          53.250  
R13  20379644.640   108826188.082        2735.598          38.500    20379653.560    84642608.926        2126.801          42.250  
R12  19223457.540   102688306.727        -766.797          54.500    19223465.760    79868689.379        -596.352          51.750  
R23  20755217.620   111026462.594        3022.270          47.250                                                                  
R21  22133934.880   118443217.500       -3854.645          42.000                                                                  
R11  22685032.820   121221994.703       -4008.922          43.000    22685051.720    94283798.520       -3118.586          43.000  
C23  23449268.980   122106487.582       -2673.910          51.500                                                                  
C28  21855877.100   113809297.270        1216.953          47.250                                                                  
C37  22163436.840   115410839.125         266.234          52.500                                                                  
E15  25311290.340   133011734.234       -1930.527          49.500    25311297.540   101918092.859       -1479.004          51.500  
E13  23675587.260   124416055.723         978.340          45.750    23675594.560    95331797.820         748.355          49.250  
E21  23448744.000   123223987.125         319.832          48.750    23448749.480    94418384.063         243.676          51.250  
> 2024 04 10 10 37 57.0000000  0 16       0.000000000000
G28  21556906.340   113282325.711       -2001.145          44.750    21556911.500    88271959.000       -1562.598          41.250  
G18  21802835.840   114574681.504        2657.355          48.250    21802843.520    89278994.824        2070.941          48.500  
G29  20711541.220   108839887.355       -1238.199          49.250    20711545.380    84810321.984        -965.273          48.750  
G31  21473340.920   112843172.160        -158.473          49.000    21473345.160    87929750.762        -125.188          46.500  
R22  19197614.040   102478207.676        -798.477          54.500    19197619.940    79705273.043        -621.648          53.250  
R13  20379127.420   108823417.605        2736.328          38.000    20379135.420    84640454.113        2129.051          42.250  
R12  19223594.780   102689039.629        -767.301          54.750    19223603.060    79869259.414        -596.008          51.750  
R23  20754646.480   111023406.918        3021.422          47.750                                                                  
R21  22134648.280   118447038.461       -3855.895          41.250                                                                  
R11  22685777.060   121225970.016       -4009.609          43.500    22685794.540    94286890.453       -3119.273          43.250  
C23  23449775.920   122109127.555       -2673.777          51.250                                                                  
C28  21855637.060   113808046.492        1217.992          47.250                                                                  
C37  22163379.560   115410540.957         263.969          52.250                                                                  
E15  25311651.740   133013630.926       -1927.969          49.750    25311658.460   101919546.156       -1479.027          51.250  
E13  23675395.060   124415045.031         977.180          46.250    23675402.100    95331023.371         748.512          49.000  
E21  23448677.200   123223635.438         318.035          49.250    23448682.560    94418114.574         243.180          51.000  
> 2024 04 10 10 37 58.0000000  0 16       0.000000000000
G28  21557281.360   113284296.031       -2003.398          45.000    21557287.140    88273494.316       -1562.887          41.750  
G18  21802323.720   114571990.805        2657.125          47.750    21802331.140    89276898.184        2071.902          48.000  
G29  20711770.740   108841093.484       -1237.996          49.000    20711774.900    84811261.820        -965.070          48.500  
G31  21473364.680   112843297.852        -158.336          48.500    21473369.220    87929848.699        -123.293          46.500  
R22  19197757.200   102478972.664        -798.113          54.500    19197763.740    79705868.023        -621.301          53.250  
R13  20378605.620   108820647.512        2739.805          38.000    20378616.100    84638299.566        2128.293          42.250  
R12  19223732.120   102689773.152        -766.840          54.750    19223740.760    79869829.926        -595.922          51.750  
R23  20754076.120   111020351.684        3021.727          48.250                                                                  
R21  22135362.420   118450859.559       -3853.953          41.750                                                                  
R11  22686522.000   121229945.500       -4009.781          44.750    22686538.180    94289982.473       -3119.336          43.250  
C23  23450282.880   122111767.746       -2672.957          51.000                                                                  
C28  21855397.300   113806796.020        1217.160          47.750                                                                  
C37  22163322.360   115410243.203         264.469          52.250                                                                  
E15  25312012.680   133015527.855       -1929.145          49.750    25312019.540   101920999.656       -1478.582          51.250  
E13  23675202.640   124414034.688         975.672          46.250    23675209.920    95330249.219         747.512          49.000  
E21  23448610.420   123223283.934         318.863          49.250    23448615.780    94417845.238         244.355          51.000  
> 2024 04 10 10 37 59.0000000  0 16       0.000000000000
G28  21557655.820   113286262.570       -2002.043          44.500    21557661.980    88275026.648       -1560.672          41.000  
G18  21801810.980   114569296.168        2658.828          47.750    21801818.360    89274798.461        2071.320          48.500  
G29  20711999.380   108842295.613       -1240.480          48.750    20712003.540    84812198.527        -965.188          48.250  
G31  21473387.720   112843419.859        -159.043          48.500    21473392.200    87929943.766        -123.496          46.500  
R22  19197899.720   102479733.961        -799.055          54.750    19197906.460    79706460.148        -621.289          53.250  
R13  20378085.780   108817873.461        2736.555          37.750    20378097.000    84636141.988        2126.512          42.250  
R12  19223868.640   102690502.977        -767.797          54.750    19223877.160    79870397.566        -596.152          51.250  
R23  20753504.740   111017292.555        3022.516          48.750                                                                  
R21  22136076.720   118454676.379       -3853.289          42.250                                                                  
R11  22687265.640   121233916.879       -4009.301          44.500    22687281.800    94293071.297       -3117.938          42.500  
C23  23450789.020   122114403.930       -2673.047          51.000                                                                  
C28  21855156.720   113805541.617        1217.832          48.250                                                                  
C37  22163264.340   115409941.617         265.418          52.250                                                                  
E15  25312372.940   133017420.770       -1929.441          50.000    25312379.780   101922450.055       -1478.383          51.000  
E13  23675009.140   124413020.426         978.168          46.000    23675017.060    95329472.063         748.063          49.250  
E21  23448542.780   123222928.324         318.547          49.250    23448548.120    94417572.762         243.793          51.000  
> 2024 04 10 10 38 00.0000000  0 16       0.000000000000
G28  21558031.080   113288235.051       -2003.406          44.750    21558037.700    88276563.680       -1560.809          41.750  
G18  21801299.360   114566607.410        2656.961          48.250    21801306.700    89272703.316        2070.656          48.250  
G29  20712229.200   108843503.504       -1238.563          49.000    20712233.360    84813139.750        -966.707          48.250  
G31  21473412.080   112843547.965        -158.820          49.000    21473416.460    87930043.574        -125.703          46.250  
R22  19198043.200   102480501.492        -799.672          54.750    19198050.260    79707057.113        -622.289          53.250  
R13  20377566.700   108815105.414        2733.949          37.500    20377578.560    84633989.047        2126.848          42.000  
R12  19224006.500   102691239.078        -767.773          55.000    19224014.820    79870970.082        -598.211          51.500  
R23  20752934.220   111014239.480        3021.719          48.500                                                                  
R21  22136790.980   118458498.930       -3854.129          42.000                                                                  
R11  22688009.740   121237894.004       -4008.961          44.250    22688026.060    94296164.629       -3117.000          42.500  
C23  23451296.060   122117045.813       -2673.688          50.750                                                                  
C28  21854917.060   113804293.000        1217.086          48.250                                                                  
C37  22163207.640   115409645.906         264.781          52.500                                                                  
E15  25312734.560   133019319.434       -1930.207          50.250    25312741.120   101923904.879       -1479.363          51.250  
E13  23674817.480   124412012.047         977.227          46.250    23674825.100    95328699.406         748.969          49.250  
E21  23448476.100   123222578.426         318.590          49.250    23448481.540    94417304.648         244.250          51.250  
> 2024 04 10 10 38 01.0000000  0 16       0.000000000000
G28  21558406.660   113290208.000       -2004.105          45.000    21558413.400    88278101.035       -1560.957          42.250  
G18  21800787.820   114563918.961        2657.199          48.500    21800795.160    89270608.418        2070.656          48.500  
G29  20712459.120   108844711.648       -1237.844          49.000    20712463.180    84814081.164        -965.383          48.000  
G31  21473436.460   112843676.613        -159.242          49.250    21473440.660    87930143.828        -123.934          45.750  
R22  19198187.200   102481269.645        -800.012          54.750    19198194.140    79707654.574        -620.965          53.250  
R13  20377047.780   108812337.727        2734.469          37.250    20377059.600    84631836.418        2127.848          42.000  
R12  19224144.420   102691975.832        -767.508          54.750    19224152.980    79871543.117        -597.680          51.750  
R23  20752363.660   111011186.824        3021.316          48.750                                                                  
R21  22137505.960   118462321.590       -3853.867          41.250                                                                  
R11  22688752.440   121241871.320       -4006.484          44.250    22688772.140    94299258.102       -3119.164          43.500  
C23  23451803.140   122119687.895       -2673.020          51.000                                                                  
C28  21854677.200   113803044.668        1217.059          48.000                                                                  
C37  22163150.980   115409350.594         265.477          52.750                                                                  
E15  25313096.040   133021218.332       -1929.309          50.500    25313102.480   101925359.875       -1478.355          51.250  
E13  23674625.880   124411004.020         977.043          46.750    23674633.400    95327927.020         749.199          49.250  
E21  23448409.820   123222228.691         319.563          49.500    23448415.020    94417036.656         244.324          51.250  
> 2024 04 10 10 38 02.0000000  0 16       0.000000000000
G28  21558782.520   113292181.109       -2004.918          45.250    21558789.620    88279638.527       -1561.172          42.750  
G18  21800276.460   114561230.574        2659.277          48.000    21800283.740    89268513.586        2070.641          48.750  
G29  20712688.980   108845919.766       -1237.992          49.000    20712692.920    84815022.555        -965.066          48.000  
G31  21473461.060   112843805.555        -160.855          49.000    21473465.320    87930244.297        -123.785          45.750  
R22  19198331.260   102482038.141        -799.160          54.750    19198338.340    79708252.285        -622.781          53.250  
R13  20376529.060   108809570.164        2736.176          37.250    20376542.380    84629683.863        2129.320          42.500  
R12  19224282.480   102692712.934        -768.230          55.000    19224291.240    79872116.422        -597.902          51.750  
R23  20751793.620   111008134.348        3021.070          48.750                                                                  
R21  22138219.880   118466144.035       -3852.707          40.750                                                                  
R11  22689496.240   121245848.555       -4008.234          43.750    22689516.620    94302351.473       -3116.230          43.500  
C23  23452310.320   122122329.926       -2671.879          50.750                                                                  
C28  21854437.540   113801796.375        1216.793          48.000                                                                  
C37  22163094.320   115409055.402         264.656          52.500                                                                  
E15  25313457.200   133023117.188       -1929.371          50.250    25313463.940   101926814.848       -1478.031          51.500  
E13  23674434.120   124409996.055         977.648          46.500    23674441.440    95327154.672         748.930          49.000  
E21  23448343.340   123221878.824         319.406          49.250    23448348.420    94416768.590         244.637          51.000  
> 2024 04 10 10 38 03.0000000  0 16       0.000000000000
G28  21559158.220   113294154.008       -2002.512          45.500    21559165.480    88281175.848       -1560.418          43.000  
G18  21799764.820   114558541.863        2659.336          48.000    21799772.200    89266418.473        2071.063          48.750  
G29  20712919.000   108847127.473       -1238.063          48.750    20712922.580    84815963.617        -963.551          47.750  
G31  21473485.640   112843934.395        -158.883          49.000    21473489.300    87930344.695        -125.730          45.250  
R22  19198475.140   102482806.586        -799.047          54.750    19198482.320    79708849.965        -621.758          53.500  
R13  20376011.440   108806802.281        2737.371          38.000    20376024.880    84627531.066        2129.469          42.250  
R12  19224420.180   102693449.988        -767.684          55.000    19224429.200    79872689.688        -596.055          51.750  
R23  20751222.940   111005081.625        3022.273          48.500                                                                  
R21  22138934.300   118469965.902       -3854.219          41.000                                                                  
R11  22690239.980   121249825.230       -4006.738          43.250    22690260.440    94305444.430       -3117.547          43.250  
C23  23452817.380   122124971.492       -2672.480          50.000                                                                  
C28  21854197.680   113800547.711        1219.762          47.750                                                                  
C37  22163037.440   115408759.941         265.191          52.000                                                                  
E15  25313818.180   133025015.602       -1929.348          49.750    25313825.280   101928269.473       -1477.832          51.500  
E13  23674242.820   124408987.766         978.336          46.500    23674249.400    95326382.094         748.039          49.000  
E21  23448276.560   123221528.469         320.387          49.250    23448281.680    94416500.145         247.145          51.250  
> 2024 04 10 10 38 04.0000000  0 16       0.000000000000
G28  21559533.640   113296126.207       -2001.133          46.000    21559541.040    88282712.652       -1561.254          43.000  
G18  21799253.340   114555852.344        2658.473          48.000    21799260.560    89264322.746        2071.613          48.750  
G29  20713148.400   108848334.297       -1238.500          48.750    20713152.340    84816904.012        -963.637          47.750  
G31  21473510.100   112844062.676        -158.520          49.000    21473513.780    87930444.660        -123.137          45.250  
R22  19198618.980   102483574.520        -798.957          54.500    19198626.580    79709447.250        -621.523          53.750  
R13  20375492.620   108804033.672        2738.309          37.500    20375504.980    84625377.688        2128.980          43.000  
R12  19224558.240   102694186.531        -766.895          55.000    19224567.000    79873262.555        -595.918          51.750  
R23  20750652.260   111002028.191        3023.242          48.250                                                                  
R21  22139647.080   118473786.727       -3852.625          40.000                                                                  
R11  22690984.320   121253800.957       -4006.266          44.250    22691003.240    94308536.641       -3117.512          43.250  
C23  23453324.320   122127612.180       -2671.750          50.250                                                                  
C28  21853958.000   113799298.219        1218.848          48.250                                                                  
C37  22162980.540   115408463.770         266.406          52.000                                                                  
E15  25314179.120   133026913.133       -1928.117          49.250    25314186.440   101929723.422       -1477.352          51.500  
E13  23674051.060   124407978.707         978.395          46.500    23674057.240    95325608.910         749.957          49.000  
E21  23448209.840   123221177.156         321.020          49.250    23448214.760    94416230.961         247.254          51.000  
> 2024 04 10 10 38 05.0000000  0 16       0.000000000000
G28  21559907.980   113298093.688       -2000.773          45.500    21559915.680    88284245.754       -1559.191          43.250  
G18  21798740.900   114553157.980        2659.621          48.250    21798747.840    89262223.250        2072.734          49.000  
G29  20713377.200   108849536.199       -1236.535          48.500    20713380.860    84817840.570        -962.961          47.500  
G31  21473533.460   112844186.328        -159.883          48.500    21473537.000    87930541.016        -123.734          45.250  
R22  19198761.820   102484337.813        -798.539          54.250    19198769.480    79710040.918        -621.488          53.500  
R13  20374974.200   108801260.180        2738.559          36.750    20374986.080    84623220.516        2130.992          42.750  
R12  19224695.240   102694918.445        -767.285          54.750    19224704.400    79873831.824        -597.066          51.750  
R23  20750080.620   110998969.922        3021.969          48.000                                                                  
R21  22140359.680   118477602.426       -3853.477          39.250                                                                  
R11  22691727.920   121257771.586       -4005.699          44.000    22691745.040    94311624.930       -3115.422          42.500  
C23  23453830.500   122130247.930       -2670.016          50.500                                                                  
C28  21853717.120   113798043.906        1220.383          48.000                                                                  
C37  22162922.740   115408162.859         265.691          52.250                                                                  
E15  25314539.200   133028805.715       -1927.883          49.500    25314546.580   101931173.598       -1477.145          51.750  
E13  23673857.720   124406964.801         980.102          46.250    23673864.240    95324832.051         750.609          49.000  
E21  23448142.020   123220820.828         321.891          49.500    23448146.980    94415957.941         245.504          51.250  
> 2024 04 10 10 38 06.0000000  0 16       0.000000000000
G28  21560283.280   113300066.211       -2001.801          44.750    21560291.200    88285782.773       -1559.824          43.500  
G18  21798229.340   114550468.527        2660.480          48.500    21798236.060    89260127.582        2073.480          48.750  
G29  20713606.820   108850742.949       -1235.527          48.250    20713610.660    84818780.875        -964.793          47.500  
G31  21473558.100   112844315.129        -157.633          48.750    21473561.380    87930641.383        -123.344          45.000  
R22  19198905.720   102485106.371        -798.734          53.750    19198913.140    79710638.688        -621.305          53.250  
R13  20374455.300   108798491.730        2739.711          36.750    20374467.800    84621067.281        2130.070          43.000  
R12  19224833.440   102695655.660        -767.129          54.750    19224842.180    79874405.199        -596.484          51.500  
R23  20749509.680   110995916.723        3024.754          47.750                                                                  
R21  22141073.080   118481422.820       -3849.941          38.000                                                                  
R11  22692470.480   121261747.078       -4003.137          42.250    22692488.760    94314716.926       -3115.328          43.000  
C23  23454337.520   122132888.434       -2669.105          51.000                                                                  
C28  21853477.000   113796794.430        1221.457          48.000                                                                  
C37  22162865.940   115407866.883         267.141          52.500                                                                  
E15  25314900.260   133030703.098       -1925.828          49.500    25314907.560   101932627.434       -1475.117          51.500  
E13  23673665.800   124405955.820         978.930          46.500    23673672.260    95324058.941         750.652          49.250  
E21  23448075.240   123220469.238         322.965          49.500    23448080.060    94415688.547         247.219          51.250  
> 2024 04 10 10 38 07.0000000  0 16       0.000000000000
G28  21560658.820   113302038.938       -2002.574          44.750    21560666.680    88287319.953       -1559.855          43.250  
G18  21797717.800   114547779.176        2661.250          49.000    21797724.100    89258031.988        2074.277          48.750  
G29  20713836.280   108851949.707       -1235.656          48.250    20713839.960    84819721.207        -962.695          47.250  
G31  21473582.920   112844444.238        -156.918          48.500    21473585.720    87930741.984        -122.281          44.750  
R22  19199049.660   102485875.293        -797.461          53.750    19199057.080    79711236.742        -621.223          53.000  
R13  20373938.100   108795723.395        2741.727          36.250    20373950.300    84618914.141        2131.574          42.750  
R12  19224971.560   102696393.262        -767.258          54.750    19224979.980    79874978.906        -597.000          51.500  
R23  20748938.640   110992863.730        3023.629          47.750                                                                  
R21  22141789.300   118485243.098       -3847.523          38.750                                                                  
R11  22693214.300   121265722.477       -4006.105          42.000    22693232.540    94317808.867       -3113.066          42.750  
C23  23454844.680   122135528.902       -2667.855          51.000                                                                  
C28  21853237.100   113795545.004        1220.082          48.000                                                                  
C37  22162809.360   115407571.059         266.781          52.750                                                                  
E15  25315261.660   133032600.469       -1924.465          49.500    25315268.580   101934081.266       -1476.313          51.750  
E13  23673473.660   124404946.973         979.531          46.500    23673480.240    95323285.918         751.867          49.250  
E21  23448008.220   123220117.586         322.516          49.500    23448013.120    94415419.098         248.691          51.250  
> 2024 04 10 10 38 08.0000000  0 16       0.000000000000
G28  21561033.800   113304010.895       -2001.438          44.750    21561042.180    88288856.539       -1559.004          43.250  
G18  21797206.340   114545088.922        2660.750          49.250    21797212.320    89255935.688        2074.055          49.000  
G29  20714065.860   108853155.484       -1236.445          48.500    20714069.260    84820660.770        -962.320          47.500  
G31  21473607.180   112844572.699        -158.004          49.000    21473610.000    87930842.090        -123.035          44.750  
R22  19199193.300   102486643.617        -798.066          54.000    19199201.200    79711834.320        -620.855          53.000  
R13  20373417.540   108792954.230        2740.797          36.750    20373431.660    84616760.332        2130.508          43.000  
R12  19225109.580   102697130.285        -767.324          55.000    19225118.320    79875552.137        -596.996          51.500  
R23  20748367.780   110989809.930        3023.867          48.250                                                                  
R21  22142504.660   118489062.203       -3849.664          39.750                                                                  
R11  22693958.700   121269696.785       -4004.641          42.750    22693974.320    94320900.000       -3114.723          41.500  
C23  23455351.420   122138168.379       -2669.191          50.500                                                                  
C28  21852996.660   113794294.664        1221.535          47.750                                                                  
C37  22162752.460   115407274.430         268.488          52.500                                                                  
E15  25315622.580   133034496.852       -1926.930          49.500    25315629.500   101935534.332       -1476.699          51.500  
E13  23673281.580   124403937.234         981.336          46.750    23673288.080    95322512.215         751.590          49.000  
E21  23447941.240   123219764.867         323.258          49.750    23447946.040    94415148.844         248.375          51.000  
> 2024 04 10 10 38 09.0000000  0 16       0.000000000000
G28  21561407.920   113305976.664       -2000.469          45.000    21561416.440    88290388.309       -1558.531          43.500  
G18  21796693.520   114542392.379        2661.500          49.750    21796699.120    89253834.480        2073.922          48.750  
G29  20714294.080   108854354.887       -1234.887          48.750    20714297.520    84821595.363        -962.230          47.500  
G31  21473630.660   112844695.086        -157.543          49.500    21473633.280    87930937.457        -124.039          44.750  
R22  19199336.140   102487405.824        -797.539          54.250    19199344.200    79712427.148        -621.133          53.250  
R13  20372898.440   108790178.699        2741.211          37.000    20372911.280    84614601.578        2130.828          43.000  
R12  19225246.380   102697861.203        -766.934          55.000    19225255.340    79876120.625        -596.953          51.500  
R23  20747795.240   110986749.797        3022.875          47.250                                                                  
R21  22143218.480   118492874.680       -3847.410          39.500                                                                  
R11  22694700.840   121273664.539       -4005.043          41.500    22694717.620    94323986.012       -3112.926          41.000  
C23  23455857.060   122140801.504       -2667.605          50.250                                                                  
C28  21852755.420   113793038.059        1222.082          47.500                                                                  
C37  22162694.320   115406971.625         267.602          52.250                                                                  
E15  25315981.820   133036386.840       -1926.270          49.750    25315989.100   101936982.504       -1474.422          51.500  
E13  23673088.000   124402921.207         981.203          46.750    23673094.660    95321733.703         750.258          49.000  
E21  23447872.940   123219405.691         324.488          49.750    23447877.700    94414873.625         248.051          51.000  
> 2024 04 10 10 38 10.0000000  0 16       0.000000000000
G28  21561783.040   113307947.906       -2000.992          44.750    21561791.620    88291924.340       -1557.961          43.750  
G18  21796181.640   114539701.211        2661.520          49.750    21796186.840    89251737.461        2073.023          48.750  
G29  20714523.400   108855559.594       -1235.895          48.750    20714526.800    84822534.086        -962.473          47.500  
G31  21473655.120   112844823.086        -158.930          49.000    21473657.340    87931037.184        -123.566          44.500  
R22  19199480.320   102488173.777        -798.531          54.500    19199487.900    79713024.441        -621.258          53.000  
R13  20372381.020   108787408.656        2738.516          37.250    20372393.100    84612447.105        2130.809          43.000  
R12  19225384.440   102698597.875        -767.371          55.000    19225393.340    79876693.590        -596.879          51.500  
R23  20747223.940   110983695.219        3024.434          47.250                                                                  
R21  22143931.620   118496692.414       -3848.504          39.750                                                                  
R11  22695442.780   121277637.555       -4003.781          40.500    22695460.140    94327076.121       -3113.891          41.250  
C23  23456363.740   122143439.824       -2669.336          50.750                                                                  
C28  21852515.040   113791786.742        1220.492          48.000                                                                  
C37  22162637.240   115406674.215         267.188          52.500                                                                  
E15  25316342.880   133038282.105       -1926.219          49.750    25316349.840   101938434.707       -1476.352          51.250  
E13  23672895.160   124401910.586         981.313          46.500    23672902.380    95320959.305         751.285          48.750  
E21  23447805.660   123219051.727         323.645          50.000    23447810.280    94414602.383         248.543          51.000  
> 2024 04 10 10 38 11.0000000  0 16       0.000000000000
G28  21562158.040   113309919.215       -2000.453          44.750    21562166.840    88293460.410       -1559.789          44.000  
G18  21795669.760   114537009.969        2660.734          49.750    21795674.640    89249640.398        2073.055          48.750  
G29  20714752.780   108856764.137       -1234.949          48.750    20714755.880    84823472.699        -962.348          47.000  
G31  21473679.440   112844951.230        -158.352          49.000    21473681.700    87931137.039        -121.801          44.750  
R22  19199624.480   102488941.930        -798.660          54.750    19199632.000    79713621.895        -621.266          53.250  
R13  20371859.620   108784638.602        2739.262          36.750    20371874.820    84610292.629        2130.102          43.250  
R12  19225522.400   102699334.762        -767.594          55.000    19225531.500    79877266.730        -596.977          51.500  
R23  20746652.500   110980640.664        3023.898          47.000                                                                  
R21  22144645.960   118500509.840       -3846.422          40.250                                                                  
R11  22696182.920   121281610.379       -4003.379          38.750    22696203.180    94330166.074       -3113.637          40.750  
C23  23456870.440   122146077.961       -2667.832          50.750                                                                  
C28  21852274.360   113790535.328        1221.418          48.000                                                                  
C37  22162580.160   115406376.793         267.574          52.750                                                                  
E15  25316703.560   133040177.191       -1925.426          49.750    25316710.540   101939886.781       -1476.363          51.250  
E13  23672703.240   124400899.887         979.742          46.750    23672710.100    95320184.898         751.863          48.500  
E21  23447738.140   123218697.504         322.230          50.000    23447742.920    94414330.973         248.121          50.750  
> 2024 04 10 10 38 12.0000000  0 16       0.000000000000
G28  21562533.460   113311892.066       -2003.266          44.500    21562542.280    88294997.719       -1558.645          44.250  
G18  21795157.960   114534320.168        2660.266          50.250    21795162.640    89247544.457        2072.848          48.500  
G29  20714982.340   108857970.039       -1234.449          49.000    20714985.260    84824412.363        -963.320          47.250  
G31  21473704.100   112845081.059        -159.590          49.500    21473706.400    87931238.211        -123.371          44.750  
R22  19199769.080   102489711.848        -799.965          54.750    19199776.000    79714220.719        -622.160          53.250  
R13  20371341.840   108781870.090        2738.859          36.500    20371356.540    84608139.320        2130.875          43.500  
R12  19225660.520   102700073.422        -768.145          55.000    19225669.700    79877841.242        -598.582          51.500  
R23  20746081.220   110977587.672        3023.383          46.750                                                                  
R21  22145360.320   118504328.473       -3848.559          40.750                                                                  
R11  22696925.620   121285584.492       -4004.660          38.250    22696946.000    94333257.066       -3112.918          40.500  
C23  23457377.360   122148717.410       -2668.223          50.500                                                                  
C28  21852034.240   113789285.297        1220.727          47.500                                                                  
C37  22162523.380   115406080.879         267.539          52.500                                                                  
E15  25317064.080   133042073.621       -1925.527          49.500    25317071.460   101941339.879       -1475.301          51.000  
E13  23672511.400   124399890.648         980.551          46.750    23672518.160    95319411.574         749.941          48.500  
E21  23447670.920   123218344.574         323.309          49.750    23447675.880    94414060.547         248.172          50.750  
> 2024 04 10 10 38 13.0000000  0 16       0.000000000000
G28  21562908.800   113313865.570       -2002.488          45.250    21562917.660    88296535.508       -1559.324          44.000  
G18  21794646.480   114531630.895        2659.539          50.750    21794650.900    89245448.922        2072.234          48.750  
G29  20715212.080   108859176.387       -1236.074          50.000    20715215.020    84825352.359        -963.523          47.000  
G31  21473728.640   112845211.641        -160.762          49.500    21473731.220    87931339.949        -124.266          44.250  
R22  19199913.680   102490482.582        -801.297          55.000    19199920.680    79714820.180        -622.527          53.250  
R13  20370823.460   108779102.145        2735.363          37.000    20370837.760    84605986.473        2128.434          43.500  
R12  19225799.360   102700812.926        -769.773          55.500    19225807.780    79878416.406        -599.453          51.500  
R23  20745510.140   110974535.340        3022.457          46.750                                                                  
R21  22146073.700   118508147.379       -3847.852          40.250                                                                  
R11  22697669.880   121289559.027       -4004.887          37.000    22697688.780    94336348.320       -3114.422          40.000  
C23  23457884.380   122151357.277       -2669.125          51.000                                                                  
C28  21851794.100   113788035.773        1220.828          47.500                                                                  
C37  22162466.720   115405785.555         265.320          52.750                                                                  
E15  25317424.760   133043970.465       -1926.516          49.000    25317432.400   101942793.309       -1476.691          51.000  
E13  23672319.020   124398881.953         978.797          46.500    23672326.180    95318638.688         751.086          48.500  
E21  23447603.500   123217991.996         321.992          49.250    23447608.820    94413790.379         246.512          50.750  
> 2024 04 10 10 38 14.0000000  0 16       0.000000000000
G28  21563284.440   113315838.223       -2002.820          45.250    21563292.960    88298072.648       -1560.496          44.000  
G18  21794134.560   114528940.680        2658.832          50.250    21794138.980    89243352.648        2072.680          48.750  
G29  20715441.600   108860381.715       -1235.176          49.750    20715444.500    84826291.582        -963.043          47.000  
G31  21473753.420   112845341.504        -162.273          49.500    21473755.360    87931441.137        -126.410          43.750  
R22  19200058.220   102491252.648        -802.254          55.000    19200064.940    79715419.113        -623.691          53.500  
R13  20370306.540   108776333.246        2734.270          37.000    20370319.500    84603832.891        2128.672          43.500  
R12  19225937.880   102701551.781        -770.117          55.500    19225945.960    79878991.078        -598.555          51.500  
R23  20744939.340   110971482.133        3022.762          46.250                                                                  
R21  22146785.600   118511965.043       -3848.445          38.750                                                                  
R11  22698411.400   121293532.313       -4002.766          36.000    22698430.640    94339438.660       -3115.445          39.250  
C23  23458391.320   122153996.078       -2669.590          50.750                                                                  
C28  21851553.980   113786785.281        1219.344          47.750                                                                  
C37  22162409.840   115405489.355         266.109          52.750                                                                  
E15  25317785.240   133045866.270       -1927.438          48.750    25317793.180   101944245.938       -1476.043          51.000  
E13  23672127.400   124397872.336         980.488          46.500    23672134.060    95317865.074         750.648          48.500  
E21  23447536.380   123217638.316         322.160          49.000    23447541.540    94413519.383         247.133          50.750  
> 2024 04 10 10 38 15.0000000  0 16       0.000000000000
G28  21563659.980   113317811.961       -2005.238          45.000    21563668.220    88299610.652       -1561.973          44.000  
G18  21793622.740   114526251.422        2659.641          50.250    21793627.240    89241257.121        2071.785          49.000  
G29  20715671.480   108861587.914       -1237.410          50.000    20715673.960    84827231.488        -963.605          47.250  
G31  21473778.500   112845472.559        -161.449          49.500    21473779.920    87931543.277        -126.387          44.000  
R22  19200202.780   102492023.969        -802.043          55.000    19200209.540    79716019.035        -623.688          53.500  
R13  20369788.560   108773565.395        2735.789          37.250    20369800.860    84601680.137        2129.020          43.500  
R12  19226076.540   102702291.906        -771.289          55.250    19226084.100    79879566.723        -599.684          51.500  
R23  20744368.300   110968430.012        3021.414          45.750                                                                  
R21  22147499.720   118515783.473       -3848.074          39.500                                                                  
R11  22699154.400   121297506.465       -4005.406          36.750    22699174.920    94342529.648       -3113.961          39.250  
C23  23458898.240   122156635.715       -2669.676          50.750                                                                  
C28  21851314.120   113785535.703        1219.602          48.000                                                                  
C37  22162353.240   115405194.180         265.859          52.750                                                                  
E15  25318145.680   133047762.934       -1926.875          48.750    25318154.020   101945699.234       -1476.945          51.250  
E13  23671935.100   124396863.680         977.906          46.250    23671941.920    95317092.230         750.535          48.500  
E21  23447469.120   123217285.426         322.578          49.000    23447474.220    94413249.004         246.980          50.750  
> 2024 04 10 10 38 16.0000000  0 16       0.000000000000
G28  21564034.920   113319781.027       -2004.539          45.500    21564042.760    88301144.973       -1562.070          44.250  
G18  21793110.040   114523557.379        2658.129          50.000    21793114.700    89239157.871        2070.820          49.500  
G29  20715900.120   108862789.258       -1237.270          49.750    20715902.520    84828167.598        -963.938          47.250  
G31  21473802.300   112845599.055        -161.840          49.500    21473803.720    87931641.836        -124.719          44.000  
R22  19200346.480   102492790.699        -803.145          54.750    19200353.120    79716615.383        -625.156          53.750  
R13  20369269.480   108770792.703        2736.426          37.250    20369281.860    84599523.605        2128.582          43.750  
R12  19226214.300   102703027.445        -771.930          55.250    19226222.100    79880138.801        -599.406          51.500  
R23  20743796.700   110965373.125        3021.875          45.500                                                                  
R21  22148213.560   118519596.801       -3848.996          39.250                                                                  
R11  22699896.820   121301475.570       -4007.340          36.250    22699917.360    94345616.738       -3117.168          38.750  
C23  23459404.380   122159270.484       -2670.625          50.750                                                                  
C28  21851073.080   113784281.344        1218.840          47.500                                                                  
C37  22162295.820   115404894.316         264.188          52.500                                                                  
E15  25318506.260   133049654.703       -1927.820          49.000    25318514.020   101947148.773       -1476.477          51.500  
E13  23671742.120   124395850.254         977.699          46.000    23671748.940    95316315.715         749.863          48.750  
E21  23447401.120   123216927.578         322.879          49.000    23447406.040    94412974.809         247.641          51.000  
> 2024 04 10 10 38 17.0000000  0 16       0.000000000000
G28  21564410.940   113321756.922       -2005.594          45.750    21564418.880    88302684.645       -1562.773          44.000  
G18  21792598.600   114520870.047        2657.438          50.250    21792603.600    89237063.848        2071.121          49.500  
G29  20716129.840   108863997.219       -1237.762          49.750    20716132.460    84829108.871        -964.000          47.250  
G31  21473827.640   112845732.508        -163.984          49.500    21473829.180    87931745.816        -125.938          44.000  
R22  19200491.380   102493564.547        -803.855          54.750    19200498.200    79717217.258        -625.320          53.750  
R13  20368749.560   108768026.898        2738.395          37.000    20368763.080    84597372.410        2128.496          43.750  
R12  19226353.540   102703770.113        -772.375          55.500    19226360.480    79880716.438        -600.098          51.250  
R23  20743226.200   110962323.191        3020.313          45.750                                                                  
R21  22148927.460   118523416.734       -3847.676          39.750                                                                  
R11  22700639.560   121305451.375       -4008.789          35.250    22700661.880    94348708.996       -3115.141          40.000  
C23  23459911.680   122161911.789       -2669.980          51.000                                                                  
C28  21850833.640   113783033.617        1218.797          48.000                                                                  
C37  22162239.560   115404601.180         264.328          53.000                                                                  
E15  25318867.000   133051553.090       -1928.898          48.750    25318875.380   101948603.379       -1476.598          51.750  
E13  23671550.780   124394843.570         977.754          46.250    23671557.340    95315544.352         748.465          48.750  
E21  23447334.060   123216576.281         320.965          49.000    23447339.280    94412705.637         246.977          51.000  
> 2024 04 10 10 38 18.0000000  0 16       0.000000000000
G28  21564786.780   113323734.613       -2008.008          45.500    21564794.880    88304225.688       -1562.344          43.750  
G18  21792087.480   114518184.402        2657.352          50.750    21792092.260    89234971.152        2071.914          49.250  
G29  20716360.160   108865206.789       -1237.898          50.250    20716362.640    84830051.391        -965.047          47.000  
G31  21473853.380   112845867.844        -162.793          50.000    21473854.860    87931851.285        -127.563          44.000  
R22  19200636.400   102494340.395        -805.078          54.500    19200643.700    79717820.691        -625.188          53.750  
R13  20368232.720   108765262.879        2734.352          37.250    20368245.740    84595222.582        2127.742          43.500  
R12  19226492.780   102704514.816        -773.754          55.250    19226499.340    79881295.652        -601.887          51.000  
R23  20742655.600   110959275.023        3019.793          45.250                                                                  
R21  22149641.260   118527238.137       -3850.816          38.500                                                                  
R11  22701384.340   121309428.664       -4005.395          35.250    22701405.600    94351802.469       -3115.301          38.750  
C23  23460419.280   122164554.645       -2670.902          51.000                                                                  
C28  21850594.400   113781787.520        1218.309          48.000                                                                  
C37  22162183.500   115404309.785         263.547          52.500                                                                  
E15  25319229.520   133053453.059       -1928.004          50.000    25319236.840   101950059.195       -1478.148          51.250  
E13  23671359.080   124393838.555         977.770          46.250    23671366.140    95314774.289         748.656          48.750  
E21  23447267.280   123216226.488         320.684          49.250    23447272.780    94412437.609         245.539          51.000  
> 2024 04 10 10 38 19.0000000  0 16       0.000000000000
G28  21565162.980   113325711.020       -2006.652          45.750    21565170.760    88305765.742       -1563.285          43.750  
G18  21791576.160   114515497.359        2656.758          50.750    21791581.060    89232877.352        2070.262          49.250  
G29  20716589.980   108866414.891       -1237.426          50.000    20716592.460    84830992.750        -964.902          47.250  
G31  21473879.000   112846002.027        -164.121          49.750    21473880.120    87931955.848        -127.844          43.500  
R22  19200781.420   102495115.086        -806.012          54.500    19200788.640    79718423.234        -627.145          53.500  
R13  20367714.840   108762497.398        2736.336          37.750    20367728.460    84593071.699        2127.180          44.000  
R12  19226631.620   102705258.387        -774.586          55.000    19226638.440    79881873.977        -602.352          51.000  
R23  20742085.200   110956225.543        3019.633          44.750                                                                  
R21  22150352.760   118531057.797       -3852.551          37.500                                                                  
R11  22702129.680   121313404.414       -4007.828          37.000    22702149.480    94354894.691       -3116.824          38.500  
C23  23460926.520   122167196.004       -2670.324          50.750                                                                  
C28  21850354.760   113780540.000        1217.840          48.000                                                                  
C37  22162127.120   115404017.063         263.328          52.500                                                                  
E15  25319590.560   133055351.516       -1928.590          49.750    25319598.080   101951513.855       -1478.082          51.250  
E13  23671168.120   124392832.176         975.684          46.500    23671174.680    95314003.176         747.430          48.750  
E21  23447200.340   123215875.141         320.379          49.000    23447205.840    94412168.395         246.070          50.750  
> 2024 04 10 10 38 20.0000000  0 18       0.000000000000
G28  21565537.680   113327677.820       -2007.086          46.500    21565544.780    88307298.336       -1565.395          43.750  
G18  21791062.880   114512800.590        2655.484          50.500    21791067.940    89230775.965        2071.152          49.500  
G29  20716818.100   108867613.180       -1239.277          50.250    20716820.300    84831926.504        -965.449          47.250  
G31  21473902.700   112846126.719        -164.211          50.000    21473903.720    87932053.020        -129.148          43.500  
G05  23601971.460   124029149.3521       1493.406          31.250                                                                  
G25  22108926.100   116183199.891       -2946.859          43.750                                                                  
R22  19200925.180   102495880.188        -807.340          55.000    19200931.900    79719018.309        -627.551          53.750  
R13  20367194.860   108759722.160        2736.770          37.250    20367209.080    84590913.168        2126.988          44.000  
R12  19226768.800   102705992.355        -775.715          55.250    19226775.900    79882444.840        -603.313          51.000  
R23  20741512.960   110953166.266        3019.926          44.750                                                                  
R21  22151064.500   118534867.391       -3851.859          38.750                                                                  
R11  22702875.420   121317370.152       -4005.426          39.250    22702892.160    94357979.090       -3117.313          40.000  
C23  23461431.980   122169827.598       -2670.867          51.000                                                                  
C28  21850113.280   113779282.824        1217.801          48.250                                                                  
C37  22162069.140   115403714.781         262.414          52.750                                                                  
E15  25319949.800   133057240.156       -1928.273          49.500    25319957.560   101952960.996       -1478.629          51.500  
E13  23670974.940   124391816.082         974.992          46.500    23670981.280    95313224.613         746.703          48.750  
E21  23447131.800   123215513.914         320.824          49.000    23447137.080    94411891.609         245.250          50.750  
> 2024 04 10 10 38 21.0000000  0 17       0.000000000000
G28  21565912.700   113329647.563       -2007.953          47.000    21565919.500    88308833.191       -1565.379          43.500  
G18  21790550.140   114510106.641        2654.953          50.750    21790555.460    89228676.793        2069.254          49.750  
G29  20717046.620   108868814.211       -1240.367          50.750    20717049.060    84832862.348        -966.254          47.250  
G31  21473927.260   112846254.461        -166.215          50.500    21473927.760    87932152.527        -128.242          43.500  
G25  22109479.220   116186110.230       -2949.641          43.750                                                                  
R22  19201068.820   102496648.438        -808.316          55.250    19201075.900    79719615.840        -628.336          53.750  
R13  20366675.740   108756949.836        2734.684          37.500    20366689.040    84588756.902        2125.117          44.000  
