% program   : RTKPOST ver.2.4.3 b34
% inp file  : C:\Users\franc\Desktop\Satellite_Navigation\Workbook_3\Acquisizione_SwiftNav_20240410\swift-gnss-20240410-123737.sbp.obs
% inp file  : C:\Users\franc\Desktop\Satellite_Navigation\Workbook_3\Acquisizione_SwiftNav_20240410\swift-gnss-20240410-123737.sbp.nav
% obs start : 2024/04/10 10:37:55.0 GPST (week2309 297475.0s)
% obs end   : 2024/04/10 10:59:25.0 GPST (week2309 298765.0s)
% pos mode  : Single
% elev mask : 15.0 deg
% ionos opt : Broadcast
% tropo opt : Saastamoinen
% ephemeris : Broadcast
% navi sys  : GPS
%
% (lat/lon/height=WGS84/ellipsoidal,Q=1:fix,2:float,3:sbas,4:dgps,5:single,6:ppp,ns=# of satellites)
%  GPST                  latitude(deg) longitude(deg)  height(m)   Q  ns   sdn(m)   sde(m)   sdu(m)  sdne(m)  sdeu(m)  sdun(m) age(s)  ratio
2024/04/10 10:38:20.000   45.410585820   11.892398213    83.0145   5   6   4.0656   2.9579  10.4329  -1.8657   3.9930  -3.6969   0.00    0.0
2024/04/10 10:38:21.000   45.410606028   11.892408212    72.1622   5   5   5.7516   2.9864  20.3712  -1.3458   2.9590  -9.2112   0.00    0.0
2024/04/10 10:38:22.000   45.410601049   11.892411595    73.4702   5   5   5.7509   2.9865  20.3681  -1.3474   2.9610  -9.2093   0.00    0.0
2024/04/10 10:38:23.000   45.410555345   11.892406032    94.8785   5   6   4.0658   2.9583  10.4347  -1.8674   3.9938  -3.6964   0.00    0.0
2024/04/10 10:38:24.000   45.410553140   11.892406284    95.9452   5   6   4.0658   2.9585  10.4352  -1.8680   3.9941  -3.6963   0.00    0.0
2024/04/10 10:38:25.000   45.410599770   11.892416055    72.8838   5   5   5.7489   2.9868  20.3587  -1.3524   2.9672  -9.2036   0.00    0.0
2024/04/10 10:38:26.000   45.410594903   11.892416144    73.8207   5   5   5.7482   2.9869  20.3555  -1.3540   2.9692  -9.2017   0.00    0.0
2024/04/10 10:38:27.000   45.410530815   11.892408179   104.8819   5   6   4.0660   2.9590  10.4370  -1.8697   3.9950  -3.6958   0.00    0.0
2024/04/10 10:38:28.000   45.410595741   11.892416917    74.4931   5   5   5.7468   2.9871  20.3492  -1.3573   2.9732  -9.1979   0.00    0.0
2024/04/10 10:38:29.000   45.410551719   11.892410650    95.2656   5   6   4.0661   2.9593  10.4382  -1.8709   3.9955  -3.6955   0.00    0.0
2024/04/10 10:38:30.000   45.410558417   11.892414662    92.6203   5   6   4.0662   2.9595  10.4388  -1.8715   3.9958  -3.6954   0.00    0.0
2024/04/10 10:38:31.000   45.410558566   11.892416942    90.6276   5   6   4.0662   2.9596  10.4394  -1.8720   3.9961  -3.6952   0.00    0.0
2024/04/10 10:38:32.000   45.410553347   11.892419253    90.3705   5   6   4.0663   2.9598  10.4400  -1.8726   3.9964  -3.6950   0.00    0.0
2024/04/10 10:38:33.000   45.410547677   11.892425631    91.4742   5   6   4.0663   2.9599  10.4405  -1.8732   3.9967  -3.6949   0.00    0.0
2024/04/10 10:38:34.000   45.410546634   11.892430040    91.3845   5   6   4.0664   2.9601  10.4411  -1.8737   3.9969  -3.6947   0.00    0.0
2024/04/10 10:38:35.000   45.410550663   11.892431473    89.7375   5   6   4.0664   2.9603  10.4417  -1.8743   3.9972  -3.6946   0.00    0.0
2024/04/10 10:38:36.000   45.410549271   11.892432384    90.3836   5   6   4.0665   2.9604  10.4423  -1.8749   3.9975  -3.6944   0.00    0.0
2024/04/10 10:38:37.000   45.410549707   11.892431157    90.1831   5   6   4.0665   2.9606  10.4428  -1.8755   3.9978  -3.6942   0.00    0.0
2024/04/10 10:38:38.000   45.410554408   11.892429901    88.9318   5   6   4.0666   2.9608  10.4434  -1.8760   3.9980  -3.6941   0.00    0.0
2024/04/10 10:38:39.000   45.410555148   11.892428437    87.7400   5   6   4.0666   2.9609  10.4440  -1.8766   3.9983  -3.6939   0.00    0.0
2024/04/10 10:38:40.000   45.410560643   11.892431600    84.8997   5   6   4.0667   2.9611  10.4445  -1.8772   3.9986  -3.6938   0.00    0.0
2024/04/10 10:38:41.000   45.410567974   11.892429763    82.5094   5   6   4.0667   2.9612  10.4451  -1.8778   3.9989  -3.6936   0.00    0.0
2024/04/10 10:38:42.000   45.410571157   11.892425801    83.1701   5   6   4.0668   2.9614  10.4457  -1.8783   3.9991  -3.6935   0.00    0.0
2024/04/10 10:38:43.000   45.410568955   11.892428287    83.6023   5   6   4.0669   2.9616  10.4462  -1.8789   3.9994  -3.6933   0.00    0.0
2024/04/10 10:38:44.000   45.410570029   11.892428816    83.9850   5   6   4.0669   2.9617  10.4468  -1.8795   3.9997  -3.6931   0.00    0.0
2024/04/10 10:38:45.000   45.410576143   11.892430364    81.6089   5   6   4.0670   2.9619  10.4473  -1.8800   3.9999  -3.6930   0.00    0.0
2024/04/10 10:38:46.000   45.410579281   11.892430422    80.8881   5   6   4.0670   2.9620  10.4479  -1.8806   4.0002  -3.6928   0.00    0.0
2024/04/10 10:38:47.000   45.410582904   11.892430515    80.1603   5   6   4.0671   2.9622  10.4484  -1.8812   4.0005  -3.6926   0.00    0.0
2024/04/10 10:38:48.000   45.410583108   11.892428061    81.5319   5   6   4.0671   2.9624  10.4490  -1.8818   4.0007  -3.6925   0.00    0.0
2024/04/10 10:38:49.000   45.410589900   11.892428576    80.7828   5   6   4.0672   2.9625  10.4495  -1.8823   4.0010  -3.6923   0.00    0.0
2024/04/10 10:38:50.000   45.410595824   11.892430130    78.7975   5   6   4.0672   2.9627  10.4501  -1.8829   4.0012  -3.6922   0.00    0.0
2024/04/10 10:38:51.000   45.410591913   11.892427849    81.0204   5   6   4.0673   2.9628  10.4506  -1.8835   4.0015  -3.6920   0.00    0.0
2024/04/10 10:38:52.000   45.410599557   11.892423472    79.9702   5   6   4.0674   2.9630  10.4511  -1.8840   4.0018  -3.6918   0.00    0.0
2024/04/10 10:38:53.000   45.410598324   11.892417793    81.7284   5   6   4.0674   2.9632  10.4517  -1.8846   4.0020  -3.6917   0.00    0.0
2024/04/10 10:38:54.000   45.410590776   11.892414645    85.0785   5   6   4.0675   2.9633  10.4522  -1.8852   4.0023  -3.6915   0.00    0.0
2024/04/10 10:38:55.000   45.410589009   11.892411564    85.4876   5   6   4.0675   2.9635  10.4527  -1.8857   4.0025  -3.6913   0.00    0.0
2024/04/10 10:38:56.000   45.410581428   11.892407541    87.8042   5   6   4.0676   2.9636  10.4533  -1.8863   4.0028  -3.6912   0.00    0.0
2024/04/10 10:38:57.000   45.410579159   11.892406755    89.2445   5   6   4.0676   2.9638  10.4538  -1.8869   4.0030  -3.6910   0.00    0.0
2024/04/10 10:38:58.000   45.410615803   11.892411631    71.2583   5   5   5.7263   2.9901  20.2494  -1.4046   3.0310  -9.1389   0.00    0.0
2024/04/10 10:38:59.000   45.410615066   11.892409593    69.9739   5   5   5.7257   2.9902  20.2460  -1.4061   3.0328  -9.1369   0.00    0.0
2024/04/10 10:39:00.000   45.410610707   11.892405631    71.8221   5   5   5.7250   2.9903  20.2425  -1.4076   3.0347  -9.1348   0.00    0.0
2024/04/10 10:39:01.000   45.410610354   11.892403760    73.3852   5   5   5.7243   2.9904  20.2390  -1.4092   3.0365  -9.1328   0.00    0.0
2024/04/10 10:39:02.000   45.410607566   11.892401617    74.1153   5   5   5.7236   2.9905  20.2355  -1.4107   3.0383  -9.1308   0.00    0.0
2024/04/10 10:39:03.000   45.410609155   11.892404491    71.8120   5   5   5.7229   2.9906  20.2319  -1.4122   3.0401  -9.1287   0.00    0.0
2024/04/10 10:39:04.000   45.410607823   11.892401858    72.7227   5   5   5.7222   2.9907  20.2284  -1.4137   3.0420  -9.1267   0.00    0.0
2024/04/10 10:39:05.000   45.410575388   11.892394608    88.8126   5   6   4.0681   2.9651  10.4580  -1.8914   4.0051  -3.6896   0.00    0.0
2024/04/10 10:39:06.000   45.410575643   11.892393910    89.1229   5   6   4.0682   2.9652  10.4585  -1.8920   4.0053  -3.6895   0.00    0.0
2024/04/10 10:39:07.000   45.410602253   11.892397144    75.1633   5   5   5.7201   2.9910  20.2178  -1.4182   3.0474  -9.1206   0.00    0.0
2024/04/10 10:39:08.000   45.410600847   11.892395573    75.5842   5   5   5.7194   2.9911  20.2142  -1.4197   3.0492  -9.1185   0.00    0.0
2024/04/10 10:39:09.000   45.410577188   11.892388639    88.7292   5   6   4.0683   2.9657  10.4600  -1.8937   4.0060  -3.6890   0.00    0.0
2024/04/10 10:39:10.000   45.410572160   11.892385870    92.1555   5   6   4.0684   2.9658  10.4605  -1.8943   4.0063  -3.6888   0.00    0.0
2024/04/10 10:39:11.000   45.410572169   11.892385475    90.3969   5   6   4.0684   2.9660  10.4610  -1.8948   4.0065  -3.6886   0.00    0.0
2024/04/10 10:39:12.000   45.410567559   11.892385903    92.2785   5   6   4.0685   2.9662  10.4615  -1.8954   4.0068  -3.6884   0.00    0.0
2024/04/10 10:39:13.000   45.410562177   11.892385538    94.6204   5   6   4.0686   2.9663  10.4620  -1.8959   4.0070  -3.6883   0.00    0.0
2024/04/10 10:39:14.000   45.410555363   11.892386513    98.2268   5   6   4.0686   2.9665  10.4625  -1.8965   4.0072  -3.6881   0.00    0.0
2024/04/10 10:39:15.000   45.410610327   11.892391103    73.0081   5   6   3.5944   2.7826  14.0796   1.6848  -2.5558  -4.3133   0.00    0.0
2024/04/10 10:39:16.000   45.410601961   11.892392193    77.2964   5   6   3.5945   2.7824  14.0818   1.6841  -2.5542  -4.3142   0.00    0.0
2024/04/10 10:39:17.000   45.410604374   11.892389247    77.0717   5   6   3.5946   2.7822  14.0840   1.6835  -2.5526  -4.3152   0.00    0.0
2024/04/10 10:39:18.000   45.410604952   11.892389776    75.7631   5   6   3.5947   2.7820  14.0861   1.6829  -2.5509  -4.3162   0.00    0.0
2024/04/10 10:39:19.000   45.410576905   11.892363324    96.4367   5   7   3.2170   2.4265   9.3058   0.8047   2.8092  -1.2919   0.00    0.0
2024/04/10 10:39:20.000   45.410573432   11.892362996    97.0788   5   7   3.2169   2.4266   9.3073   0.8037   2.8100  -1.2929   0.00    0.0
2024/04/10 10:39:21.000   45.410568008   11.892371018    97.1536   5   7   3.2169   2.4267   9.3088   0.8027   2.8108  -1.2939   0.00    0.0
2024/04/10 10:39:22.000   45.410567132   11.892378205    96.4929   5   7   3.2168   2.4268   9.3103   0.8017   2.8116  -1.2949   0.00    0.0
2024/04/10 10:39:23.000   45.410569449   11.892383237    95.3801   5   7   3.2168   2.4270   9.3118   0.8007   2.8124  -1.2959   0.00    0.0
2024/04/10 10:39:24.000   45.410600036   11.892417153    76.0132   5   6   3.5952   2.7810  14.0991   1.6792  -2.5411  -4.3219   0.00    0.0
2024/04/10 10:39:25.000   45.410599405   11.892420026    77.2528   5   6   3.5953   2.7809  14.1013   1.6785  -2.5395  -4.3228   0.00    0.0
2024/04/10 10:39:26.000   45.410596156   11.892426479    78.0620   5   6   3.5954   2.7807  14.1034   1.6779  -2.5378  -4.3237   0.00    0.0
2024/04/10 10:39:27.000   45.410598480   11.892429420    78.1961   5   6   3.5955   2.7805  14.1055   1.6773  -2.5362  -4.3247   0.00    0.0
2024/04/10 10:39:28.000   45.410600043   11.892429170    76.1828   5   6   3.5955   2.7803  14.1077   1.6767  -2.5345  -4.3256   0.00    0.0
2024/04/10 10:39:29.000   45.410602564   11.892432178    76.0918   5   6   3.5956   2.7802  14.1098   1.6761  -2.5329  -4.3266   0.00    0.0
2024/04/10 10:39:30.000   45.410614655   11.892427039    72.9091   5   6   3.5957   2.7800  14.1119   1.6754  -2.5312  -4.3275   0.00    0.0
2024/04/10 10:39:31.000   45.410629401   11.892427171    66.8990   5   6   3.5958   2.7798  14.1140   1.6748  -2.5295  -4.3285   0.00    0.0
2024/04/10 10:39:32.000   45.410628400   11.892434686    66.3974   5   6   3.5959   2.7797  14.1161   1.6742  -2.5279  -4.3294   0.00    0.0
2024/04/10 10:39:33.000   45.410627875   11.892442259    65.1129   5   6   3.5960   2.7795  14.1183   1.6736  -2.5262  -4.3304   0.00    0.0
2024/04/10 10:39:34.000   45.410634703   11.892444673    61.1246   5   6   3.5961   2.7793  14.1204   1.6729  -2.5246  -4.3313   0.00    0.0
2024/04/10 10:39:35.000   45.410635290   11.892446089    61.1949   5   6   3.5962   2.7792  14.1225   1.6723  -2.5229  -4.3323   0.00    0.0
2024/04/10 10:39:36.000   45.410634382   11.892449536    60.7558   5   6   3.5963   2.7790  14.1245   1.6717  -2.5212  -4.3332   0.00    0.0
2024/04/10 10:39:37.000   45.410633608   11.892449291    62.0323   5   6   3.5963   2.7788  14.1266   1.6711  -2.5195  -4.3342   0.00    0.0
2024/04/10 10:39:38.000   45.410640461   11.892449459    59.2416   5   6   3.5964   2.7787  14.1287   1.6704  -2.5179  -4.3351   0.00    0.0
2024/04/10 10:39:39.000   45.410638945   11.892450355    60.0532   5   6   3.5965   2.7785  14.1308   1.6698  -2.5162  -4.3361   0.00    0.0
2024/04/10 10:39:40.000   45.410640633   11.892455093    58.5084   5   6   3.5966   2.7783  14.1329   1.6692  -2.5145  -4.3370   0.00    0.0
2024/04/10 10:39:41.000   45.410643431   11.892452711    58.5661   5   6   3.5967   2.7782  14.1349   1.6685  -2.5128  -4.3380   0.00    0.0
2024/04/10 10:39:42.000   45.410639625   11.892455337    60.4835   5   6   3.5968   2.7780  14.1370   1.6679  -2.5111  -4.3389   0.00    0.0
2024/04/10 10:39:43.000   45.410642519   11.892456080    59.5387   5   6   3.5969   2.7779  14.1391   1.6673  -2.5094  -4.3399   0.00    0.0
2024/04/10 10:39:44.000   45.410646143   11.892457567    58.8207   5   6   3.5970   2.7777  14.1411   1.6667  -2.5078  -4.3408   0.00    0.0
2024/04/10 10:39:45.000   45.410644157   11.892460270    58.3107   5   6   3.5971   2.7775  14.1432   1.6660  -2.5061  -4.3417   0.00    0.0
2024/04/10 10:39:46.000   45.410642318   11.892460808    59.1431   5   6   3.5972   2.7774  14.1452   1.6654  -2.5044  -4.3427   0.00    0.0
2024/04/10 10:39:47.000   45.410644689   11.892462228    58.4228   5   6   3.5973   2.7772  14.1472   1.6648  -2.5027  -4.3436   0.00    0.0
2024/04/10 10:39:48.000   45.410645161   11.892458591    59.0314   5   6   3.5973   2.7770  14.1493   1.6641  -2.5010  -4.3446   0.00    0.0
2024/04/10 10:39:49.000   45.410643425   11.892461580    57.4075   5   6   3.5974   2.7769  14.1513   1.6635  -2.4993  -4.3455   0.00    0.0
2024/04/10 10:39:50.000   45.410649419   11.892463223    53.0940   5   6   3.5975   2.7767  14.1533   1.6629  -2.4976  -4.3465   0.00    0.0
2024/04/10 10:39:51.000   45.410645126   11.892471725    52.1380   5   6   3.5976   2.7765  14.1553   1.6622  -2.4959  -4.3474   0.00    0.0
2024/04/10 10:39:52.000   45.410643450   11.892467464    52.8193   5   6   3.5977   2.7764  14.1574   1.6616  -2.4941  -4.3483   0.00    0.0
2024/04/10 10:39:53.000   45.410633903   11.892472688    54.6510   5   6   3.5978   2.7762  14.1594   1.6610  -2.4924  -4.3493   0.00    0.0
2024/04/10 10:39:54.000   45.410639345   11.892471328    52.4144   5   6   3.5979   2.7761  14.1614   1.6603  -2.4907  -4.3502   0.00    0.0
2024/04/10 10:39:55.000   45.410635698   11.892468741    54.6676   5   6   3.5980   2.7759  14.1634   1.6597  -2.4890  -4.3512   0.00    0.0
2024/04/10 10:39:56.000   45.410630270   11.892465737    57.8981   5   6   3.5981   2.7757  14.1654   1.6591  -2.4873  -4.3521   0.00    0.0
2024/04/10 10:39:57.000   45.410627155   11.892463428    60.3230   5   6   3.5982   2.7756  14.1673   1.6584  -2.4855  -4.3530   0.00    0.0
2024/04/10 10:39:58.000   45.410627412   11.892467074    60.0492   5   6   3.5983   2.7754  14.1693   1.6578  -2.4838  -4.3540   0.00    0.0
2024/04/10 10:39:59.000   45.410620621   11.892472792    60.7794   5   6   3.5984   2.7752  14.1713   1.6572  -2.4821  -4.3549   0.00    0.0
2024/04/10 10:40:00.000   45.410619085   11.892467975    62.4174   5   6   3.5985   2.7751  14.1733   1.6565  -2.4804  -4.3558   0.00    0.0
2024/04/10 10:40:01.000   45.410613144   11.892472674    62.4261   5   6   3.5986   2.7749  14.1752   1.6559  -2.4786  -4.3568   0.00    0.0
2024/04/10 10:40:02.000   45.410606947   11.892475710    63.7371   5   6   3.5987   2.7748  14.1772   1.6553  -2.4769  -4.3577   0.00    0.0
2024/04/10 10:40:03.000   45.410596343   11.892468319    70.5612   5   6   3.5987   2.7746  14.1792   1.6546  -2.4752  -4.3587   0.00    0.0
2024/04/10 10:40:04.000   45.410595659   11.892468170    69.4521   5   6   3.5988   2.7744  14.1811   1.6540  -2.4734  -4.3596   0.00    0.0
2024/04/10 10:40:05.000   45.410587432   11.892465072    74.5312   5   7   3.2147   2.4320   9.3733   0.7574   2.8460  -1.3386   0.00    0.0
2024/04/10 10:40:06.000   45.410584325   11.892466886    74.8888   5   7   3.2147   2.4321   9.3747   0.7564   2.8467  -1.3396   0.00    0.0
2024/04/10 10:40:07.000   45.410579521   11.892468052    75.5599   5   7   3.2146   2.4323   9.3762   0.7553   2.8475  -1.3407   0.00    0.0
2024/04/10 10:40:08.000   45.410581146   11.892465864    74.0167   5   7   3.2146   2.4324   9.3776   0.7542   2.8483  -1.3417   0.00    0.0
2024/04/10 10:40:09.000   45.410579328   11.892461671    74.5525   5   7   3.2145   2.4325   9.3790   0.7532   2.8491  -1.3428   0.00    0.0
2024/04/10 10:40:10.000   45.410576367   11.892459419    74.5996   5   7   3.2145   2.4326   9.3804   0.7521   2.8499  -1.3438   0.00    0.0
2024/04/10 10:40:11.000   45.410576820   11.892458558    73.9533   5   7   3.2145   2.4328   9.3819   0.7510   2.8507  -1.3448   0.00    0.0
2024/04/10 10:40:12.000   45.410575223   11.892454232    74.7829   5   7   3.2144   2.4329   9.3833   0.7499   2.8515  -1.3459   0.00    0.0
2024/04/10 10:40:13.000   45.410573981   11.892456452    75.3935   5   7   3.2144   2.4330   9.3847   0.7489   2.8522  -1.3469   0.00    0.0
2024/04/10 10:40:14.000   45.410571821   11.892451341    76.1275   5   7   3.2143   2.4331   9.3861   0.7478   2.8530  -1.3480   0.00    0.0
2024/04/10 10:40:15.000   45.410569826   11.892449079    76.6776   5   7   3.2143   2.4333   9.3875   0.7467   2.8538  -1.3490   0.00    0.0
2024/04/10 10:40:16.000   45.410565645   11.892449746    77.0889   5   7   3.2142   2.4334   9.3889   0.7456   2.8546  -1.3500   0.00    0.0
2024/04/10 10:40:17.000   45.410567087   11.892447183    77.1167   5   7   3.2142   2.4335   9.3903   0.7445   2.8554  -1.3511   0.00    0.0
2024/04/10 10:40:18.000   45.410568649   11.892445347    76.7806   5   7   3.2142   2.4336   9.3917   0.7434   2.8561  -1.3521   0.00    0.0
2024/04/10 10:40:19.000   45.410569411   11.892444765    77.7086   5   7   3.2141   2.4337   9.3931   0.7423   2.8569  -1.3532   0.00    0.0
2024/04/10 10:40:20.000   45.410569320   11.892442783    77.0500   5   7   3.2141   2.4339   9.3945   0.7412   2.8577  -1.3542   0.00    0.0
2024/04/10 10:40:21.000   45.410567772   11.892446411    77.4352   5   7   3.2140   2.4340   9.3959   0.7401   2.8585  -1.3553   0.00    0.0
2024/04/10 10:40:22.000   45.410567656   11.892444357    77.5660   5   7   3.2140   2.4341   9.3973   0.7390   2.8593  -1.3563   0.00    0.0
2024/04/10 10:40:23.000   45.410568205   11.892446423    77.3885   5   7   3.2139   2.4342   9.3987   0.7379   2.8600  -1.3574   0.00    0.0
2024/04/10 10:40:24.000   45.410563625   11.892450567    79.0880   5   7   3.2139   2.4344   9.4001   0.7368   2.8608  -1.3584   0.00    0.0
2024/04/10 10:40:25.000   45.410564420   11.892449480    79.6924   5   7   3.2139   2.4345   9.4015   0.7357   2.8616  -1.3595   0.00    0.0
2024/04/10 10:40:26.000   45.410564670   11.892449864    79.3826   5   7   3.2138   2.4346   9.4029   0.7346   2.8624  -1.3605   0.00    0.0
2024/04/10 10:40:27.000   45.410567449   11.892451514    79.9311   5   7   3.2138   2.4347   9.4043   0.7335   2.8631  -1.3616   0.00    0.0
2024/04/10 10:40:28.000   45.410565471   11.892454075    79.7054   5   7   3.2137   2.4349   9.4057   0.7324   2.8639  -1.3626   0.00    0.0
2024/04/10 10:40:29.000   45.410568786   11.892452759    79.5654   5   7   3.2137   2.4350   9.4071   0.7313   2.8647  -1.3637   0.00    0.0
2024/04/10 10:40:30.000   45.410569965   11.892454141    79.9246   5   7   3.2137   2.4351   9.4085   0.7302   2.8655  -1.3647   0.00    0.0
2024/04/10 10:40:31.000   45.410568020   11.892455763    81.2794   5   7   3.2136   2.4352   9.4099   0.7291   2.8662  -1.3658   0.00    0.0
2024/04/10 10:40:32.000   45.410566180   11.892459322    82.0076   5   7   3.2136   2.4354   9.4112   0.7279   2.8670  -1.3668   0.00    0.0
2024/04/10 10:40:33.000   45.410572303   11.892453441    81.8293   5   7   3.2135   2.4355   9.4126   0.7268   2.8678  -1.3679   0.00    0.0
2024/04/10 10:40:34.000   45.410575771   11.892450372    80.2631   5   7   3.2135   2.4356   9.4140   0.7257   2.8685  -1.3689   0.00    0.0
2024/04/10 10:40:35.000   45.410573721   11.892451012    80.6855   5   7   3.2135   2.4357   9.4154   0.7246   2.8693  -1.3700   0.00    0.0
2024/04/10 10:40:36.000   45.410571623   11.892452621    81.8763   5   7   3.2134   2.4359   9.4167   0.7234   2.8701  -1.3711   0.00    0.0
2024/04/10 10:40:37.000   45.410571386   11.892451659    81.9263   5   7   3.2134   2.4360   9.4181   0.7223   2.8708  -1.3721   0.00    0.0
2024/04/10 10:40:38.000   45.410570358   11.892452945    82.5832   5   7   3.2133   2.4361   9.4195   0.7212   2.8716  -1.3732   0.00    0.0
2024/04/10 10:40:39.000   45.410569136   11.892453182    83.1188   5   7   3.2133   2.4362   9.4209   0.7201   2.8724  -1.3742   0.00    0.0
2024/04/10 10:40:40.000   45.410568897   11.892449242    83.7029   5   7   3.2133   2.4364   9.4222   0.7189   2.8732  -1.3753   0.00    0.0
2024/04/10 10:40:41.000   45.410571781   11.892447120    83.8542   5   7   3.2132   2.4365   9.4236   0.7178   2.8739  -1.3764   0.00    0.0
2024/04/10 10:40:42.000   45.410577322   11.892443804    83.1102   5   7   3.2132   2.4366   9.4250   0.7166   2.8747  -1.3774   0.00    0.0
2024/04/10 10:40:43.000   45.410578700   11.892442271    82.1174   5   7   3.2131   2.4367   9.4263   0.7155   2.8755  -1.3785   0.00    0.0
2024/04/10 10:40:44.000   45.410580992   11.892439010    81.3800   5   7   3.2131   2.4369   9.4277   0.7144   2.8762  -1.3796   0.00    0.0
2024/04/10 10:40:45.000   45.410582885   11.892436327    80.3328   5   7   3.2131   2.4370   9.4290   0.7132   2.8770  -1.3806   0.00    0.0
2024/04/10 10:40:46.000   45.410582208   11.892433822    80.6256   5   7   3.2130   2.4371   9.4304   0.7121   2.8777  -1.3817   0.00    0.0
2024/04/10 10:40:47.000   45.410586122   11.892430312    79.6529   5   7   3.2130   2.4372   9.4317   0.7109   2.8785  -1.3827   0.00    0.0
2024/04/10 10:40:48.000   45.410588947   11.892430578    79.3837   5   7   3.2130   2.4374   9.4331   0.7098   2.8793  -1.3838   0.00    0.0
2024/04/10 10:40:49.000   45.410589898   11.892433639    78.7725   5   7   3.2129   2.4375   9.4344   0.7086   2.8800  -1.3849   0.00    0.0
2024/04/10 10:40:50.000   45.410597863   11.892428706    77.9975   5   7   3.2129   2.4376   9.4358   0.7074   2.8808  -1.3860   0.00    0.0
2024/04/10 10:40:51.000   45.410601354   11.892427381    77.7764   5   7   3.2128   2.4378   9.4371   0.7063   2.8816  -1.3870   0.00    0.0
2024/04/10 10:40:52.000   45.410602470   11.892433738    77.0233   5   7   3.2128   2.4379   9.4385   0.7051   2.8823  -1.3881   0.00    0.0
2024/04/10 10:40:53.000   45.410607112   11.892438434    76.2208   5   7   3.2128   2.4380   9.4398   0.7040   2.8831  -1.3892   0.00    0.0
2024/04/10 10:40:54.000   45.410606197   11.892439684    76.4584   5   7   3.2127   2.4381   9.4412   0.7028   2.8838  -1.3902   0.00    0.0
2024/04/10 10:40:55.000   45.410603896   11.892443368    75.8638   5   7   3.2127   2.4383   9.4425   0.7016   2.8846  -1.3913   0.00    0.0
2024/04/10 10:40:56.000   45.410604798   11.892439862    75.8463   5   7   3.2127   2.4384   9.4438   0.7004   2.8854  -1.3924   0.00    0.0
2024/04/10 10:40:57.000   45.410603353   11.892440619    75.9644   5   7   3.2126   2.4385   9.4452   0.6993   2.8861  -1.3935   0.00    0.0
2024/04/10 10:40:58.000   45.410600044   11.892440957    75.5024   5   7   3.2126   2.4386   9.4465   0.6981   2.8869  -1.3945   0.00    0.0
2024/04/10 10:40:59.000   45.410593148   11.892443671    76.2557   5   7   3.2125   2.4388   9.4478   0.6969   2.8876  -1.3956   0.00    0.0
2024/04/10 10:41:00.000   45.410592782   11.892441514    76.2296   5   7   3.2125   2.4389   9.4492   0.6957   2.8884  -1.3967   0.00    0.0
2024/04/10 10:41:01.000   45.410590543   11.892437307    76.5177   5   7   3.2125   2.4390   9.4505   0.6946   2.8891  -1.3977   0.00    0.0
2024/04/10 10:41:02.000   45.410588998   11.892435377    76.0832   5   7   3.2124   2.4392   9.4518   0.6934   2.8899  -1.3988   0.00    0.0
2024/04/10 10:41:03.000   45.410592617   11.892432371    74.4102   5   7   3.2124   2.4393   9.4532   0.6922   2.8907  -1.3999   0.00    0.0
2024/04/10 10:41:04.000   45.410598030   11.892427544    72.0704   5   7   3.2124   2.4394   9.4545   0.6910   2.8914  -1.4010   0.00    0.0
2024/04/10 10:41:05.000   45.410596347   11.892429250    71.8220   5   7   3.2123   2.4395   9.4558   0.6898   2.8922  -1.4021   0.00    0.0
2024/04/10 10:41:06.000   45.410598696   11.892428580    71.4590   5   7   3.2123   2.4397   9.4571   0.6886   2.8929  -1.4031   0.00    0.0
2024/04/10 10:41:07.000   45.410606135   11.892426086    69.1683   5   7   3.2123   2.4398   9.4584   0.6874   2.8937  -1.4042   0.00    0.0
2024/04/10 10:41:08.000   45.410608829   11.892421381    68.9692   5   7   3.2122   2.4399   9.4598   0.6862   2.8944  -1.4053   0.00    0.0
2024/04/10 10:41:09.000   45.410606478   11.892418957    69.8850   5   7   3.2122   2.4400   9.4611   0.6850   2.8952  -1.4064   0.00    0.0
2024/04/10 10:41:10.000   45.410607288   11.892411459    70.3690   5   7   3.2122   2.4402   9.4624   0.6838   2.8959  -1.4075   0.00    0.0
2024/04/10 10:41:11.000   45.410608800   11.892409737    70.1868   5   7   3.2121   2.4403   9.4637   0.6826   2.8967  -1.4085   0.00    0.0
2024/04/10 10:41:12.000   45.410615972   11.892403948    68.9255   5   7   3.2121   2.4404   9.4650   0.6814   2.8974  -1.4096   0.00    0.0
2024/04/10 10:41:13.000   45.410625777   11.892396363    67.7659   5   7   3.2121   2.4406   9.4663   0.6802   2.8982  -1.4107   0.00    0.0
2024/04/10 10:41:14.000   45.410622878   11.892396628    68.8389   5   7   3.2120   2.4407   9.4676   0.6789   2.8989  -1.4118   0.00    0.0
2024/04/10 10:41:15.000   45.410624779   11.892395210    69.3706   5   7   3.2120   2.4408   9.4689   0.6777   2.8997  -1.4129   0.00    0.0
2024/04/10 10:41:16.000   45.410622000   11.892399519    68.8267   5   7   3.2120   2.4409   9.4702   0.6765   2.9004  -1.4140   0.00    0.0
2024/04/10 10:41:17.000   45.410616077   11.892403435    69.5083   5   7   3.2119   2.4411   9.4715   0.6753   2.9012  -1.4151   0.00    0.0
2024/04/10 10:41:18.000   45.410617391   11.892397186    70.3276   5   7   3.2119   2.4412   9.4728   0.6741   2.9019  -1.4161   0.00    0.0
2024/04/10 10:41:19.000   45.410621929   11.892391852    69.1316   5   7   3.2119   2.4413   9.4741   0.6728   2.9026  -1.4172   0.00    0.0
2024/04/10 10:41:20.000   45.410620580   11.892397314    69.4001   5   7   3.2118   2.4415   9.4754   0.6716   2.9034  -1.4183   0.00    0.0
2024/04/10 10:41:21.000   45.410614478   11.892402693    69.8550   5   7   3.2118   2.4416   9.4767   0.6704   2.9041  -1.4194   0.00    0.0
2024/04/10 10:41:22.000   45.410617565   11.892402901    69.6209   5   7   3.2118   2.4417   9.4780   0.6691   2.9049  -1.4205   0.00    0.0
2024/04/10 10:41:23.000   45.410624934   11.892390729    68.9209   5   7   3.2118   2.4419   9.4792   0.6679   2.9056  -1.4216   0.00    0.0
2024/04/10 10:41:24.000   45.410606813   11.892406899    74.0058   5   6   4.0776   2.9864  10.5083  -1.9683   4.0297  -3.6621   0.00    0.0
2024/04/10 10:41:25.000   45.410604130   11.892408721    75.5359   5   6   4.0777   2.9865  10.5085  -1.9689   4.0298  -3.6619   0.00    0.0
2024/04/10 10:41:26.000   45.410625018   11.892391814    70.3923   5   7   3.2117   2.4422   9.4831   0.6642   2.9078  -1.4249   0.00    0.0
2024/04/10 10:41:27.000   45.410620811   11.892393385    72.8541   5   7   3.2116   2.4424   9.4844   0.6629   2.9086  -1.4260   0.00    0.0
2024/04/10 10:41:28.000   45.410625229   11.892385959    71.8843   5   7   3.2116   2.4425   9.4856   0.6617   2.9093  -1.4270   0.00    0.0
2024/04/10 10:41:29.000   45.410629157   11.892378908    72.0670   5   7   3.2116   2.4426   9.4869   0.6604   2.9101  -1.4281   0.00    0.0
2024/04/10 10:41:30.000   45.410621186   11.892386389    73.2918   5   7   3.2115   2.4428   9.4882   0.6591   2.9108  -1.4292   0.00    0.0
2024/04/10 10:41:31.000   45.410597896   11.892408862    77.9775   5   6   4.0781   2.9874  10.5098  -1.9721   4.0304  -3.6605   0.00    0.0
2024/04/10 10:41:32.000   45.410599858   11.892407055    77.6359   5   6   4.0782   2.9875  10.5099  -1.9726   4.0305  -3.6603   0.00    0.0
2024/04/10 10:41:33.000   45.410619000   11.892388702    73.1032   5   7   3.2114   2.4432   9.4920   0.6553   2.9130  -1.4325   0.00    0.0
2024/04/10 10:41:34.000   45.410628744   11.892377136    73.1314   5   7   3.2114   2.4433   9.4933   0.6541   2.9137  -1.4336   0.00    0.0
2024/04/10 10:41:35.000   45.410605142   11.892398339    77.1244   5   6   4.0785   2.9880  10.5105  -1.9743   4.0308  -3.6596   0.00    0.0
2024/04/10 10:41:36.000   45.410604995   11.892393599    78.1236   5   6   4.0785   2.9881  10.5107  -1.9748   4.0309  -3.6594   0.00    0.0
2024/04/10 10:41:37.000   45.410619894   11.892379540    75.1262   5   7   3.2113   2.4437   9.4970   0.6503   2.9159  -1.4369   0.00    0.0
2024/04/10 10:41:38.000   45.410611536   11.892392503    76.0495   5   6   4.0787   2.9884  10.5111  -1.9759   4.0311  -3.6589   0.00    0.0
2024/04/10 10:41:39.000   45.410622823   11.892387900    71.6403   5   7   3.2113   2.4439   9.4996   0.6477   2.9174  -1.4391   0.00    0.0
2024/04/10 10:41:40.000   45.410615045   11.892392374    73.1292   5   7   3.2112   2.4441   9.5008   0.6464   2.9181  -1.4402   0.00    0.0
2024/04/10 10:41:41.000   45.410618136   11.892386011    73.5692   5   7   3.2112   2.4442   9.5021   0.6451   2.9189  -1.4413   0.00    0.0
2024/04/10 10:41:42.000   45.410611274   11.892390259    75.1643   5   7   3.2112   2.4443   9.5033   0.6438   2.9196  -1.4424   0.00    0.0
2024/04/10 10:41:43.000   45.410607116   11.892398897    74.6281   5   7   3.2112   2.4445   9.5046   0.6425   2.9203  -1.4435   0.00    0.0
2024/04/10 10:41:44.000   45.410612281   11.892391721    72.8380   5   7   3.2111   2.4446   9.5058   0.6412   2.9211  -1.4446   0.00    0.0
2024/04/10 10:41:45.000   45.410606890   11.892394468    75.0256   5   6   4.0793   2.9895  10.5123  -1.9796   4.0318  -3.6573   0.00    0.0
2024/04/10 10:41:46.000   45.410620580   11.892381835    71.8729   5   7   3.2111   2.4449   9.5083   0.6386   2.9225  -1.4468   0.00    0.0
2024/04/10 10:41:47.000   45.410619247   11.892380818    73.3732   5   7   3.2111   2.4450   9.5095   0.6373   2.9232  -1.4479   0.00    0.0
2024/04/10 10:41:48.000   45.410611569   11.892391084    75.1121   5   6   4.0795   2.9899  10.5128  -1.9813   4.0320  -3.6566   0.00    0.0
2024/04/10 10:41:49.000   45.410623554   11.892385223    70.6236   5   7   3.2110   2.4452   9.5120   0.6347   2.9247  -1.4501   0.00    0.0
2024/04/10 10:41:50.000   45.410632125   11.892392032    65.5365   5   7   3.2110   2.4454   9.5132   0.6334   2.9254  -1.4512   0.00    0.0
2024/04/10 10:41:51.000   45.410634186   11.892389845    65.7002   5   7   3.2110   2.4455   9.5145   0.6320   2.9261  -1.4524   0.00    0.0
2024/04/10 10:41:52.000   45.410649058   11.892387572    60.2255   5   7   3.2109   2.4456   9.5157   0.6307   2.9269  -1.4535   0.00    0.0
2024/04/10 10:41:53.000   45.410662617   11.892397120    52.0211   5   6   3.6109   2.7583  14.3625   1.5820  -2.2688  -4.4593   0.00    0.0
2024/04/10 10:41:54.000   45.410652493   11.892400458    56.7122   5   5   5.5992   3.0095  19.5049  -1.6284   3.2787  -8.7384   0.00    0.0
2024/04/10 10:41:55.000   45.410652026   11.892408363    54.8496   5   6   4.0801   2.9909  10.5138  -1.9850   4.0326  -3.6550   0.00    0.0
2024/04/10 10:41:56.000   45.410649646   11.892411676    56.1201   5   6   4.0802   2.9911  10.5140  -1.9855   4.0327  -3.6548   0.00    0.0
2024/04/10 10:41:57.000   45.410641708   11.892416849    57.5074   5   6   4.0803   2.9912  10.5141  -1.9861   4.0327  -3.6545   0.00    0.0
2024/04/10 10:41:58.000   45.410644873   11.892412452    57.9905   5   5   4.4156   3.4504  10.5321  -2.6170   3.9000  -3.5099   0.00    0.0
2024/04/10 10:41:59.000   45.410622776   11.892445274    56.5294   5   6   4.0804   2.9915  10.5144  -1.9872   4.0329  -3.6540   0.00    0.0
2024/04/10 10:42:00.000   45.410619333   11.892445881    57.5731   5   6   4.0805   2.9916  10.5145  -1.9877   4.0330  -3.6538   0.00    0.0
2024/04/10 10:42:01.000   45.410623158   11.892436452    59.5789   5   6   4.0806   2.9918  10.5147  -1.9882   4.0330  -3.6536   0.00    0.0
2024/04/10 10:42:02.000   45.410631097   11.892426134    57.2953   5   7   3.2107   2.4470   9.5279   0.6173   2.9341  -1.4646   0.00    0.0
2024/04/10 10:42:03.000   45.410635600   11.892427049    56.1925   5   7   3.2107   2.4471   9.5291   0.6159   2.9348  -1.4657   0.00    0.0
2024/04/10 10:42:04.000   45.410656765   11.892397964    58.2095   5   6   3.3532   2.7273   9.6953  -0.8870   2.5442  -0.6546   0.00    0.0
2024/04/10 10:42:05.000   45.410651832   11.892397335    59.0915   5   6   3.3533   2.7273   9.6970  -0.8881   2.5445  -0.6546   0.00    0.0
2024/04/10 10:42:06.000   45.410648471   11.892405345    58.2399   5   6   3.3534   2.7274   9.6986  -0.8893   2.5447  -0.6545   0.00    0.0
2024/04/10 10:42:07.000   45.410649184   11.892404405    58.5525   5   6   3.3535   2.7274   9.7003  -0.8905   2.5450  -0.6544   0.00    0.0
2024/04/10 10:42:08.000   45.410650627   11.892401597    58.7574   5   6   3.3536   2.7274   9.7019  -0.8916   2.5453  -0.6544   0.00    0.0
2024/04/10 10:42:09.000   45.410646855   11.892404129    60.5595   5   6   3.3537   2.7275   9.7036  -0.8928   2.5456  -0.6543   0.00    0.0
2024/04/10 10:42:10.000   45.410645487   11.892409807    60.8056   5   6   3.3539   2.7275   9.7053  -0.8939   2.5459  -0.6543   0.00    0.0
2024/04/10 10:42:11.000   45.410644453   11.892411575    60.4880   5   6   3.3540   2.7275   9.7069  -0.8950   2.5462  -0.6542   0.00    0.0
2024/04/10 10:42:12.000   45.410645570   11.892419194    59.2790   5   6   3.3541   2.7275   9.7085  -0.8962   2.5464  -0.6542   0.00    0.0
2024/04/10 10:42:13.000   45.410622484   11.892454058    57.4148   5   7   3.2104   2.4484   9.5410   0.6021   2.9419  -1.4768   0.00    0.0
2024/04/10 10:42:14.000   45.410624313   11.892459628    57.1307   5   7   3.2104   2.4486   9.5422   0.6007   2.9426  -1.4779   0.00    0.0
2024/04/10 10:42:15.000   45.410630239   11.892444137    59.8281   5   7   3.2104   2.4487   9.5434   0.5993   2.9434  -1.4791   0.00    0.0
2024/04/10 10:42:16.000   45.410635253   11.892444403    60.2369   5   7   3.2104   2.4488   9.5446   0.5979   2.9441  -1.4802   0.00    0.0
2024/04/10 10:42:17.000   45.410632798   11.892447465    60.4494   5   7   3.2103   2.4490   9.5458   0.5965   2.9448  -1.4813   0.00    0.0
2024/04/10 10:42:18.000   45.410632119   11.892437675    64.3371   5   6   3.3548   2.7277   9.7184  -0.9030   2.5481  -0.6539   0.00    0.0
2024/04/10 10:42:19.000   45.410637053   11.892439991    62.4437   5   6   3.3549   2.7278   9.7200  -0.9042   2.5484  -0.6539   0.00    0.0
2024/04/10 10:42:20.000   45.410633369   11.892447211    62.6905   5   6   3.3550   2.7278   9.7217  -0.9053   2.5487  -0.6539   0.00    0.0
2024/04/10 10:42:21.000   45.410629910   11.892447576    64.1052   5   6   3.3551   2.7278   9.7233  -0.9064   2.5490  -0.6538   0.00    0.0
2024/04/10 10:42:22.000   45.410621809   11.892457649    61.7921   5   7   3.2102   2.4496   9.5516   0.5894   2.9483  -1.4869   0.00    0.0
2024/04/10 10:42:23.000   45.410621517   11.892451357    61.3384   5   7   3.2102   2.4498   9.5528   0.5880   2.9490  -1.4880   0.00    0.0
2024/04/10 10:42:24.000   45.410619981   11.892448750    62.0677   5   7   3.2102   2.4499   9.5539   0.5865   2.9497  -1.4892   0.00    0.0
2024/04/10 10:42:25.000   45.410625077   11.892430655    64.1945   5   6   3.3556   2.7280   9.7298  -0.9110   2.5501  -0.6537   0.00    0.0
2024/04/10 10:42:26.000   45.410623802   11.892427600    63.9614   5   7   3.2102   2.4502   9.5563   0.5836   2.9511  -1.4914   0.00    0.0
2024/04/10 10:42:27.000   45.410618433   11.892430315    64.8568   5   7   3.2101   2.4503   9.5574   0.5822   2.9518  -1.4925   0.00    0.0
2024/04/10 10:42:28.000   45.410613353   11.892429275    65.9442   5   7   3.2101   2.4504   9.5586   0.5807   2.9525  -1.4937   0.00    0.0
2024/04/10 10:42:29.000   45.410607822   11.892427474    66.9231   5   7   3.2101   2.4506   9.5597   0.5793   2.9532  -1.4948   0.00    0.0
2024/04/10 10:42:30.000   45.410612126   11.892417477    66.3394   5   7   3.2101   2.4507   9.5609   0.5778   2.9539  -1.4959   0.00    0.0
2024/04/10 10:42:31.000   45.410612013   11.892415646    67.1107   5   7   3.2101   2.4508   9.5620   0.5763   2.9546  -1.4970   0.00    0.0
2024/04/10 10:42:32.000   45.410611337   11.892412495    66.6275   5   7   3.2101   2.4510   9.5632   0.5749   2.9553  -1.4982   0.00    0.0
2024/04/10 10:42:33.000   45.410615343   11.892408552    65.7526   5   7   3.2100   2.4511   9.5643   0.5734   2.9560  -1.4993   0.00    0.0
2024/04/10 10:42:34.000   45.410616465   11.892410367    65.4428   5   7   3.2100   2.4512   9.5655   0.5719   2.9567  -1.5004   0.00    0.0
2024/04/10 10:42:35.000   45.410617703   11.892407778    65.9581   5   7   3.2100   2.4514   9.5666   0.5704   2.9574  -1.5016   0.00    0.0
2024/04/10 10:42:36.000   45.410616498   11.892406131    66.8387   5   7   3.2100   2.4515   9.5678   0.5689   2.9581  -1.5027   0.00    0.0
2024/04/10 10:42:37.000   45.410615452   11.892402265    67.8489   5   7   3.2100   2.4517   9.5689   0.5674   2.9588  -1.5038   0.00    0.0
2024/04/10 10:42:38.000   45.410614740   11.892397148    69.1856   5   7   3.2099   2.4518   9.5700   0.5660   2.9595  -1.5049   0.00    0.0
2024/04/10 10:42:39.000   45.410614471   11.892398981    68.4960   5   7   3.2099   2.4519   9.5712   0.5645   2.9602  -1.5061   0.00    0.0
2024/04/10 10:42:40.000   45.410614735   11.892398665    67.7132   5   7   3.2099   2.4521   9.5723   0.5629   2.9609  -1.5072   0.00    0.0
2024/04/10 10:42:41.000   45.410623098   11.892390053    65.9029   5   7   3.2099   2.4522   9.5734   0.5614   2.9616  -1.5083   0.00    0.0
2024/04/10 10:42:42.000   45.410622215   11.892390285    66.2924   5   7   3.2099   2.4523   9.5745   0.5599   2.9623  -1.5095   0.00    0.0
2024/04/10 10:42:43.000   45.410625416   11.892383977    66.2338   5   7   3.2099   2.4525   9.5757   0.5584   2.9630  -1.5106   0.00    0.0
2024/04/10 10:42:44.000   45.410629813   11.892378781    64.5648   5   7   3.2098   2.4526   9.5768   0.5569   2.9637  -1.5117   0.00    0.0
2024/04/10 10:42:45.000   45.410631080   11.892376308    63.6816   5   7   3.2098   2.4527   9.5779   0.5553   2.9644  -1.5129   0.00    0.0
2024/04/10 10:42:46.000   45.410620023   11.892383255    66.1747   5   7   3.2098   2.4529   9.5790   0.5538   2.9650  -1.5140   0.00    0.0
2024/04/10 10:42:47.000   45.410620843   11.892377683    66.3586   5   7   3.2098   2.4530   9.5801   0.5523   2.9657  -1.5151   0.00    0.0
2024/04/10 10:42:48.000   45.410619206   11.892380801    66.1597   5   7   3.2098   2.4531   9.5813   0.5507   2.9664  -1.5163   0.00    0.0
2024/04/10 10:42:49.000   45.410618795   11.892382283    65.3826   5   7   3.2098   2.4533   9.5824   0.5492   2.9671  -1.5174   0.00    0.0
2024/04/10 10:42:50.000   45.410621866   11.892379341    65.8379   5   7   3.2098   2.4534   9.5835   0.5476   2.9678  -1.5186   0.00    0.0
2024/04/10 10:42:51.000   45.410617832   11.892383320    66.7613   5   7   3.2097   2.4536   9.5846   0.5461   2.9685  -1.5197   0.00    0.0
2024/04/10 10:42:59.000   45.410591300   11.892455754    71.8926   5   5   4.4374   3.4563  10.5490  -2.6547   3.8616  -3.4435   0.00    0.0
2024/04/10 10:43:02.000   45.410609709   11.892434715    68.5922   5   5   4.4385   3.4566  10.5497  -2.6566   3.8596  -3.4401   0.00    0.0
2024/04/10 10:43:03.000   45.410613831   11.892427715    68.1608   5   5   4.4389   3.4567  10.5500  -2.6572   3.8590  -3.4390   0.00    0.0
2024/04/10 10:43:04.000   45.410615018   11.892420777    70.0269   5   5   4.4393   3.4568  10.5502  -2.6578   3.8583  -3.4379   0.00    0.0
2024/04/10 10:43:05.000   45.410610884   11.892426225    71.9424   5   5   4.4397   3.4569  10.5504  -2.6585   3.8576  -3.4367   0.00    0.0
2024/04/10 10:43:06.000   45.410607927   11.892430217    72.5752   5   5   4.4400   3.4570  10.5506  -2.6591   3.8570  -3.4356   0.00    0.0
2024/04/10 10:43:07.000   45.410612961   11.892422135    72.3410   5   6   4.0865   3.0013  10.5186  -2.0233   4.0356  -3.6371   0.00    0.0
2024/04/10 10:43:08.000   45.410605671   11.892433175    72.1708   5   6   4.0866   3.0014  10.5186  -2.0238   4.0356  -3.6368   0.00    0.0
2024/04/10 10:43:09.000   45.410599437   11.892441176    73.3485   5   6   4.0867   3.0016  10.5185  -2.0243   4.0356  -3.6365   0.00    0.0
2024/04/10 10:43:10.000   45.410601378   11.892435445    73.9594   5   7   3.2095   2.4561   9.6052   0.5155   2.9814  -1.5414   0.00    0.0
2024/04/10 10:43:11.000   45.410596951   11.892438035    75.6890   5   7   3.2095   2.4563   9.6063   0.5138   2.9821  -1.5425   0.00    0.0
2024/04/10 10:43:12.000   45.410592621   11.892442390    75.8132   5   7   3.2095   2.4564   9.6073   0.5121   2.9827  -1.5436   0.00    0.0
2024/04/10 10:43:13.000   45.410591884   11.892440435    76.6528   5   7   3.2095   2.4566   9.6084   0.5104   2.9834  -1.5448   0.00    0.0
2024/04/10 10:43:14.000   45.410586216   11.892449765    77.0320   5   7   3.2095   2.4567   9.6094   0.5088   2.9841  -1.5459   0.00    0.0
2024/04/10 10:43:15.000   45.410596884   11.892430858    81.1177   5   6   3.3617   2.7298   9.8093  -0.9660   2.5634  -0.6542   0.00    0.0
2024/04/10 10:43:16.000   45.410601398   11.892424974    81.6622   5   6   3.3619   2.7298   9.8108  -0.9670   2.5636  -0.6542   0.00    0.0
2024/04/10 10:43:17.000   45.410597793   11.892427281    81.9041   5   6   3.3620   2.7299   9.8124  -0.9681   2.5639  -0.6543   0.00    0.0
2024/04/10 10:43:18.000   45.410589732   11.892442875    79.6069   5   7   3.2094   2.4573   9.6137   0.5020   2.9868  -1.5505   0.00    0.0
2024/04/10 10:43:19.000   45.410600550   11.892425013    82.6413   5   6   3.3623   2.7299   9.8155  -0.9703   2.5644  -0.6544   0.00    0.0
2024/04/10 10:43:20.000   45.410585596   11.892451909    78.9187   5   7   3.2094   2.4575   9.6157   0.4985   2.9881  -1.5528   0.00    0.0
2024/04/10 10:43:21.000   45.410600973   11.892427123    81.4567   5   6   3.3625   2.7300   9.8186  -0.9724   2.5649  -0.6545   0.00    0.0
2024/04/10 10:43:22.000   45.410595837   11.892430517    80.8235   5   6   3.3626   2.7301   9.8201  -0.9735   2.5652  -0.6546   0.00    0.0
2024/04/10 10:43:23.000   45.410589353   11.892438587    79.5907   5   7   3.2094   2.4579   9.6189   0.4933   2.9901  -1.5563   0.00    0.0
2024/04/10 10:43:24.000   45.410584454   11.892451570    77.4310   5   7   3.2094   2.4581   9.6199   0.4916   2.9907  -1.5574   0.00    0.0
2024/04/10 10:43:25.000   45.410591097   11.892438798    79.2602   5   6   3.3630   2.7302   9.8247  -0.9767   2.5659  -0.6547   0.00    0.0
2024/04/10 10:43:26.000   45.410587438   11.892446479    78.5799   5   6   3.3632   2.7302   9.8262  -0.9777   2.5662  -0.6548   0.00    0.0
2024/04/10 10:43:27.000   45.410590214   11.892444225    78.5376   5   6   3.3633   2.7303   9.8278  -0.9788   2.5664  -0.6549   0.00    0.0
2024/04/10 10:43:28.000   45.410581580   11.892463078    73.1557   5   7   3.2093   2.4586   9.6240   0.4845   2.9934  -1.5620   0.00    0.0
2024/04/10 10:43:29.000   45.410592074   11.892450123    72.1231   5   7   3.2093   2.4588   9.6250   0.4827   2.9941  -1.5632   0.00    0.0
2024/04/10 10:43:30.000   45.410596038   11.892443516    71.5099   5   7   3.2093   2.4589   9.6261   0.4809   2.9947  -1.5643   0.00    0.0
2024/04/10 10:43:31.000   45.410600798   11.892436150    70.9920   5   7   3.2093   2.4591   9.6271   0.4791   2.9954  -1.5655   0.00    0.0
2024/04/10 10:43:32.000   45.410601970   11.892432964    72.5227   5   7   3.2093   2.4592   9.6281   0.4773   2.9960  -1.5666   0.00    0.0
2024/04/10 10:43:33.000   45.410607081   11.892431182    71.1687   5   7   3.2093   2.4593   9.6291   0.4755   2.9967  -1.5678   0.00    0.0
2024/04/10 10:43:34.000   45.410611001   11.892424955    70.4566   5   7   3.2093   2.4595   9.6301   0.4737   2.9974  -1.5690   0.00    0.0
2024/04/10 10:43:35.000   45.410609386   11.892421736    70.1883   5   7   3.2093   2.4596   9.6311   0.4719   2.9980  -1.5701   0.00    0.0
2024/04/10 10:43:36.000   45.410605873   11.892427944    69.4723   5   7   3.2093   2.4597   9.6322   0.4700   2.9987  -1.5713   0.00    0.0
2024/04/10 10:43:37.000   45.410607795   11.892420905    70.4582   5   7   3.2093   2.4599   9.6332   0.4682   2.9993  -1.5724   0.00    0.0
2024/04/10 10:43:38.000   45.410609051   11.892414538    70.6838   5   7   3.2093   2.4600   9.6342   0.4663   3.0000  -1.5736   0.00    0.0
2024/04/10 10:43:39.000   45.410615279   11.892409703    67.9002   5   7   3.2093   2.4602   9.6352   0.4645   3.0006  -1.5747   0.00    0.0
2024/04/10 10:43:40.000   45.410616470   11.892416429    66.2055   5   7   3.2093   2.4603   9.6362   0.4626   3.0013  -1.5759   0.00    0.0
2024/04/10 10:43:41.000   45.410613160   11.892414098    67.5910   5   7   3.2093   2.4604   9.6372   0.4607   3.0019  -1.5770   0.00    0.0
2024/04/10 10:43:42.000   45.410618346   11.892411833    64.9942   5   7   3.2093   2.4606   9.6382   0.4588   3.0026  -1.5782   0.00    0.0
2024/04/10 10:43:43.000   45.410619005   11.892413579    64.1054   5   7   3.2093   2.4607   9.6392   0.4569   3.0033  -1.5794   0.00    0.0
2024/04/10 10:43:44.000   45.410609866   11.892405583    71.0352   5   6   3.6263   2.7448  14.4782   1.5032  -2.0271  -4.5537   0.00    0.0
2024/04/10 10:43:45.000   45.410609675   11.892408994    71.2364   5   6   3.6264   2.7447  14.4789   1.5025  -2.0248  -4.5545   0.00    0.0
2024/04/10 10:43:46.000   45.410610313   11.892416872    69.4985   5   7   3.2093   2.4611   9.6421   0.4512   3.0052  -1.5828   0.00    0.0
2024/04/10 10:43:47.000   45.410609476   11.892420918    69.5134   5   7   3.2093   2.4613   9.6431   0.4493   3.0058  -1.5840   0.00    0.0
2024/04/10 10:43:48.000   45.410608823   11.892422966    68.4468   5   6   3.6269   2.7444  14.4810   1.5003  -2.0177  -4.5569   0.00    0.0
2024/04/10 10:43:49.000   45.410607310   11.892420688    69.8797   5   6   3.6271   2.7443  14.4817   1.4995  -2.0153  -4.5577   0.00    0.0
2024/04/10 10:43:50.000   45.410598381   11.892413853    77.5497   5   7   3.2092   2.4617   9.6460   0.4435   3.0078  -1.5875   0.00    0.0
2024/04/10 10:43:51.000   45.410595999   11.892416016    78.4970   5   7   3.2092   2.4618   9.6470   0.4415   3.0084  -1.5886   0.00    0.0
2024/04/10 10:43:52.000   45.410592701   11.892420454    79.7952   5   7   3.2092   2.4620   9.6480   0.4395   3.0091  -1.5898   0.00    0.0
2024/04/10 10:43:53.000   45.410596990   11.892427783    77.1353   5   7   3.2092   2.4621   9.6490   0.4375   3.0097  -1.5909   0.00    0.0
2024/04/10 10:43:54.000   45.410598568   11.892428847    76.1395   5   7   3.2092   2.4623   9.6499   0.4355   3.0104  -1.5921   0.00    0.0
2024/04/10 10:43:55.000   45.410594671   11.892429996    79.1456   5   7   3.2092   2.4624   9.6509   0.4335   3.0110  -1.5933   0.00    0.0
2024/04/10 10:43:56.000   45.410593715   11.892431771    80.8124   5   7   3.2092   2.4625   9.6519   0.4315   3.0117  -1.5944   0.00    0.0
2024/04/10 10:43:57.000   45.410591405   11.892434423    80.5505   5   7   3.2092   2.4627   9.6528   0.4295   3.0123  -1.5956   0.00    0.0
2024/04/10 10:43:58.000   45.410590038   11.892446517    78.0456   5   7   3.2092   2.4628   9.6538   0.4275   3.0129  -1.5967   0.00    0.0
2024/04/10 10:43:59.000   45.410592497   11.892447282    78.2173   5   7   3.2092   2.4630   9.6547   0.4254   3.0136  -1.5979   0.00    0.0
2024/04/10 10:44:00.000   45.410593058   11.892449605    77.6466   5   7   3.2092   2.4631   9.6557   0.4234   3.0142  -1.5991   0.00    0.0
2024/04/10 10:44:01.000   45.410592489   11.892449882    77.9316   5   7   3.2092   2.4633   9.6567   0.4213   3.0149  -1.6002   0.00    0.0
2024/04/10 10:44:02.000   45.410591505   11.892462196    74.3532   5   7   3.2092   2.4634   9.6576   0.4192   3.0155  -1.6014   0.00    0.0
2024/04/10 10:44:03.000   45.410589981   11.892463229    74.7338   5   7   3.2092   2.4635   9.6586   0.4172   3.0161  -1.6026   0.00    0.0
2024/04/10 10:44:04.000   45.410586681   11.892460279    77.0640   5   7   3.2092   2.4637   9.6595   0.4151   3.0168  -1.6037   0.00    0.0
2024/04/10 10:44:05.000   45.410584516   11.892459137    77.9863   5   7   3.2092   2.4638   9.6604   0.4130   3.0174  -1.6049   0.00    0.0
2024/04/10 10:44:06.000   45.410584440   11.892457311    78.3822   5   7   3.2092   2.4640   9.6614   0.4108   3.0180  -1.6060   0.00    0.0
2024/04/10 10:44:07.000   45.410584375   11.892454366    78.3745   5   7   3.2092   2.4641   9.6623   0.4087   3.0187  -1.6072   0.00    0.0
2024/04/10 10:44:08.000   45.410585763   11.892453654    78.3606   5   7   3.2092   2.4642   9.6633   0.4066   3.0193  -1.6084   0.00    0.0
2024/04/10 10:44:09.000   45.410581644   11.892453708    78.7201   5   7   3.2092   2.4644   9.6642   0.4044   3.0199  -1.6095   0.00    0.0
2024/04/10 10:44:10.000   45.410576212   11.892454470    79.8376   5   7   3.2092   2.4645   9.6651   0.4022   3.0206  -1.6107   0.00    0.0
2024/04/10 10:44:11.000   45.410577062   11.892450823    81.1490   5   7   3.2092   2.4647   9.6661   0.4001   3.0212  -1.6119   0.00    0.0
2024/04/10 10:44:12.000   45.410578831   11.892450479    80.9928   5   7   3.2092   2.4648   9.6670   0.3979   3.0218  -1.6130   0.00    0.0
2024/04/10 10:44:13.000   45.410580289   11.892446967    80.1481   5   7   3.2092   2.4649   9.6679   0.3957   3.0225  -1.6142   0.00    0.0
2024/04/10 10:44:14.000   45.410579595   11.892446359    80.2753   5   7   3.2092   2.4651   9.6688   0.3934   3.0231  -1.6154   0.00    0.0
2024/04/10 10:44:15.000   45.410583015   11.892443920    80.9808   5   7   3.2092   2.4652   9.6698   0.3912   3.0237  -1.6165   0.00    0.0
2024/04/10 10:44:16.000   45.410586577   11.892448120    80.1640   5   7   3.2092   2.4654   9.6707   0.3890   3.0243  -1.6177   0.00    0.0
2024/04/10 10:44:17.000   45.410588699   11.892446671    79.8212   5   7   3.2092   2.4655   9.6716   0.3867   3.0250  -1.6189   0.00    0.0
2024/04/10 10:44:18.000   45.410592706   11.892441096    79.5492   5   7   3.2093   2.4657   9.6725   0.3844   3.0256  -1.6200   0.00    0.0
2024/04/10 10:44:19.000   45.410598239   11.892435623    77.9425   5   7   3.2093   2.4658   9.6734   0.3821   3.0262  -1.6212   0.00    0.0
2024/04/10 10:44:20.000   45.410596348   11.892431608    79.2036   5   7   3.2093   2.4659   9.6743   0.3798   3.0269  -1.6224   0.00    0.0
2024/04/10 10:44:21.000   45.410597333   11.892430689    78.5969   5   7   3.2093   2.4661   9.6752   0.3775   3.0275  -1.6235   0.00    0.0
2024/04/10 10:44:22.000   45.410595256   11.892426033    81.2856   5   7   3.2093   2.4662   9.6761   0.3752   3.0281  -1.6247   0.00    0.0
2024/04/10 10:44:23.000   45.410597880   11.892420074    81.9932   5   7   3.2093   2.4664   9.6770   0.3728   3.0287  -1.6259   0.00    0.0
2024/04/10 10:44:24.000   45.410598537   11.892419493    82.0645   5   7   3.2093   2.4665   9.6779   0.3705   3.0294  -1.6271   0.00    0.0
2024/04/10 10:44:25.000   45.410594082   11.892416407    83.4252   5   7   3.2093   2.4667   9.6788   0.3681   3.0300  -1.6282   0.00    0.0
2024/04/10 10:44:26.000   45.410592819   11.892413126    84.3221   5   7   3.2093   2.4668   9.6797   0.3657   3.0306  -1.6294   0.00    0.0
2024/04/10 10:44:27.000   45.410599199   11.892407845    83.4486   5   7   3.2093   2.4669   9.6806   0.3633   3.0312  -1.6306   0.00    0.0
2024/04/10 10:44:28.000   45.410598791   11.892406665    85.1384   5   7   3.2093   2.4671   9.6815   0.3609   3.0318  -1.6317   0.00    0.0
2024/04/10 10:44:29.000   45.410599360   11.892401466    85.7305   5   7   3.2093   2.4672   9.6824   0.3584   3.0325  -1.6329   0.00    0.0
2024/04/10 10:44:30.000   45.410601271   11.892402181    85.5301   5   7   3.2093   2.4674   9.6833   0.3559   3.0331  -1.6341   0.00    0.0
2024/04/10 10:44:31.000   45.410606387   11.892401973    83.5135   5   7   3.2093   2.4675   9.6842   0.3535   3.0337  -1.6352   0.00    0.0
2024/04/10 10:44:32.000   45.410609218   11.892402085    82.7013   5   7   3.2093   2.4676   9.6851   0.3510   3.0343  -1.6364   0.00    0.0
2024/04/10 10:44:33.000   45.410602460   11.892402599    84.9432   5   7   3.2093   2.4678   9.6859   0.3484   3.0349  -1.6376   0.00    0.0
2024/04/10 10:44:34.000   45.410602757   11.892395587    85.7362   5   7   3.2093   2.4679   9.6868   0.3459   3.0355  -1.6388   0.00    0.0
2024/04/10 10:44:35.000   45.410601398   11.892394424    86.0337   5   7   3.2093   2.4681   9.6877   0.3433   3.0362  -1.6399   0.00    0.0
2024/04/10 10:44:36.000   45.410619052   11.892417354    71.4235   5   6   3.6345   2.7395  14.5071   1.4641  -1.9006  -4.5948   0.00    0.0
2024/04/10 10:44:37.000   45.410618432   11.892412725    73.5429   5   6   3.6347   2.7394  14.5075   1.4634  -1.8981  -4.5956   0.00    0.0
2024/04/10 10:44:38.000   45.410619340   11.892409659    73.7312   5   6   3.6348   2.7393  14.5079   1.4626  -1.8955  -4.5963   0.00    0.0
2024/04/10 10:44:39.000   45.410614971   11.892406479    75.8835   5   6   3.6350   2.7392  14.5083   1.4618  -1.8930  -4.5971   0.00    0.0
2024/04/10 10:44:40.000   45.410613485   11.892405464    75.9716   5   6   3.6352   2.7391  14.5087   1.4611  -1.8905  -4.5979   0.00    0.0
2024/04/10 10:44:41.000   45.410615476   11.892406582    74.6959   5   6   3.6353   2.7390  14.5091   1.4603  -1.8879  -4.5986   0.00    0.0
2024/04/10 10:44:42.000   45.410616093   11.892411975    73.7451   5   6   3.6355   2.7389  14.5094   1.4595  -1.8854  -4.5994   0.00    0.0
2024/04/10 10:44:43.000   45.410606963   11.892417010    75.1817   5   6   3.6357   2.7389  14.5098   1.4588  -1.8829  -4.6001   0.00    0.0
2024/04/10 10:44:44.000   45.410601882   11.892418721    76.2720   5   6   3.6358   2.7388  14.5101   1.4580  -1.8803  -4.6009   0.00    0.0
2024/04/10 10:44:45.000   45.410597434   11.892424831    76.2918   5   6   3.6360   2.7387  14.5105   1.4572  -1.8778  -4.6017   0.00    0.0
2024/04/10 10:44:46.000   45.410592995   11.892424720    78.6720   5   6   3.6362   2.7386  14.5108   1.4565  -1.8752  -4.6024   0.00    0.0
2024/04/10 10:44:47.000   45.410592945   11.892426278    78.4422   5   6   3.6363   2.7385  14.5112   1.4557  -1.8726  -4.6032   0.00    0.0
2024/04/10 10:44:48.000   45.410591843   11.892428654    78.7247   5   6   3.6365   2.7384  14.5115   1.4549  -1.8701  -4.6039   0.00    0.0
2024/04/10 10:44:49.000   45.410587289   11.892433779    79.0937   5   6   3.6367   2.7383  14.5118   1.4541  -1.8675  -4.6047   0.00    0.0
2024/04/10 10:44:50.000   45.410584279   11.892437792    78.6560   5   6   3.6368   2.7382  14.5121   1.4534  -1.8649  -4.6055   0.00    0.0
2024/04/10 10:44:51.000   45.410586141   11.892441641    77.9418   5   6   3.6370   2.7381  14.5124   1.4526  -1.8624  -4.6062   0.00    0.0
2024/04/10 10:44:52.000   45.410584677   11.892441007    77.9763   5   6   3.6372   2.7380  14.5127   1.4518  -1.8598  -4.6070   0.00    0.0
2024/04/10 10:44:53.000   45.410587747   11.892441167    77.2670   5   6   3.6373   2.7379  14.5130   1.4510  -1.8572  -4.6077   0.00    0.0
2024/04/10 10:44:54.000   45.410558729   11.892416448    98.2359   5   7   3.2095   2.4708   9.7039   0.2903   3.0477  -1.6622   0.00    0.0
2024/04/10 10:44:55.000   45.410558910   11.892417937    97.3725   5   7   3.2095   2.4709   9.7047   0.2873   3.0483  -1.6634   0.00    0.0
2024/04/10 10:44:56.000   45.410553487   11.892420094    97.7535   5   7   3.2095   2.4711   9.7055   0.2842   3.0489  -1.6646   0.00    0.0
2024/04/10 10:44:57.000   45.410553426   11.892426139    96.4035   5   7   3.2095   2.4712   9.7064   0.2810   3.0495  -1.6658   0.00    0.0
2024/04/10 10:44:58.000   45.410553617   11.892428025    95.1696   5   7   3.2095   2.4714   9.7072   0.2778   3.0501  -1.6669   0.00    0.0
2024/04/10 10:44:59.000   45.410550686   11.892429368    96.8472   5   7   3.2096   2.4715   9.7080   0.2746   3.0507  -1.6681   0.00    0.0
2024/04/10 10:45:00.000   45.410549579   11.892427038    97.0544   5   7   3.2096   2.4717   9.7088   0.2714   3.0513  -1.6693   0.00    0.0
2024/04/10 10:45:01.000   45.410551754   11.892423899    96.6543   5   7   3.2096   2.4718   9.7096   0.2681   3.0519  -1.6705   0.00    0.0
2024/04/10 10:45:02.000   45.410554249   11.892421989    95.9668   5   7   3.2096   2.4720   9.7104   0.2647   3.0525  -1.6716   0.00    0.0
2024/04/10 10:45:03.000   45.410554772   11.892418459    96.2985   5   7   3.2096   2.4721   9.7112   0.2614   3.0531  -1.6728   0.00    0.0
2024/04/10 10:45:04.000   45.410554988   11.892417264    95.0649   5   7   3.2096   2.4722   9.7121   0.2579   3.0537  -1.6740   0.00    0.0
2024/04/10 10:45:05.000   45.410557924   11.892415092    91.8345   5   7   3.2096   2.4724   9.7129   0.2545   3.0543  -1.6752   0.00    0.0
2024/04/10 10:45:06.000   45.410552806   11.892420076    91.2335   5   7   3.2096   2.4725   9.7137   0.2509   3.0549  -1.6763   0.00    0.0
2024/04/10 10:45:07.000   45.410553821   11.892422134    89.6198   5   7   3.2097   2.4727   9.7145   0.2474   3.0555  -1.6775   0.00    0.0
2024/04/10 10:45:08.000   45.410551710   11.892416439    92.7051   5   7   3.2097   2.4728   9.7153   0.2437   3.0560  -1.6787   0.00    0.0
2024/04/10 10:45:09.000   45.410548232   11.892419006    93.4815   5   7   3.2097   2.4730   9.7161   0.2400   3.0566  -1.6799   0.00    0.0
2024/04/10 10:45:10.000   45.410555177   11.892418720    91.7252   5   7   3.2097   2.4731   9.7168   0.2363   3.0572  -1.6811   0.00    0.0
2024/04/10 10:45:11.000   45.410559635   11.892414761    90.6506   5   7   3.2097   2.4733   9.7176   0.2325   3.0578  -1.6822   0.00    0.0
2024/04/10 10:45:12.000   45.410565969   11.892408158    90.3373   5   7   3.2097   2.4734   9.7184   0.2286   3.0584  -1.6834   0.00    0.0
2024/04/10 10:45:13.000   45.410568045   11.892408784    89.2505   5   7   3.2097   2.4735   9.7192   0.2247   3.0590  -1.6846   0.00    0.0
2024/04/10 10:45:14.000   45.410566344   11.892412736    89.3582   5   7   3.2098   2.4737   9.7200   0.2207   3.0596  -1.6858   0.00    0.0
2024/04/10 10:45:15.000   45.410565291   11.892411376    89.9852   5   7   3.2098   2.4738   9.7208   0.2166   3.0602  -1.6870   0.00    0.0
2024/04/10 10:45:16.000   45.410569684   11.892413335    87.8659   5   7   3.2098   2.4740   9.7216   0.2124   3.0608  -1.6882   0.00    0.0
2024/04/10 10:45:17.000   45.410574057   11.892408761    87.2529   5   7   3.2098   2.4741   9.7223   0.2082   3.0613  -1.6893   0.00    0.0
2024/04/10 10:45:18.000   45.410571335   11.892410479    87.6051   5   7   3.2098   2.4743   9.7231   0.2039   3.0619  -1.6905   0.00    0.0
2024/04/10 10:45:19.000   45.410574765   11.892410193    87.0436   5   7   3.2098   2.4744   9.7239   0.1994   3.0625  -1.6917   0.00    0.0
2024/04/10 10:45:20.000   45.410580351   11.892404545    85.3175   5   7   3.2099   2.4746   9.7246   0.1949   3.0631  -1.6929   0.00    0.0
2024/04/10 10:45:21.000   45.410588321   11.892405674    84.0285   5   7   3.2099   2.4747   9.7254   0.1902   3.0637  -1.6941   0.00    0.0
2024/04/10 10:45:22.000   45.410596766   11.892401544    80.9749   5   7   3.2099   2.4749   9.7262   0.1855   3.0643  -1.6952   0.00    0.0
2024/04/10 10:45:23.000   45.410599418   11.892410089    77.4776   5   7   3.2099   2.4750   9.7269   0.1806   3.0648  -1.6964   0.00    0.0
2024/04/10 10:45:24.000   45.410595489   11.892417562    76.0658   5   7   3.2099   2.4751   9.7277   0.1755   3.0654  -1.6976   0.00    0.0
2024/04/10 10:45:25.000   45.410592650   11.892417580    76.2620   5   7   3.2099   2.4753   9.7285   0.1704   3.0660  -1.6988   0.00    0.0
2024/04/10 10:45:26.000   45.410592044   11.892412822    76.8190   5   7   3.2100   2.4754   9.7292   0.1650   3.0666  -1.7000   0.00    0.0
2024/04/10 10:45:27.000   45.410594619   11.892404342    76.8251   5   7   3.2100   2.4756   9.7300   0.1595   3.0671  -1.7012   0.00    0.0
